{"data": [{"city": "Hà Nội", "district": "Ba Đình", "ward": "Cống Vị", "street": "Kim Mã Thượng", "geolocation": {"latitude": 21.0358105, "longitude": 105.8136389}}, {"city": "Hà Nội", "district": "Ba Đình", "ward": "Cống Vị", "street": "Linh Lang", "geolocation": {"latitude": 21.035442, "longitude": 105.810484}}, {"city": "Hà Nội", "district": "Ba Đình", "ward": "Cống Vị", "street": "Liễu Giai", "geolocation": {"latitude": 21.033932, "longitude": 105.813901}}, {"city": "Hà Nội", "district": "Ba Đình", "ward": "Cống Vị", "street": "Nguyễn Văn Ngọc", "geolocation": {"latitude": 21.031931, "longitude": 105.8107566}}, {"city": "Hà Nội", "district": "Ba Đình", "ward": "Cống Vị", "street": "Phan Kế Bính", "geolocation": {"latitude": 21.035625, "longitude": 105.8086653}}, {"city": "Hà Nội", "district": "Ba Đình", "ward": "Cống Vị", "street": "Đào Tấn", "geolocation": {"latitude": 21.032496, "longitude": 105.809125}}, {"city": "Hà Nội", "district": "Ba Đình", "ward": "Cống Vị", "street": "Đường Bưởi", "geolocation": {"latitude": 21.0400412, "longitude": 105.8069923}}, {"city": "Hà Nội", "district": "Ba Đình", "ward": "Cống Vị", "street": "Đội Cấn", "geolocation": {"latitude": 21.037872, "longitude": 105.813652}}, {"city": "Hà Nội", "district": "Ba Đình", "ward": "Điện Biên", "street": "Bắc Sơn", "geolocation": {"latitude": 21.0357762, "longitude": 105.8384929}}, {"city": "Hà Nội", "district": "Ba Đình", "ward": "Điện Biên", "street": "Cao Bá Quát", "geolocation": {"latitude": 21.030443, "longitude": 105.838478}}, {"city": "Hà Nội", "district": "Ba Đình", "ward": "Điện Biên", "street": "Chu Văn An", "geolocation": {"latitude": 21.032017, "longitude": 105.836387}}, {"city": "Hà Nội", "district": "Ba Đình", "ward": "Điện Biên", "street": "Chùa Một Cột", "geolocation": {"latitude": 21.035184, "longitude": 105.834895}}, {"city": "Hà Nội", "district": "Ba Đình", "ward": "Điện Biên", "street": "Hoàng Diệu", "geolocation": {"latitude": 21.033281, "longitude": 105.838907}}, {"city": "Hà Nội", "district": "Ba Đình", "ward": "Điện Biên", "street": "Hùng Vương", "geolocation": {"latitude": 21.039124, "longitude": 105.83573}}, {"city": "Hà Nội", "district": "Ba Đình", "ward": "Điện Biên", "street": "Khúc Hạo", "geolocation": {"latitude": 21.031475, "longitude": 105.837179}}, {"city": "Hà Nội", "district": "Ba Đình", "ward": "Điện Biên", "street": "Lê Duẩn", "geolocation": {"latitude": 21.029576, "longitude": 105.841566}}, {"city": "Hà Nội", "district": "Ba Đình", "ward": "Điện Biên", "street": "Lê Hồng Phong", "geolocation": {"latitude": 21.033831, "longitude": 105.835668}}, {"city": "Hà Nội", "district": "Ba Đình", "ward": "Điện Biên", "street": "Lê Trực", "geolocation": {"latitude": 21.032171, "longitude": 105.8330541}}, {"city": "Hà Nội", "district": "Ba Đình", "ward": "Điện Biên", "street": "Nguyễn Thái Học", "geolocation": {"latitude": 21.031342, "longitude": 105.832744}}, {"city": "Hà Nội", "district": "Ba Đình", "ward": "Điện Biên", "street": "Nguyễn Tri Phương", "geolocation": {"latitude": 21.036412, "longitude": 105.841179}}, {"city": "Hà Nội", "district": "Ba Đình", "ward": "Điện Biên", "street": "Sơn Tây", "geolocation": {"latitude": 21.032898, "longitude": 105.830727}}, {"city": "Hà Nội", "district": "Ba Đình", "ward": "Điện Biên", "street": "Trần Phú", "geolocation": {"latitude": 21.0315459, "longitude": 105.8359866}}, {"city": "Hà Nội", "district": "Ba Đình", "ward": "Điện Biên", "street": "Tôn Thất Thịêp", "geolocation": {"latitude": 21.0328873, "longitude": 105.8434293}}, {"city": "Hà Nội", "district": "Ba Đình", "ward": "Điện Biên", "street": "Tôn Thất Đảm", "geolocation": {"latitude": 21.035562, "longitude": 105.837954}}, {"city": "Hà Nội", "district": "Ba Đình", "ward": "Điện Biên", "street": "Yên Thế", "geolocation": {"latitude": 21.0287727, "longitude": 105.8394513}}, {"city": "Hà Nội", "district": "Ba Đình", "ward": "Điện Biên", "street": "Ông Ích Khiêm", "geolocation": {"latitude": 21.0333111, "longitude": 105.8335649}}, {"city": "Hà Nội", "district": "Ba Đình", "ward": "Điện Biên", "street": "Điện Biên Phủ", "geolocation": {"latitude": 21.033317, "longitude": 105.838527}}, {"city": "Hà Nội", "district": "Ba Đình", "ward": "Điện Biên", "street": "Độc Lập", "geolocation": {"latitude": 21.036299, "longitude": 105.8364681}}, {"city": "Hà Nội", "district": "Ba Đình", "ward": "Đội Cấn", "street": "Chùa Một Cột", "geolocation": {"latitude": 21.035184, "longitude": 105.834895}}, {"city": "Hà Nội", "district": "Ba Đình", "ward": "Đội Cấn", "street": "Giang Văn Minh", "geolocation": {"latitude": 21.032555, "longitude": 105.827047}}, {"city": "Hà Nội", "district": "Ba Đình", "ward": "Đội Cấn", "street": "Ngọc Hà", "geolocation": {"latitude": 21.037118, "longitude": 105.831096}}, {"city": "Hà Nội", "district": "Ba Đình", "ward": "Đội Cấn", "street": "Thanh Bảo", "geolocation": {"latitude": 21.033365, "longitude": 105.831341}}, {"city": "Hà Nội", "district": "Ba Đình", "ward": "Đội Cấn", "street": "Ông Ích Khiêm", "geolocation": {"latitude": 21.0333111, "longitude": 105.8335649}}, {"city": "Hà Nội", "district": "Ba Đình", "ward": "Đội Cấn", "street": "Đội Cấn", "geolocation": {"latitude": 21.037872, "longitude": 105.813652}}, {"city": "Hà Nội", "district": "Ba Đình", "ward": "Giảng Võ", "street": "Giảng Võ", "geolocation": {"latitude": 21.0279146, "longitude": 105.8248144}}, {"city": "Hà Nội", "district": "Ba Đình", "ward": "Giảng Võ", "street": "Kim Mã", "geolocation": {"latitude": 21.029744, "longitude": 105.810345}}, {"city": "Hà Nội", "district": "Ba Đình", "ward": "Giảng Võ", "street": "Nam Cao", "geolocation": {"latitude": 21.029937, "longitude": 105.822153}}, {"city": "Hà Nội", "district": "Ba Đình", "ward": "Giảng Võ", "street": "Nguyễn Công Hoan", "geolocation": {"latitude": 21.027053, "longitude": 105.815255}}, {"city": "Hà Nội", "district": "Ba Đình", "ward": "Giảng Võ", "street": "Ngọc Khánh", "geolocation": {"latitude": 21.026992, "longitude": 105.8178}}, {"city": "Hà Nội", "district": "Ba Đình", "ward": "Giảng Võ", "street": "Núi Trúc", "geolocation": {"latitude": 21.030257, "longitude": 105.822542}}, {"city": "Hà Nội", "district": "Ba Đình", "ward": "Giảng Võ", "street": "Trần Huy Liệu", "geolocation": {"latitude": 21.029485, "longitude": 105.820778}}, {"city": "Hà Nội", "district": "Ba Đình", "ward": "Kim Mã", "street": "Giang Văn Minh", "geolocation": {"latitude": 21.032555, "longitude": 105.827047}}, {"city": "Hà Nội", "district": "Ba Đình", "ward": "Kim Mã", "street": "Giảng Võ", "geolocation": {"latitude": 21.0279146, "longitude": 105.8248144}}, {"city": "Hà Nội", "district": "Ba Đình", "ward": "Kim Mã", "street": "Kim Mã", "geolocation": {"latitude": 21.029744, "longitude": 105.810345}}, {"city": "Hà Nội", "district": "Ba Đình", "ward": "Kim Mã", "street": "Nguyễn Thái Học", "geolocation": {"latitude": 21.031342, "longitude": 105.832744}}, {"city": "Hà Nội", "district": "Ba Đình", "ward": "Kim Mã", "street": "Núi Trúc", "geolocation": {"latitude": 21.030257, "longitude": 105.822542}}, {"city": "Hà Nội", "district": "Ba Đình", "ward": "Kim Mã", "street": "Sơn Tây", "geolocation": {"latitude": 21.032898, "longitude": 105.830727}}, {"city": "Hà Nội", "district": "Ba Đình", "ward": "Kim Mã", "street": "Trần Phú", "geolocation": {"latitude": 21.0315459, "longitude": 105.8359866}}, {"city": "Hà Nội", "district": "Ba Đình", "ward": "Kim Mã", "street": "Vạn Phúc", "geolocation": {"latitude": 21.033443, "longitude": 105.815811}}, {"city": "Hà Nội", "district": "Ba Đình", "ward": "Liễu Giai", "street": "Hoàng Hoa Thám", "geolocation": {"latitude": 21.042223, "longitude": 105.817208}}, {"city": "Hà Nội", "district": "Ba Đình", "ward": "Liễu Giai", "street": "Quần Ngựa", "geolocation": {"latitude": 21.0411671, "longitude": 105.815656}}, {"city": "Hà Nội", "district": "Ba Đình", "ward": "Liễu Giai", "street": "Văn Cao", "geolocation": {"latitude": 21.039291, "longitude": 105.815827}}, {"city": "Hà Nội", "district": "Ba Đình", "ward": "Liễu Giai", "street": "Vạn Bảo", "geolocation": {"latitude": 21.03375, "longitude": 105.817069}}, {"city": "Hà Nội", "district": "Ba Đình", "ward": "Liễu Giai", "street": "Đốc Ngữ", "geolocation": {"latitude": 21.039894, "longitude": 105.812921}}, {"city": "Hà Nội", "district": "Ba Đình", "ward": "Liễu Giai", "street": "Đội Cấn", "geolocation": {"latitude": 21.037872, "longitude": 105.813652}}, {"city": "Hà Nội", "district": "Ba Đình", "ward": "Ngọc Hà", "street": "Dốc Lapho", "geolocation": {"latitude": 21.039839, "longitude": 105.8288689}}, {"city": "Hà Nội", "district": "Ba Đình", "ward": "Ngọc Hà", "street": "Hoàng Hoa Thám", "geolocation": {"latitude": 21.042223, "longitude": 105.817208}}, {"city": "Hà Nội", "district": "Ba Đình", "ward": "Ngọc Hà", "street": "Ngọc Hà", "geolocation": {"latitude": 21.037118, "longitude": 105.831096}}, {"city": "Hà Nội", "district": "Ba Đình", "ward": "Ngọc Khánh", "street": "Cầu Giấy", "geolocation": {"latitude": 21.0299181, "longitude": 105.8022467}}, {"city": "Hà Nội", "district": "Ba Đình", "ward": "Ngọc Khánh", "street": "Kim Mã", "geolocation": {"latitude": 21.029744, "longitude": 105.810345}}, {"city": "Hà Nội", "district": "Ba Đình", "ward": "Ngọc Khánh", "street": "La Thành", "geolocation": {"latitude": 21.027822, "longitude": 105.808423}}, {"city": "Hà Nội", "district": "Ba Đình", "ward": "Ngọc Khánh", "street": "Liễu Giai", "geolocation": {"latitude": 21.033932, "longitude": 105.813901}}, {"city": "Hà Nội", "district": "Ba Đình", "ward": "Ngọc Khánh", "street": "Nguyễn Chí Thanh", "geolocation": {"latitude": 21.028696, "longitude": 105.812612}}, {"city": "Hà Nội", "district": "Ba Đình", "ward": "Ngọc Khánh", "street": "Nguyễn Công Hoan", "geolocation": {"latitude": 21.027053, "longitude": 105.815255}}, {"city": "Hà Nội", "district": "Ba Đình", "ward": "Ngọc Khánh", "street": "Nguyễn Văn Ngọc", "geolocation": {"latitude": 21.031931, "longitude": 105.8107566}}, {"city": "Hà Nội", "district": "Ba Đình", "ward": "Ngọc Khánh", "street": "Ngọc Khánh", "geolocation": {"latitude": 21.026992, "longitude": 105.8178}}, {"city": "Hà Nội", "district": "Ba Đình", "ward": "Ngọc Khánh", "street": "Phạm Huy Thông", "geolocation": {"latitude": 21.027946, "longitude": 105.810061}}, {"city": "Hà Nội", "district": "Ba Đình", "ward": "Ngọc Khánh", "street": "Vạn Bảo", "geolocation": {"latitude": 21.03375, "longitude": 105.817069}}, {"city": "Hà Nội", "district": "Ba Đình", "ward": "Ngọc Khánh", "street": "Vạn Phúc", "geolocation": {"latitude": 21.033443, "longitude": 105.815811}}, {"city": "Hà Nội", "district": "Ba Đình", "ward": "Ngọc Khánh", "street": "Đào Tấn", "geolocation": {"latitude": 21.032496, "longitude": 105.809125}}, {"city": "Hà Nội", "district": "Ba Đình", "ward": "Ngọc Khánh", "street": "Đường Bưởi", "geolocation": {"latitude": 21.0400412, "longitude": 105.8069923}}, {"city": "Hà Nội", "district": "Ba Đình", "ward": "Nguyễn Trung Trực", "street": "Hàng Bún", "geolocation": {"latitude": 21.042302, "longitude": 105.845282}}, {"city": "Hà Nội", "district": "Ba Đình", "ward": "Nguyễn Trung Trực", "street": "Hàng Than", "geolocation": {"latitude": 21.0419084, "longitude": 105.8472478}}, {"city": "Hà Nội", "district": "Ba Đình", "ward": "Nguyễn Trung Trực", "street": "Hòe Nhai", "geolocation": {"latitude": 21.040515, "longitude": 105.845575}}, {"city": "Hà Nội", "district": "Ba Đình", "ward": "Nguyễn Trung Trực", "street": "Hồng Hà", "geolocation": {"latitude": 21.04578, "longitude": 105.84523}}, {"city": "Hà Nội", "district": "Ba Đình", "ward": "Nguyễn Trung Trực", "street": "Hồng Phúc", "geolocation": {"latitude": 21.041224, "longitude": 105.8482088}}, {"city": "Hà Nội", "district": "Ba Đình", "ward": "Nguyễn Trung Trực", "street": "Nguyễn Khắc Nhu", "geolocation": {"latitude": 21.044486, "longitude": 105.844705}}, {"city": "Hà Nội", "district": "Ba Đình", "ward": "Nguyễn Trung Trực", "street": "Nguyễn Thiếp", "geolocation": {"latitude": 21.0406171237787, "longitude": 105.849190862503}}, {"city": "Hà Nội", "district": "Ba Đình", "ward": "Nguyễn Trung Trực", "street": "Nguyễn Trung Trực", "geolocation": {"latitude": 21.041096, "longitude": 105.848312}}, {"city": "Hà Nội", "district": "Ba Đình", "ward": "Nguyễn Trung Trực", "street": "Nguyễn Trường Tộ", "geolocation": {"latitude": 21.042804, "longitude": 105.8442478}}, {"city": "Hà Nội", "district": "Ba Đình", "ward": "Nguyễn Trung Trực", "street": "Phan Huy Ích", "geolocation": {"latitude": 21.041602, "longitude": 105.84582}}, {"city": "Hà Nội", "district": "Ba Đình", "ward": "Nguyễn Trung Trực", "street": "Phạm Hồng Thái", "geolocation": {"latitude": 21.043752, "longitude": 105.844675}}, {"city": "Hà Nội", "district": "Ba Đình", "ward": "Nguyễn Trung Trực", "street": "Yên Phụ", "geolocation": {"latitude": 21.04683, "longitude": 105.843625}}, {"city": "Hà Nội", "district": "Ba Đình", "ward": "Phúc Xá", "street": "An Xá", "geolocation": {"latitude": 21.043399, "longitude": 105.851635}}, {"city": "Hà Nội", "district": "Ba Đình", "ward": "Phúc Xá", "street": "Hồng Hà", "geolocation": {"latitude": 21.04578, "longitude": 105.84523}}, {"city": "Hà Nội", "district": "Ba Đình", "ward": "Phúc Xá", "street": "Nghĩa Dũng", "geolocation": {"latitude": 21.046775, "longitude": 105.848575}}, {"city": "Hà Nội", "district": "Ba Đình", "ward": "Phúc Xá", "street": "Phúc Xá", "geolocation": {"latitude": 21.044582, "longitude": 105.849836}}, {"city": "Hà Nội", "district": "Ba Đình", "ward": "Phúc Xá", "street": "Tân Ấp", "geolocation": {"latitude": 21.046638, "longitude": 105.846859}}, {"city": "Hà Nội", "district": "Ba Đình", "ward": "Quán Thánh", "street": "Cửa Bắc", "geolocation": {"latitude": 21.044374, "longitude": 105.84308}}, {"city": "Hà Nội", "district": "Ba Đình", "ward": "Quán Thánh", "street": "Hoàng Diệu", "geolocation": {"latitude": 21.033281, "longitude": 105.838907}}, {"city": "Hà Nội", "district": "Ba Đình", "ward": "Quán Thánh", "street": "Hoàng Văn Thụ", "geolocation": {"latitude": 21.038755, "longitude": 105.837506}}, {"city": "Hà Nội", "district": "Ba Đình", "ward": "Quán Thánh", "street": "Hàng Bún", "geolocation": {"latitude": 21.042302, "longitude": 105.845282}}, {"city": "Hà Nội", "district": "Ba Đình", "ward": "Quán Thánh", "street": "Hòe Nhai", "geolocation": {"latitude": 21.040515, "longitude": 105.845575}}, {"city": "Hà Nội", "district": "Ba Đình", "ward": "Quán Thánh", "street": "Hùng Vương", "geolocation": {"latitude": 21.039124, "longitude": 105.83573}}, {"city": "Hà Nội", "district": "Ba Đình", "ward": "Quán Thánh", "street": "Nguyễn Biểu", "geolocation": {"latitude": 21.042215, "longitude": 105.840111}}, {"city": "Hà Nội", "district": "Ba Đình", "ward": "Quán Thánh", "street": "Nguyễn Cảnh Chân", "geolocation": {"latitude": 21.039198, "longitude": 105.837589}}, {"city": "Hà Nội", "district": "Ba Đình", "ward": "Quán Thánh", "street": "Nguyễn Tri Phương", "geolocation": {"latitude": 21.036412, "longitude": 105.841179}}, {"city": "Hà Nội", "district": "Ba Đình", "ward": "Quán Thánh", "street": "Phan Đình Phùng", "geolocation": {"latitude": 21.039853, "longitude": 105.845925}}, {"city": "Hà Nội", "district": "Ba Đình", "ward": "Quán Thánh", "street": "Quán Thánh", "geolocation": {"latitude": 21.042249, "longitude": 105.84319}}, {"city": "Hà Nội", "district": "Ba Đình", "ward": "Quán Thánh", "street": "Trấn Vũ", "geolocation": {"latitude": 21.044309, "longitude": 105.841698}}, {"city": "Hà Nội", "district": "Ba Đình", "ward": "Quán Thánh", "street": "Yên Ninh", "geolocation": {"latitude": 21.042799, "longitude": 105.84428}}, {"city": "Hà Nội", "district": "Ba Đình", "ward": "Quán Thánh", "street": "Đặng Tất", "geolocation": {"latitude": 21.0431275, "longitude": 105.8380524}}, {"city": "Hà Nội", "district": "Ba Đình", "ward": "Thành Công", "street": "Láng Hạ", "geolocation": {"latitude": 21.019169, "longitude": 105.816633}}, {"city": "Hà Nội", "district": "Ba Đình", "ward": "Thành Công", "street": "Mai Anh Tuấn", "geolocation": {"latitude": 21.0186804, "longitude": 105.818625}}, {"city": "Hà Nội", "district": "Ba Đình", "ward": "Thành Công", "street": "Nguyên Hồng", "geolocation": {"latitude": 21.020429, "longitude": 105.812246}}, {"city": "Hà Nội", "district": "Ba Đình", "ward": "Thành Công", "street": "Thành Công", "geolocation": {"latitude": 21.021859, "longitude": 105.815789}}, {"city": "Hà Nội", "district": "Ba Đình", "ward": "Trúc Bạch", "street": "Châu Long", "geolocation": {"latitude": 21.04459, "longitude": 105.842387}}, {"city": "Hà Nội", "district": "Ba Đình", "ward": "Trúc Bạch", "street": "Cửa Bắc", "geolocation": {"latitude": 21.044374, "longitude": 105.84308}}, {"city": "Hà Nội", "district": "Ba Đình", "ward": "Trúc Bạch", "street": "Lạc Chính", "geolocation": {"latitude": 21.0457805, "longitude": 105.8414921}}, {"city": "Hà Nội", "district": "Ba Đình", "ward": "Trúc Bạch", "street": "Mạc Đĩnh Chi", "geolocation": {"latitude": 21.046506, "longitude": 105.840694}}, {"city": "Hà Nội", "district": "Ba Đình", "ward": "Trúc Bạch", "street": "Nam Tràng", "geolocation": {"latitude": 21.046422, "longitude": 105.840318}}, {"city": "Hà Nội", "district": "Ba Đình", "ward": "Trúc Bạch", "street": "Nguyễn Khắc Hiếu", "geolocation": {"latitude": 21.045772, "longitude": 105.840983}}, {"city": "Hà Nội", "district": "Ba Đình", "ward": "Trúc Bạch", "street": "Nguyễn Khắc Nhu", "geolocation": {"latitude": 21.044486, "longitude": 105.844705}}, {"city": "Hà Nội", "district": "Ba Đình", "ward": "Trúc Bạch", "street": "Nguyễn Trường Tộ", "geolocation": {"latitude": 21.042804, "longitude": 105.8442478}}, {"city": "Hà Nội", "district": "Ba Đình", "ward": "Trúc Bạch", "street": "Ngũ Xã", "geolocation": {"latitude": 21.046223, "longitude": 105.841721}}, {"city": "Hà Nội", "district": "Ba Đình", "ward": "Trúc Bạch", "street": "Phạm Hồng Thái", "geolocation": {"latitude": 21.043752, "longitude": 105.844675}}, {"city": "Hà Nội", "district": "Ba Đình", "ward": "Trúc Bạch", "street": "Thanh Niên", "geolocation": {"latitude": 21.04765, "longitude": 105.83759}}, {"city": "Hà Nội", "district": "Ba Đình", "ward": "Trúc Bạch", "street": "Trúc Bạch", "geolocation": {"latitude": 21.0465951, "longitude": 105.8420227}}, {"city": "Hà Nội", "district": "Ba Đình", "ward": "Trúc Bạch", "street": "Trấn Vũ", "geolocation": {"latitude": 21.044309, "longitude": 105.841698}}, {"city": "Hà Nội", "district": "Ba Đình", "ward": "Trúc Bạch", "street": "Yên Ninh", "geolocation": {"latitude": 21.042799, "longitude": 105.84428}}, {"city": "Hà Nội", "district": "Ba Đình", "ward": "Trúc Bạch", "street": "Yên Phụ", "geolocation": {"latitude": 21.04683, "longitude": 105.843625}}, {"city": "Hà Nội", "district": "Ba Đình", "ward": "Trúc Bạch", "street": "Đặng Dung", "geolocation": {"latitude": 21.0430203, "longitude": 105.8414638}}, {"city": "Hà Nội", "district": "Ba Đình", "ward": "Vĩnh Phúc", "street": "Hoàng Hoa Thám", "geolocation": {"latitude": 21.042223, "longitude": 105.817208}}, {"city": "Hà Nội", "district": "Ba Đình", "ward": "Vĩnh Phúc", "street": "Linh Lang", "geolocation": {"latitude": 21.035442, "longitude": 105.810484}}, {"city": "Hà Nội", "district": "Ba Đình", "ward": "Vĩnh Phúc", "street": "Lạc Long Quân", "geolocation": {"latitude": 21.046841, "longitude": 105.806168}}, {"city": "Hà Nội", "district": "Ba Đình", "ward": "Vĩnh Phúc", "street": "Vĩnh Phúc", "geolocation": {"latitude": 21.044081, "longitude": 105.810178}}, {"city": "Hà Nội", "district": "Ba Đình", "ward": "Vĩnh Phúc", "street": "Đường Bưởi", "geolocation": {"latitude": 21.0400412, "longitude": 105.8069923}}, {"city": "Hà Nội", "district": "Ba Đình", "ward": "Vĩnh Phúc", "street": "Đốc Ngữ", "geolocation": {"latitude": 21.039894, "longitude": 105.812921}}, {"city": "Hà Nội", "district": "Ba Đình", "ward": "Vĩnh Phúc", "street": "Đội Cấn", "geolocation": {"latitude": 21.037872, "longitude": 105.813652}}, {"city": "Hà Nội", "district": "Ba Vì", "ward": "Ba Trại", "street": "Đt 86", "geolocation": {"latitude": 21.1325959, "longitude": 105.3417395}}, {"city": "Hà Nội", "district": "Ba Vì", "ward": "Ba Trại", "street": "Đt 87a", "geolocation": {"latitude": 21.1172258, "longitude": 105.3664486}}, {"city": "Hà Nội", "district": "Ba Vì", "ward": "Ba Trại", "street": "Đt 91", "geolocation": {"latitude": 21.162175, "longitude": 105.3857662}}, {"city": "Hà Nội", "district": "Ba Vì", "ward": "Ba Vì", "street": "Ao Vua", "geolocation": {"latitude": 21.0954474, "longitude": 105.3742705}}, {"city": "Hà Nội", "district": "Ba Vì", "ward": "Ba Vì", "street": "Đt 422", "geolocation": {"latitude": 21.0953814, "longitude": 105.328927}}, {"city": "Hà Nội", "district": "Ba Vì", "ward": "Cẩm Lĩnh", "street": "Đt 91", "geolocation": {"latitude": 21.162175, "longitude": 105.3857662}}, {"city": "Hà Nội", "district": "Ba Vì", "ward": "Cam Thượng", "street": "Quốc Lộ 32", "geolocation": {"latitude": 21.224442, "longitude": 105.38402}}, {"city": "Hà Nội", "district": "Ba Vì", "ward": "Chu Minh", "street": "Quốc Lộ 32", "geolocation": {"latitude": 21.224442, "longitude": 105.38402}}, {"city": "Hà Nội", "district": "Ba Vì", "ward": "Cổ Đô", "street": "Đt 93", "geolocation": {"latitude": 21.2482058, "longitude": 105.3831202}}, {"city": "Hà Nội", "district": "Ba Vì", "ward": "Đông Quang", "street": "Quốc Lộ 32", "geolocation": {"latitude": 21.224442, "longitude": 105.38402}}, {"city": "Hà Nội", "district": "Ba Vì", "ward": "Đông Quang", "street": "Đt 90", "geolocation": {"latitude": 21.172101, "longitude": 105.4256926}}, {"city": "Hà Nội", "district": "Ba Vì", "ward": "Đồng Thái", "street": "Quốc Lộ 32", "geolocation": {"latitude": 21.224442, "longitude": 105.38402}}, {"city": "Hà Nội", "district": "Ba Vì", "ward": "Đồng Thái", "street": "Đt 411c", "geolocation": {"latitude": 21.211824, "longitude": 105.3634224}}, {"city": "Hà Nội", "district": "Ba Vì", "ward": "Đồng Thái", "street": "Đt 93", "geolocation": {"latitude": 21.2482058, "longitude": 105.3831202}}, {"city": "Hà Nội", "district": "Ba Vì", "ward": "Khánh Thượng", "street": "Đt 414", "geolocation": {"latitude": 21.0594114, "longitude": 105.3000564}}, {"city": "Hà Nội", "district": "Ba Vì", "ward": "Khánh Thượng", "street": "Đt 415", "geolocation": {"latitude": 21.0514014, "longitude": 105.3223723}}, {"city": "Hà Nội", "district": "Ba Vì", "ward": "Minh Quang", "street": "Đt 414", "geolocation": {"latitude": 21.0594114, "longitude": 105.3000564}}, {"city": "Hà Nội", "district": "Ba Vì", "ward": "Minh Quang", "street": "Đt 415", "geolocation": {"latitude": 21.0514014, "longitude": 105.3223723}}, {"city": "Hà Nội", "district": "Ba Vì", "ward": "Minh Quang", "street": "Đt 422", "geolocation": {"latitude": 21.0953814, "longitude": 105.328927}}, {"city": "Hà Nội", "district": "Ba Vì", "ward": "Minh Quang", "street": "Đt 87a", "geolocation": {"latitude": 21.1172258, "longitude": 105.3664486}}, {"city": "Hà Nội", "district": "Ba Vì", "ward": "Phong Vân", "street": "Đt 93", "geolocation": {"latitude": 21.2482058, "longitude": 105.3831202}}, {"city": "Hà Nội", "district": "Ba Vì", "ward": "Phú Đông", "street": "Đt 93", "geolocation": {"latitude": 21.2482058, "longitude": 105.3831202}}, {"city": "Hà Nội", "district": "Ba Vì", "ward": "Phú Sơn", "street": "Quốc Lộ 32", "geolocation": {"latitude": 21.224442, "longitude": 105.38402}}, {"city": "Hà Nội", "district": "Ba Vì", "ward": "Phú Sơn", "street": "Đt 411c", "geolocation": {"latitude": 21.211824, "longitude": 105.3634224}}, {"city": "Hà Nội", "district": "Ba Vì", "ward": "Phú Sơn", "street": "Đt 92", "geolocation": {"latitude": 21.1935708, "longitude": 105.3132663}}, {"city": "Hà Nội", "district": "Ba Vì", "ward": "Sơn Đà", "street": "Đt 92", "geolocation": {"latitude": 21.1935708, "longitude": 105.3132663}}, {"city": "Hà Nội", "district": "Ba Vì", "ward": "Tản Lĩnh", "street": "Ao Vua", "geolocation": {"latitude": 21.0954474, "longitude": 105.3742705}}, {"city": "Hà Nội", "district": "Ba Vì", "ward": "Tản Lĩnh", "street": "Đt 87", "geolocation": {"latitude": 21.072603, "longitude": 105.4325725}}, {"city": "Hà Nội", "district": "Ba Vì", "ward": "Tản Lĩnh", "street": "Đt 87a", "geolocation": {"latitude": 21.1172258, "longitude": 105.3664486}}, {"city": "Hà Nội", "district": "Ba Vì", "ward": "Tây Đằng", "street": "Quốc Lộ 32", "geolocation": {"latitude": 21.224442, "longitude": 105.38402}}, {"city": "Hà Nội", "district": "Ba Vì", "ward": "Thái Hòa", "street": "Quốc Lộ 32", "geolocation": {"latitude": 21.224442, "longitude": 105.38402}}, {"city": "Hà Nội", "district": "Ba Vì", "ward": "Thuần Mỹ", "street": "Đt 86", "geolocation": {"latitude": 21.1325959, "longitude": 105.3417395}}, {"city": "Hà Nội", "district": "Ba Vì", "ward": "Thuần Mỹ", "street": "Đt 92", "geolocation": {"latitude": 21.1935708, "longitude": 105.3132663}}, {"city": "Hà Nội", "district": "Ba Vì", "ward": "Thụy An", "street": "Đt 423", "geolocation": {"latitude": 21.1524747, "longitude": 105.4221496}}, {"city": "Hà Nội", "district": "Ba Vì", "ward": "Thụy An", "street": "Đt 90", "geolocation": {"latitude": 21.172101, "longitude": 105.4256926}}, {"city": "Hà Nội", "district": "Ba Vì", "ward": "Thụy An", "street": "Đt 91", "geolocation": {"latitude": 21.162175, "longitude": 105.3857662}}, {"city": "Hà Nội", "district": "Ba Vì", "ward": "Tiên Phong", "street": "Đt 90", "geolocation": {"latitude": 21.172101, "longitude": 105.4256926}}, {"city": "Hà Nội", "district": "Ba Vì", "ward": "Tòng Bạt", "street": "Đt 92", "geolocation": {"latitude": 21.1935708, "longitude": 105.3132663}}, {"city": "Hà Nội", "district": "Ba Vì", "ward": "Vân Hòa", "street": "Vân Hòa", "geolocation": {"latitude": 21.0668071, "longitude": 105.412629}}, {"city": "Hà Nội", "district": "Ba Vì", "ward": "Vân Hòa", "street": "Đt 87", "geolocation": {"latitude": 21.072603, "longitude": 105.4325725}}, {"city": "Hà Nội", "district": "Ba Vì", "ward": "Vạn Thắng", "street": "Đt 93", "geolocation": {"latitude": 21.2482058, "longitude": 105.3831202}}, {"city": "Hà Nội", "district": "Ba Vì", "ward": "Vật Lại", "street": "Quốc Lộ 32", "geolocation": {"latitude": 21.224442, "longitude": 105.38402}}, {"city": "Hà Nội", "district": "Ba Vì", "ward": "Vật Lại", "street": "Đt 411c", "geolocation": {"latitude": 21.211824, "longitude": 105.3634224}}, {"city": "Hà Nội", "district": "Ba Vì", "ward": "Yên Bài", "street": "Hòa Lạc Hòa Bình", "geolocation": {"latitude": 21.0131089, "longitude": 105.4612438}}, {"city": "Hà Nội", "district": "Ba Vì", "ward": "Yên Bài", "street": "Yên Bài", "geolocation": {"latitude": 21.0384519, "longitude": 105.429277}}, {"city": "Hà Nội", "district": "Ba Vì", "ward": "Yên Bài", "street": "Đt 87", "geolocation": {"latitude": 21.072603, "longitude": 105.4325725}}, {"city": "Hà Nội", "district": "Bắc Từ Liêm", "ward": "Cổ Nhuế 1", "street": "Hoàng Quốc Việt", "geolocation": {"latitude": 21.0462501, "longitude": 105.7870461}}, {"city": "Hà Nội", "district": "Bắc Từ Liêm", "ward": "Cổ Nhuế 1", "street": "Phan Bá Vành", "geolocation": {"latitude": 21.05555, "longitude": 105.773303}}, {"city": "Hà Nội", "district": "Bắc Từ Liêm", "ward": "Cổ Nhuế 1", "street": "Phạm Văn Đồng", "geolocation": {"latitude": 21.078572, "longitude": 105.787727}}, {"city": "Hà Nội", "district": "Bắc Từ Liêm", "ward": "Cổ Nhuế 1", "street": "Trần Cung", "geolocation": {"latitude": 21.055241, "longitude": 105.785835}}, {"city": "Hà Nội", "district": "Bắc Từ Liêm", "ward": "Cổ Nhuế 1", "street": "Đặng Thùy Trâm", "geolocation": {"latitude": 21.045026, "longitude": 105.784363}}, {"city": "Hà Nội", "district": "Bắc Từ Liêm", "ward": "Cổ Nhuế 2", "street": "Bờ Tây Sông Nhuệ", "geolocation": {"latitude": 21.07929, "longitude": 105.770944}}, {"city": "Hà Nội", "district": "Bắc Từ Liêm", "ward": "Cổ Nhuế 2", "street": "Cổ Nhuế", "geolocation": {"latitude": 21.065107, "longitude": 105.779439}}, {"city": "Hà Nội", "district": "Bắc Từ Liêm", "ward": "Cổ Nhuế 2", "street": "Nguyễn Đình Tứ", "geolocation": {"latitude": 21.073242, "longitude": 105.7841693}}, {"city": "Hà Nội", "district": "Bắc Từ Liêm", "ward": "Cổ Nhuế 2", "street": "Phan Bá Vành", "geolocation": {"latitude": 21.05555, "longitude": 105.773303}}, {"city": "Hà Nội", "district": "Bắc Từ Liêm", "ward": "Cổ Nhuế 2", "street": "Phú Diễn", "geolocation": {"latitude": 21.04884, "longitude": 105.763422}}, {"city": "Hà Nội", "district": "Bắc Từ Liêm", "ward": "Cổ Nhuế 2", "street": "Phạm Văn Nghị", "geolocation": {"latitude": 21.06501, "longitude": 105.761764}}, {"city": "Hà Nội", "district": "Bắc Từ Liêm", "ward": "Cổ Nhuế 2", "street": "Phạm Văn Đồng", "geolocation": {"latitude": 21.078572, "longitude": 105.787727}}, {"city": "Hà Nội", "district": "Bắc Từ Liêm", "ward": "Cổ Nhuế 2", "street": "Phố Viên", "geolocation": {"latitude": 21.071221, "longitude": 105.7724262}}, {"city": "Hà Nội", "district": "Bắc Từ Liêm", "ward": "Cổ Nhuế 2", "street": "Trại Gà", "geolocation": {"latitude": 21.062481, "longitude": 105.761309}}, {"city": "Hà Nội", "district": "Bắc Từ Liêm", "ward": "Cổ Nhuế 2", "street": "Trần Cung", "geolocation": {"latitude": 21.055241, "longitude": 105.785835}}, {"city": "Hà Nội", "district": "Bắc Từ Liêm", "ward": "Cổ Nhuế 2", "street": "Tăng Thiết Giáp", "geolocation": {"latitude": 21.057654, "longitude": 105.780233}}, {"city": "Hà Nội", "district": "Bắc Từ Liêm", "ward": "Đông Ngạc", "street": "An Dương Vương", "geolocation": {"latitude": 21.090957, "longitude": 105.787416}}, {"city": "Hà Nội", "district": "Bắc Từ Liêm", "ward": "Đông Ngạc", "street": "Kẻ Vẽ", "geolocation": {"latitude": 21.08926, "longitude": 105.781072}}, {"city": "Hà Nội", "district": "Bắc Từ Liêm", "ward": "Đông Ngạc", "street": "Nhật Tảo", "geolocation": {"latitude": 21.087427, "longitude": 105.790944}}, {"city": "Hà Nội", "district": "Bắc Từ Liêm", "ward": "Đông Ngạc", "street": "Phạm Văn Đồng", "geolocation": {"latitude": 21.078572, "longitude": 105.787727}}, {"city": "Hà Nội", "district": "Bắc Từ Liêm", "ward": "Đông Ngạc", "street": "Tân Xuân", "geolocation": {"latitude": 21.088504, "longitude": 105.785521}}, {"city": "Hà Nội", "district": "Bắc Từ Liêm", "ward": "Đông Ngạc", "street": "Đông Ngạc", "geolocation": {"latitude": 21.093938, "longitude": 105.777619}}, {"city": "Hà Nội", "district": "Bắc Từ Liêm", "ward": "Đông Ngạc", "street": "Đông Thắng", "geolocation": {"latitude": 21.0843109, "longitude": 105.7796336}}, {"city": "Hà Nội", "district": "Bắc Từ Liêm", "ward": "Đức Thắng", "street": "Hoàng Tăng Bí", "geolocation": {"latitude": 21.083857, "longitude": 105.779358}}, {"city": "Hà Nội", "district": "Bắc Từ Liêm", "ward": "Đức Thắng", "street": "Kẻ Vẽ", "geolocation": {"latitude": 21.08926, "longitude": 105.781072}}, {"city": "Hà Nội", "district": "Bắc Từ Liêm", "ward": "Đức Thắng", "street": "Lê Văn Hiến", "geolocation": {"latitude": 21.075444, "longitude": 105.773554}}, {"city": "Hà Nội", "district": "Bắc Từ Liêm", "ward": "Đức Thắng", "street": "Phố Viên", "geolocation": {"latitude": 21.071221, "longitude": 105.7724262}}, {"city": "Hà Nội", "district": "Bắc Từ Liêm", "ward": "Đức Thắng", "street": "Sông Nhuệ", "geolocation": {"latitude": 21.076948, "longitude": 105.772249}}, {"city": "Hà Nội", "district": "Bắc Từ Liêm", "ward": "Đức Thắng", "street": "Thụy Phương", "geolocation": {"latitude": 21.0869982, "longitude": 105.7770726}}, {"city": "Hà Nội", "district": "Bắc Từ Liêm", "ward": "Đức Thắng", "street": "Văn Hội", "geolocation": {"latitude": 21.0788861, "longitude": 105.7737044}}, {"city": "Hà Nội", "district": "Bắc Từ Liêm", "ward": "Đức Thắng", "street": "Đức Thắng", "geolocation": {"latitude": 21.077481, "longitude": 105.777653}}, {"city": "Hà Nội", "district": "Bắc Từ Liêm", "ward": "Liên Mạc", "street": "Hoàng Liên", "geolocation": {"latitude": 21.0834942, "longitude": 105.7579743}}, {"city": "Hà Nội", "district": "Bắc Từ Liêm", "ward": "Liên Mạc", "street": "Liên Mạc", "geolocation": {"latitude": 21.0873959, "longitude": 105.7555013}}, {"city": "Hà Nội", "district": "Bắc Từ Liêm", "ward": "Liên Mạc", "street": "Sùng Khang", "geolocation": {"latitude": 21.081188, "longitude": 105.740298}}, {"city": "Hà Nội", "district": "Bắc Từ Liêm", "ward": "Liên Mạc", "street": "Tân Phong", "geolocation": {"latitude": 21.081629, "longitude": 105.768853}}, {"city": "Hà Nội", "district": "Bắc Từ Liêm", "ward": "Liên Mạc", "street": "Yên Nội", "geolocation": {"latitude": 21.082894, "longitude": 105.748957}}, {"city": "Hà Nội", "district": "Bắc Từ Liêm", "ward": "Minh Khai", "street": "Cầu Diễn", "geolocation": {"latitude": 21.04424, "longitude": 105.754748}}, {"city": "Hà Nội", "district": "Bắc Từ Liêm", "ward": "Minh Khai", "street": "Hoàng Liên", "geolocation": {"latitude": 21.0834942, "longitude": 105.7579743}}, {"city": "Hà Nội", "district": "Bắc Từ Liêm", "ward": "Minh Khai", "street": "Nguyên Xá", "geolocation": {"latitude": 21.05203, "longitude": 105.7382657}}, {"city": "Hà Nội", "district": "Bắc Từ Liêm", "ward": "Minh Khai", "street": "Ngọa Long", "geolocation": {"latitude": 21.0509602, "longitude": 105.7449357}}, {"city": "Hà Nội", "district": "Bắc Từ Liêm", "ward": "Minh Khai", "street": "Phú Minh", "geolocation": {"latitude": 21.0566272, "longitude": 105.7468681}}, {"city": "Hà Nội", "district": "Bắc Từ Liêm", "ward": "Minh Khai", "street": "Phạm Văn Nghị", "geolocation": {"latitude": 21.06501, "longitude": 105.761764}}, {"city": "Hà Nội", "district": "Bắc Từ Liêm", "ward": "Minh Khai", "street": "Phố Nhổn", "geolocation": {"latitude": 21.0542565, "longitude": 105.7330992}}, {"city": "Hà Nội", "district": "Bắc Từ Liêm", "ward": "Minh Khai", "street": "Thanh Lâm", "geolocation": {"latitude": 21.047537, "longitude": 105.737568}}, {"city": "Hà Nội", "district": "Bắc Từ Liêm", "ward": "Minh Khai", "street": "Tây Tựu", "geolocation": {"latitude": 21.074923, "longitude": 105.727817}}, {"city": "Hà Nội", "district": "Bắc Từ Liêm", "ward": "Minh Khai", "street": "Văn Tiến Dũng", "geolocation": {"latitude": 21.051019, "longitude": 105.749611}}, {"city": "Hà Nội", "district": "Bắc Từ Liêm", "ward": "Minh Khai", "street": "Văn Trì", "geolocation": {"latitude": 21.0537, "longitude": 105.744754}}, {"city": "Hà Nội", "district": "Bắc Từ Liêm", "ward": "Minh Khai", "street": "Xuân Phương", "geolocation": {"latitude": 21.051556, "longitude": 105.735865}}, {"city": "Hà Nội", "district": "Bắc Từ Liêm", "ward": "Minh Khai", "street": "Đường Cn6", "geolocation": {"latitude": 21.047839, "longitude": 105.740009}}, {"city": "Hà Nội", "district": "Bắc Từ Liêm", "ward": "Minh Khai", "street": "Đường Cn8", "geolocation": {"latitude": 21.0436582, "longitude": 105.742258}}, {"city": "Hà Nội", "district": "Bắc Từ Liêm", "ward": "Phú Diễn", "street": "Cầu Diễn", "geolocation": {"latitude": 21.04424, "longitude": 105.754748}}, {"city": "Hà Nội", "district": "Bắc Từ Liêm", "ward": "Phú Diễn", "street": "Phan Bá Vành", "geolocation": {"latitude": 21.05555, "longitude": 105.773303}}, {"city": "Hà Nội", "district": "Bắc Từ Liêm", "ward": "Phú Diễn", "street": "Phú Diễn", "geolocation": {"latitude": 21.04884, "longitude": 105.763422}}, {"city": "Hà Nội", "district": "Bắc Từ Liêm", "ward": "Phú Diễn", "street": "Đức Diễn", "geolocation": {"latitude": 21.05035, "longitude": 105.752893}}, {"city": "Hà Nội", "district": "Bắc Từ Liêm", "ward": "Phúc Diễn", "street": "Cầu Diễn", "geolocation": {"latitude": 21.04424, "longitude": 105.754748}}, {"city": "Hà Nội", "district": "Bắc Từ Liêm", "ward": "Phúc Diễn", "street": "Kiều Mai", "geolocation": {"latitude": 21.041282, "longitude": 105.751494}}, {"city": "Hà Nội", "district": "Bắc Từ Liêm", "ward": "Phúc Diễn", "street": "Phú Diễn", "geolocation": {"latitude": 21.04884, "longitude": 105.763422}}, {"city": "Hà Nội", "district": "Bắc Từ Liêm", "ward": "Phúc Diễn", "street": "Phú Kiều", "geolocation": {"latitude": 21.043212, "longitude": 105.751895}}, {"city": "Hà Nội", "district": "Bắc Từ Liêm", "ward": "Phúc Diễn", "street": "Phú Minh", "geolocation": {"latitude": 21.0566272, "longitude": 105.7468681}}, {"city": "Hà Nội", "district": "Bắc Từ Liêm", "ward": "Phúc Diễn", "street": "Phúc Minh", "geolocation": {"latitude": 21.0479676, "longitude": 105.7524466}}, {"city": "Hà Nội", "district": "Bắc Từ Liêm", "ward": "Phúc Diễn", "street": "Tiền Phong", "geolocation": {"latitude": 21.0499193, "longitude": 105.753483}}, {"city": "Hà Nội", "district": "Bắc Từ Liêm", "ward": "Phúc Diễn", "street": "Tân Tiến", "geolocation": {"latitude": 21.0495609, "longitude": 105.754837}}, {"city": "Hà Nội", "district": "Bắc Từ Liêm", "ward": "Phúc Diễn", "street": "Võ Quý Huân", "geolocation": {"latitude": 21.047602, "longitude": 105.750204}}, {"city": "Hà Nội", "district": "Bắc Từ Liêm", "ward": "Phúc Diễn", "street": "Văn Tiến Dũng", "geolocation": {"latitude": 21.051019, "longitude": 105.749611}}, {"city": "Hà Nội", "district": "Bắc Từ Liêm", "ward": "Phúc Diễn", "street": "Yên Lộc", "geolocation": {"latitude": 21.0496315, "longitude": 105.7531906}}, {"city": "Hà Nội", "district": "Bắc Từ Liêm", "ward": "Phúc Diễn", "street": "Đường Cn8", "geolocation": {"latitude": 21.0436582, "longitude": 105.742258}}, {"city": "Hà Nội", "district": "Bắc Từ Liêm", "ward": "Phúc Diễn", "street": "Đức Diễn", "geolocation": {"latitude": 21.05035, "longitude": 105.752893}}, {"city": "Hà Nội", "district": "Bắc Từ Liêm", "ward": "Tây Tựu", "street": "Phú Minh", "geolocation": {"latitude": 21.0566272, "longitude": 105.7468681}}, {"city": "Hà Nội", "district": "Bắc Từ Liêm", "ward": "Tây Tựu", "street": "Phố Nhổn", "geolocation": {"latitude": 21.0542565, "longitude": 105.7330992}}, {"city": "Hà Nội", "district": "Bắc Từ Liêm", "ward": "Tây Tựu", "street": "Trung Tựu", "geolocation": {"latitude": 21.0692878, "longitude": 105.7405025}}, {"city": "Hà Nội", "district": "Bắc Từ Liêm", "ward": "Tây Tựu", "street": "Tây Tựu", "geolocation": {"latitude": 21.074923, "longitude": 105.727817}}, {"city": "Hà Nội", "district": "Bắc Từ Liêm", "ward": "Tây Tựu", "street": "Yên Nội", "geolocation": {"latitude": 21.082894, "longitude": 105.748957}}, {"city": "Hà Nội", "district": "Bắc Từ Liêm", "ward": "Thượng Cát", "street": "Châu Đài", "geolocation": {"latitude": 21.090835, "longitude": 105.7324149}}, {"city": "Hà Nội", "district": "Bắc Từ Liêm", "ward": "Thượng Cát", "street": "Kỳ Vũ", "geolocation": {"latitude": 21.0873079, "longitude": 105.7347348}}, {"city": "Hà Nội", "district": "Bắc Từ Liêm", "ward": "Thượng Cát", "street": "Sùng Khang", "geolocation": {"latitude": 21.081188, "longitude": 105.740298}}, {"city": "Hà Nội", "district": "Bắc Từ Liêm", "ward": "Thượng Cát", "street": "Thượng Cát", "geolocation": {"latitude": 21.095688, "longitude": 105.733314}}, {"city": "Hà Nội", "district": "Bắc Từ Liêm", "ward": "Thượng Cát", "street": "Tây Tựu", "geolocation": {"latitude": 21.074923, "longitude": 105.727817}}, {"city": "Hà Nội", "district": "Bắc Từ Liêm", "ward": "Thụy Phương", "street": "Bờ Tây Sông Nhuệ", "geolocation": {"latitude": 21.07929, "longitude": 105.770944}}, {"city": "Hà Nội", "district": "Bắc Từ Liêm", "ward": "Thụy Phương", "street": "Hoàng Tăng Bí", "geolocation": {"latitude": 21.083857, "longitude": 105.779358}}, {"city": "Hà Nội", "district": "Bắc Từ Liêm", "ward": "Thụy Phương", "street": "Liên Mạc", "geolocation": {"latitude": 21.0873959, "longitude": 105.7555013}}, {"city": "Hà Nội", "district": "Bắc Từ Liêm", "ward": "Thụy Phương", "street": "Phố Viên", "geolocation": {"latitude": 21.071221, "longitude": 105.7724262}}, {"city": "Hà Nội", "district": "Bắc Từ Liêm", "ward": "Thụy Phương", "street": "Sông Nhuệ", "geolocation": {"latitude": 21.076948, "longitude": 105.772249}}, {"city": "Hà Nội", "district": "Bắc Từ Liêm", "ward": "Thụy Phương", "street": "Thụy Phương", "geolocation": {"latitude": 21.0869982, "longitude": 105.7770726}}, {"city": "Hà Nội", "district": "Bắc Từ Liêm", "ward": "Thụy Phương", "street": "Tân Nhuệ", "geolocation": {"latitude": 21.086393, "longitude": 105.771402}}, {"city": "Hà Nội", "district": "Bắc Từ Liêm", "ward": "Thụy Phương", "street": "Tân Phong", "geolocation": {"latitude": 21.081629, "longitude": 105.768853}}, {"city": "Hà Nội", "district": "Bắc Từ Liêm", "ward": "Thụy Phương", "street": "Đông Ngạc", "geolocation": {"latitude": 21.093938, "longitude": 105.777619}}, {"city": "Hà Nội", "district": "Bắc Từ Liêm", "ward": "Xuân Đỉnh", "street": "Hoàng Tăng Bí", "geolocation": {"latitude": 21.083857, "longitude": 105.779358}}, {"city": "Hà Nội", "district": "Bắc Từ Liêm", "ward": "Xuân Đỉnh", "street": "Nguyễn Hoàng Tôn", "geolocation": {"latitude": 21.076366, "longitude": 105.793308}}, {"city": "Hà Nội", "district": "Bắc Từ Liêm", "ward": "Xuân Đỉnh", "street": "Nguyễn Văn Huyên", "geolocation": {"latitude": 21.062939, "longitude": 105.797736}}, {"city": "Hà Nội", "district": "Bắc Từ Liêm", "ward": "Xuân Đỉnh", "street": "Nguyễn Đình Tứ", "geolocation": {"latitude": 21.073242, "longitude": 105.7841693}}, {"city": "Hà Nội", "district": "Bắc Từ Liêm", "ward": "Xuân Đỉnh", "street": "Phạm Văn Đồng", "geolocation": {"latitude": 21.078572, "longitude": 105.787727}}, {"city": "Hà Nội", "district": "Bắc Từ Liêm", "ward": "Xuân Đỉnh", "street": "Phố Lộc", "geolocation": {"latitude": 21.0667853, "longitude": 105.7891384}}, {"city": "Hà Nội", "district": "Bắc Từ Liêm", "ward": "Xuân Đỉnh", "street": "Pineapple Lane", "geolocation": {"latitude": 21.07688, "longitude": 105.796203}}, {"city": "Hà Nội", "district": "Bắc Từ Liêm", "ward": "Xuân Đỉnh", "street": "Pomelo Lane", "geolocation": {"latitude": 21.076145, "longitude": 105.79909}}, {"city": "Hà Nội", "district": "Bắc Từ Liêm", "ward": "Xuân Đỉnh", "street": "Tân Xuân", "geolocation": {"latitude": 21.088504, "longitude": 105.785521}}, {"city": "Hà Nội", "district": "Bắc Từ Liêm", "ward": "Xuân Đỉnh", "street": "Xuân Đỉnh", "geolocation": {"latitude": 21.071342, "longitude": 105.794198}}, {"city": "Hà Nội", "district": "Bắc Từ Liêm", "ward": "Xuân Đỉnh", "street": "Đỗ Nhuận", "geolocation": {"latitude": 21.065201, "longitude": 105.789889}}, {"city": "Hà Nội", "district": "Bắc Từ Liêm", "ward": "Xuân Tảo", "street": "Nguyễn Văn Huyên", "geolocation": {"latitude": 21.062939, "longitude": 105.797736}}, {"city": "Hà Nội", "district": "Bắc Từ Liêm", "ward": "Xuân Tảo", "street": "Nguyễn Xuân Khoát", "geolocation": {"latitude": 21.0673499, "longitude": 105.7975807}}, {"city": "Hà Nội", "district": "Bắc Từ Liêm", "ward": "Xuân Tảo", "street": "Phạm Văn Đồng", "geolocation": {"latitude": 21.078572, "longitude": 105.787727}}, {"city": "Hà Nội", "district": "Bắc Từ Liêm", "ward": "Xuân Tảo", "street": "Xuân La", "geolocation": {"latitude": 21.067521, "longitude": 105.803723}}, {"city": "Hà Nội", "district": "Bắc Từ Liêm", "ward": "Xuân Tảo", "street": "Xuân Đỉnh", "geolocation": {"latitude": 21.071342, "longitude": 105.794198}}, {"city": "Hà Nội", "district": "Bắc Từ Liêm", "ward": "Xuân Tảo", "street": "Đỗ Nhuận", "geolocation": {"latitude": 21.065201, "longitude": 105.789889}}, {"city": "Hà Nội", "district": "Cầu Giấy", "ward": "Dịch Vọng", "street": "Chùa Hà", "geolocation": {"latitude": 21.0373317, "longitude": 105.7946087}}, {"city": "Hà Nội", "district": "Cầu Giấy", "ward": "Dịch Vọng", "street": "Cầu Giấy", "geolocation": {"latitude": 21.0342609, "longitude": 105.7961123}}, {"city": "Hà Nội", "district": "Cầu Giấy", "ward": "Dịch Vọng", "street": "Dịch Vọng", "geolocation": {"latitude": 21.0329542, "longitude": 105.7935134}}, {"city": "Hà Nội", "district": "Cầu Giấy", "ward": "Dịch Vọng", "street": "Khúc Thừa Dụ", "geolocation": {"latitude": 21.0331519, "longitude": 105.7920374}}, {"city": "Hà Nội", "district": "Cầu Giấy", "ward": "Dịch Vọng", "street": "Nguyễn Khánh Toàn", "geolocation": {"latitude": 21.0389993, "longitude": 105.7993703}}, {"city": "Hà Nội", "district": "Cầu Giấy", "ward": "Dịch Vọng", "street": "Nguyễn Đỗ Cung", "geolocation": {"latitude": 21.0402615, "longitude": 105.791773}}, {"city": "Hà Nội", "district": "Cầu Giấy", "ward": "Dịch Vọng", "street": "Phạm Văn Bạch", "geolocation": {"latitude": 21.026407, "longitude": 105.7882099}}, {"city": "Hà Nội", "district": "Cầu Giấy", "ward": "Dịch Vọng", "street": "Thành Thái", "geolocation": {"latitude": 21.0287446, "longitude": 105.7944382}}, {"city": "Hà Nội", "district": "Cầu Giấy", "ward": "Dịch Vọng", "street": "Thọ Tháp", "geolocation": {"latitude": 21.0311882, "longitude": 105.7913716}}, {"city": "Hà Nội", "district": "Cầu Giấy", "ward": "Dịch Vọng", "street": "Trương Công Giai", "geolocation": {"latitude": 21.0286776, "longitude": 105.7892658}}, {"city": "Hà Nội", "district": "Cầu Giấy", "ward": "Dịch Vọng", "street": "Trần Quý Kiên", "geolocation": {"latitude": 21.0366552, "longitude": 105.7918159}}, {"city": "Hà Nội", "district": "Cầu Giấy", "ward": "Dịch Vọng", "street": "Trần Thái Tông", "geolocation": {"latitude": 21.03295, "longitude": 105.7887757}}, {"city": "Hà Nội", "district": "Cầu Giấy", "ward": "Dịch Vọng", "street": "Trần Đăng Ninh", "geolocation": {"latitude": 21.0374735, "longitude": 105.7939238}}, {"city": "Hà Nội", "district": "Cầu Giấy", "ward": "Dịch Vọng", "street": "Tô Hiệu", "geolocation": {"latitude": 21.0428539, "longitude": 105.7966892}}, {"city": "Hà Nội", "district": "Cầu Giấy", "ward": "Dịch Vọng", "street": "Đường A4", "geolocation": {"latitude": 21.0382006, "longitude": 105.7932149}}, {"city": "Hà Nội", "district": "Cầu Giấy", "ward": "Dịch Vọng Hậu", "street": "Cầu Giấy", "geolocation": {"latitude": 21.0342609, "longitude": 105.7961123}}, {"city": "Hà Nội", "district": "Cầu Giấy", "ward": "Dịch Vọng Hậu", "street": "Cốm Vòng", "geolocation": {"latitude": 21.0317418, "longitude": 105.7847794}}, {"city": "Hà Nội", "district": "Cầu Giấy", "ward": "Dịch Vọng Hậu", "street": "Duy Tân", "geolocation": {"latitude": 21.0307652, "longitude": 105.7846975}}, {"city": "Hà Nội", "district": "Cầu Giấy", "ward": "Dịch Vọng Hậu", "street": "Dịch Vọng Hậu", "geolocation": {"latitude": 21.0314929, "longitude": 105.7865449}}, {"city": "Hà Nội", "district": "Cầu Giấy", "ward": "Dịch Vọng Hậu", "street": "Hồ Tùng Mậu", "geolocation": {"latitude": 21.0371746, "longitude": 105.7757261}}, {"city": "Hà Nội", "district": "Cầu Giấy", "ward": "Dịch Vọng Hậu", "street": "Nghĩa Tân", "geolocation": {"latitude": 21.0436278, "longitude": 105.7938827}}, {"city": "Hà Nội", "district": "Cầu Giấy", "ward": "Dịch Vọng Hậu", "street": "Nguyễn Phong Sắc", "geolocation": {"latitude": 21.0386302, "longitude": 105.7905112}}, {"city": "Hà Nội", "district": "Cầu Giấy", "ward": "Dịch Vọng Hậu", "street": "Phan Văn Trường", "geolocation": {"latitude": 21.0390109, "longitude": 105.7860615}}, {"city": "Hà Nội", "district": "Cầu Giấy", "ward": "Dịch Vọng Hậu", "street": "Phạm Tuấn Tài", "geolocation": {"latitude": 21.0434177, "longitude": 105.7862907}}, {"city": "Hà Nội", "district": "Cầu Giấy", "ward": "Dịch Vọng Hậu", "street": "Phạm Văn Đồng", "geolocation": {"latitude": 21.0408616, "longitude": 105.7807057}}, {"city": "Hà Nội", "district": "Cầu Giấy", "ward": "Dịch Vọng Hậu", "street": "Thọ Tháp", "geolocation": {"latitude": 21.0311882, "longitude": 105.7913716}}, {"city": "Hà Nội", "district": "Cầu Giấy", "ward": "Dịch Vọng Hậu", "street": "Trần Quốc Hoàn", "geolocation": {"latitude": 21.0416653, "longitude": 105.7854217}}, {"city": "Hà Nội", "district": "Cầu Giấy", "ward": "Dịch Vọng Hậu", "street": "Trần Quốc Vượng", "geolocation": {"latitude": 21.0352345, "longitude": 105.7853817}}, {"city": "Hà Nội", "district": "Cầu Giấy", "ward": "Dịch Vọng Hậu", "street": "Trần Thái Tông", "geolocation": {"latitude": 21.03295, "longitude": 105.7887757}}, {"city": "Hà Nội", "district": "Cầu Giấy", "ward": "Dịch Vọng Hậu", "street": "Tô Hiệu", "geolocation": {"latitude": 21.0428539, "longitude": 105.7966892}}, {"city": "Hà Nội", "district": "Cầu Giấy", "ward": "Dịch Vọng Hậu", "street": "Tôn Thất Thuyết", "geolocation": {"latitude": 21.0279594, "longitude": 105.7856438}}, {"city": "Hà Nội", "district": "Cầu Giấy", "ward": "Dịch Vọng Hậu", "street": "Xuân Thủy", "geolocation": {"latitude": 21.0365104, "longitude": 105.7847569}}, {"city": "Hà Nội", "district": "Cầu Giấy", "ward": "Dịch Vọng Hậu", "street": "Đường Số 2", "geolocation": {"latitude": 21.032635, "longitude": 105.7916236}}, {"city": "Hà Nội", "district": "Cầu Giấy", "ward": "Dịch Vọng Hậu", "street": "Đặng Thùy Trâm", "geolocation": {"latitude": 21.0439415, "longitude": 105.7857324}}, {"city": "Hà Nội", "district": "Cầu Giấy", "ward": "Mai Dịch", "street": "Doãn Kế Thiện", "geolocation": {"latitude": 21.0416759, "longitude": 105.7764848}}, {"city": "Hà Nội", "district": "Cầu Giấy", "ward": "Mai Dịch", "street": "Dương Khuê", "geolocation": {"latitude": 21.0356734, "longitude": 105.7731119}}, {"city": "Hà Nội", "district": "Cầu Giấy", "ward": "Mai Dịch", "street": "Hồ Tùng Mậu", "geolocation": {"latitude": 21.0371746, "longitude": 105.7757261}}, {"city": "Hà Nội", "district": "Cầu Giấy", "ward": "Mai Dịch", "street": "Lê Đức Thọ", "geolocation": {"latitude": 21.0366453, "longitude": 105.7712619}}, {"city": "Hà Nội", "district": "Cầu Giấy", "ward": "Mai Dịch", "street": "Mai Dịch", "geolocation": {"latitude": 21.0420822, "longitude": 105.7750737}}, {"city": "Hà Nội", "district": "Cầu Giấy", "ward": "Mai Dịch", "street": "Nguyễn Khả Trạc", "geolocation": {"latitude": 21.0449726, "longitude": 105.7770445}}, {"city": "Hà Nội", "district": "Cầu Giấy", "ward": "Mai Dịch", "street": "Phạm Thận Duật", "geolocation": {"latitude": 21.0442389, "longitude": 105.7784652}}, {"city": "Hà Nội", "district": "Cầu Giấy", "ward": "Mai Dịch", "street": "Phạm Văn Đồng", "geolocation": {"latitude": 21.0408616, "longitude": 105.7807057}}, {"city": "Hà Nội", "district": "Cầu Giấy", "ward": "Mai Dịch", "street": "Trần Bình", "geolocation": {"latitude": 21.033771, "longitude": 105.7788271}}, {"city": "Hà Nội", "district": "Cầu Giấy", "ward": "Mai Dịch", "street": "Trần Quốc Hoàn", "geolocation": {"latitude": 21.0416653, "longitude": 105.7854217}}, {"city": "Hà Nội", "district": "Cầu Giấy", "ward": "Mai Dịch", "street": "Trần Vỹ", "geolocation": {"latitude": 21.0425696, "longitude": 105.7736563}}, {"city": "Hà Nội", "district": "Cầu Giấy", "ward": "Nghĩa Đô", "street": "Hoàng Quốc Việt", "geolocation": {"latitude": 21.0460416, "longitude": 105.7930959}}, {"city": "Hà Nội", "district": "Cầu Giấy", "ward": "Nghĩa Đô", "street": "Hoàng Sâm", "geolocation": {"latitude": 21.0437269, "longitude": 105.7993488}}, {"city": "Hà Nội", "district": "Cầu Giấy", "ward": "Nghĩa Đô", "street": "Lạc Long Quân", "geolocation": {"latitude": 21.0523331, "longitude": 105.8090081}}, {"city": "Hà Nội", "district": "Cầu Giấy", "ward": "Nghĩa Đô", "street": "Nghĩa Đô", "geolocation": {"latitude": 21.0485044, "longitude": 105.7955963}}, {"city": "Hà Nội", "district": "Cầu Giấy", "ward": "Nghĩa Đô", "street": "Nguyễn Văn Huyên", "geolocation": {"latitude": 21.0390066, "longitude": 105.7977478}}, {"city": "Hà Nội", "district": "Cầu Giấy", "ward": "Nghĩa Đô", "street": "Nguyễn Đình Hoàn", "geolocation": {"latitude": 21.042386, "longitude": 105.8051849}}, {"city": "Hà Nội", "district": "Cầu Giấy", "ward": "Nghĩa Đô", "street": "Phùng Chí Kiên", "geolocation": {"latitude": 21.0426402, "longitude": 105.8025409}}, {"city": "Hà Nội", "district": "Cầu Giấy", "ward": "Nghĩa Đô", "street": "Tô Hiệu", "geolocation": {"latitude": 21.0428539, "longitude": 105.7966892}}, {"city": "Hà Nội", "district": "Cầu Giấy", "ward": "Nghĩa Đô", "street": "Võ Chí Công", "geolocation": {"latitude": 21.0499366, "longitude": 105.8045156}}, {"city": "Hà Nội", "district": "Cầu Giấy", "ward": "Nghĩa Đô", "street": "Đông Quan", "geolocation": {"latitude": 21.039919, "longitude": 105.8031286}}, {"city": "Hà Nội", "district": "Cầu Giấy", "ward": "Nghĩa Đô", "street": "Đường Bưởi", "geolocation": {"latitude": 21.0420266, "longitude": 105.8057177}}, {"city": "Hà Nội", "district": "Cầu Giấy", "ward": "Nghĩa Đô", "street": "Đường Số 800a", "geolocation": {"latitude": 21.0409124, "longitude": 105.8007949}}, {"city": "Hà Nội", "district": "Cầu Giấy", "ward": "Nghĩa Tân", "street": "Hoàng Quốc Việt", "geolocation": {"latitude": 21.0460416, "longitude": 105.7930959}}, {"city": "Hà Nội", "district": "Cầu Giấy", "ward": "Nghĩa Tân", "street": "Nghĩa Tân", "geolocation": {"latitude": 21.0436278, "longitude": 105.7938827}}, {"city": "Hà Nội", "district": "Cầu Giấy", "ward": "Nghĩa Tân", "street": "Nguyễn Phong Sắc", "geolocation": {"latitude": 21.0386302, "longitude": 105.7905112}}, {"city": "Hà Nội", "district": "Cầu Giấy", "ward": "Nghĩa Tân", "street": "Trần Cung", "geolocation": {"latitude": 21.0469555, "longitude": 105.7902247}}, {"city": "Hà Nội", "district": "Cầu Giấy", "ward": "Nghĩa Tân", "street": "Trần Tử Bình", "geolocation": {"latitude": 21.0442487, "longitude": 105.7917128}}, {"city": "Hà Nội", "district": "Cầu Giấy", "ward": "Nghĩa Tân", "street": "Tô Hiệu", "geolocation": {"latitude": 21.0428539, "longitude": 105.7966892}}, {"city": "Hà Nội", "district": "Cầu Giấy", "ward": "Quan Hoa", "street": "Cầu Giấy", "geolocation": {"latitude": 21.0342609, "longitude": 105.7961123}}, {"city": "Hà Nội", "district": "Cầu Giấy", "ward": "Quan Hoa", "street": "Dương Quảng Hàm", "geolocation": {"latitude": 21.0344, "longitude": 105.7995104}}, {"city": "Hà Nội", "district": "Cầu Giấy", "ward": "Quan Hoa", "street": "Nguyễn Khang", "geolocation": {"latitude": 21.0233771, "longitude": 105.7980898}}, {"city": "Hà Nội", "district": "Cầu Giấy", "ward": "Quan Hoa", "street": "Nguyễn Khánh Toàn", "geolocation": {"latitude": 21.0389993, "longitude": 105.7993703}}, {"city": "Hà Nội", "district": "Cầu Giấy", "ward": "Quan Hoa", "street": "Nguyễn Văn Huyên", "geolocation": {"latitude": 21.0390066, "longitude": 105.7977478}}, {"city": "Hà Nội", "district": "Cầu Giấy", "ward": "Quan Hoa", "street": "Quan Hoa", "geolocation": {"latitude": 21.032808, "longitude": 105.8032427}}, {"city": "Hà Nội", "district": "Cầu Giấy", "ward": "Trung Hòa", "street": "Hoàng Minh Giám", "geolocation": {"latitude": 21.0063175, "longitude": 105.7969519}}, {"city": "Hà Nội", "district": "Cầu Giấy", "ward": "Trung Hòa", "street": "Hoàng Ngân", "geolocation": {"latitude": 21.0099878, "longitude": 105.8046614}}, {"city": "Hà Nội", "district": "Cầu Giấy", "ward": "Trung Hòa", "street": "Hoàng Đạo Thúy", "geolocation": {"latitude": 21.0091148, "longitude": 105.8009096}}, {"city": "Hà Nội", "district": "Cầu Giấy", "ward": "Trung Hòa", "street": "Khuất Duy Tiến", "geolocation": {"latitude": 21.004339, "longitude": 105.793274}}, {"city": "Hà Nội", "district": "Cầu Giấy", "ward": "Trung Hòa", "street": "Lê Văn Lương", "geolocation": {"latitude": 21.0089485, "longitude": 105.8094563}}, {"city": "Hà Nội", "district": "Cầu Giấy", "ward": "Trung Hòa", "street": "Mạc Thái Tông", "geolocation": {"latitude": 21.0119583, "longitude": 105.7923665}}, {"city": "Hà Nội", "district": "Cầu Giấy", "ward": "Trung Hòa", "street": "Nguyễn Chánh", "geolocation": {"latitude": 21.0167345, "longitude": 105.7885038}}, {"city": "Hà Nội", "district": "Cầu Giấy", "ward": "Trung Hòa", "street": "Nguyễn Khang", "geolocation": {"latitude": 21.0233771, "longitude": 105.7980898}}, {"city": "Hà Nội", "district": "Cầu Giấy", "ward": "Trung Hòa", "street": "Nguyễn Ngọc Vũ", "geolocation": {"latitude": 21.0105454, "longitude": 105.8101341}}, {"city": "Hà Nội", "district": "Cầu Giấy", "ward": "Trung Hòa", "street": "Nguyễn Thị Thập", "geolocation": {"latitude": 21.0045906, "longitude": 105.7994398}}, {"city": "Hà Nội", "district": "Cầu Giấy", "ward": "Trung Hòa", "street": "Nguyễn Thị Định", "geolocation": {"latitude": 21.0110573, "longitude": 105.804612}}, {"city": "Hà Nội", "district": "Cầu Giấy", "ward": "Trung Hòa", "street": "Nguyễn Xuân Linh", "geolocation": {"latitude": 21.0071161, "longitude": 105.7999888}}, {"city": "Hà Nội", "district": "Cầu Giấy", "ward": "Trung Hòa", "street": "Phạm Hùng", "geolocation": {"latitude": 21.0061942, "longitude": 105.7917368}}, {"city": "Hà Nội", "district": "Cầu Giấy", "ward": "Trung Hòa", "street": "Trung Hòa", "geolocation": {"latitude": 21.0159153, "longitude": 105.8003854}}, {"city": "Hà Nội", "district": "Cầu Giấy", "ward": "Trung Hòa", "street": "Trung Kính", "geolocation": {"latitude": 21.0141992, "longitude": 105.7956586}}, {"city": "Hà Nội", "district": "Cầu Giấy", "ward": "Trung Hòa", "street": "Trung Yên 10", "geolocation": {"latitude": 21.0159924, "longitude": 105.8011395}}, {"city": "Hà Nội", "district": "Cầu Giấy", "ward": "Trung Hòa", "street": "Trung Yên 11", "geolocation": {"latitude": 21.0150147, "longitude": 105.8005113}}, {"city": "Hà Nội", "district": "Cầu Giấy", "ward": "Trung Hòa", "street": "Trung Yên 11a", "geolocation": {"latitude": 21.0146471, "longitude": 105.7978409}}, {"city": "Hà Nội", "district": "Cầu Giấy", "ward": "Trung Hòa", "street": "Trung Yên 11b", "geolocation": {"latitude": 21.0145756, "longitude": 105.7972036}}, {"city": "Hà Nội", "district": "Cầu Giấy", "ward": "Trung Hòa", "street": "Trung Yên 11c", "geolocation": {"latitude": 21.0143679, "longitude": 105.7973862}}, {"city": "Hà Nội", "district": "Cầu Giấy", "ward": "Trung Hòa", "street": "Trung Yên 14", "geolocation": {"latitude": 21.0174005, "longitude": 105.8017113}}, {"city": "Hà Nội", "district": "Cầu Giấy", "ward": "Trung Hòa", "street": "Trung Yên 15", "geolocation": {"latitude": 21.0145544, "longitude": 105.8000952}}, {"city": "Hà Nội", "district": "Cầu Giấy", "ward": "Trung Hòa", "street": "Trung Yên 3", "geolocation": {"latitude": 21.0156159, "longitude": 105.8007097}}, {"city": "Hà Nội", "district": "Cầu Giấy", "ward": "Trung Hòa", "street": "Trung Yên 7", "geolocation": {"latitude": 21.0148282, "longitude": 105.7994092}}, {"city": "Hà Nội", "district": "Cầu Giấy", "ward": "Trung Hòa", "street": "Trung Yên 8", "geolocation": {"latitude": 21.0143196, "longitude": 105.7968368}}, {"city": "Hà Nội", "district": "Cầu Giấy", "ward": "Trung Hòa", "street": "Trung Yên 9", "geolocation": {"latitude": 21.0157844, "longitude": 105.8022909}}, {"city": "Hà Nội", "district": "Cầu Giấy", "ward": "Trung Hòa", "street": "Trần Duy Hưng", "geolocation": {"latitude": 21.0087184, "longitude": 105.7972793}}, {"city": "Hà Nội", "district": "Cầu Giấy", "ward": "Trung Hòa", "street": "Tú Mỡ", "geolocation": {"latitude": 21.0108436, "longitude": 105.7951254}}, {"city": "Hà Nội", "district": "Cầu Giấy", "ward": "Trung Hòa", "street": "Vũ Phạm Hàm", "geolocation": {"latitude": 21.0179694, "longitude": 105.7986125}}, {"city": "Hà Nội", "district": "Cầu Giấy", "ward": "Trung Hòa", "street": "Đinh Núp", "geolocation": {"latitude": 21.0111429, "longitude": 105.791274}}, {"city": "Hà Nội", "district": "Cầu Giấy", "ward": "Trung Hòa", "street": "Đỗ Quang", "geolocation": {"latitude": 21.0113323, "longitude": 105.8017317}}, {"city": "Hà Nội", "district": "Cầu Giấy", "ward": "Yên Hòa", "street": "Dương Đình Nghệ", "geolocation": {"latitude": 21.0232852, "longitude": 105.7900372}}, {"city": "Hà Nội", "district": "Cầu Giấy", "ward": "Yên Hòa", "street": "Hoa Bằng", "geolocation": {"latitude": 21.024899, "longitude": 105.795315}}, {"city": "Hà Nội", "district": "Cầu Giấy", "ward": "Yên Hòa", "street": "Hạ Yên", "geolocation": {"latitude": 21.021546, "longitude": 105.796951}}, {"city": "Hà Nội", "district": "Cầu Giấy", "ward": "Yên Hòa", "street": "Lộc Vừng", "geolocation": {"latitude": 21.0230406, "longitude": 105.7886697}}, {"city": "Hà Nội", "district": "Cầu Giấy", "ward": "Yên Hòa", "street": "Mạc Thái Tổ", "geolocation": {"latitude": 21.0180467, "longitude": 105.7906287}}, {"city": "Hà Nội", "district": "Cầu Giấy", "ward": "Yên Hòa", "street": "Nguyễn Chánh", "geolocation": {"latitude": 21.0167345, "longitude": 105.7885038}}, {"city": "Hà Nội", "district": "Cầu Giấy", "ward": "Yên Hòa", "street": "Nguyễn Khang", "geolocation": {"latitude": 21.0233771, "longitude": 105.7980898}}, {"city": "Hà Nội", "district": "Cầu Giấy", "ward": "Yên Hòa", "street": "Nguyễn Quốc Trị", "geolocation": {"latitude": 21.0181255, "longitude": 105.7850262}}, {"city": "Hà Nội", "district": "Cầu Giấy", "ward": "Yên Hòa", "street": "Nguyễn Thị Duệ", "geolocation": {"latitude": 21.0183438, "longitude": 105.7887881}}, {"city": "Hà Nội", "district": "Cầu Giấy", "ward": "Yên Hòa", "street": "Phạm Văn Bạch", "geolocation": {"latitude": 21.026407, "longitude": 105.7882099}}, {"city": "Hà Nội", "district": "Cầu Giấy", "ward": "Yên Hòa", "street": "Trung Hòa", "geolocation": {"latitude": 21.0159153, "longitude": 105.8003854}}, {"city": "Hà Nội", "district": "Cầu Giấy", "ward": "Yên Hòa", "street": "Trung Kính", "geolocation": {"latitude": 21.0141992, "longitude": 105.7956586}}, {"city": "Hà Nội", "district": "Cầu Giấy", "ward": "Yên Hòa", "street": "Trung Yên 10", "geolocation": {"latitude": 21.0159924, "longitude": 105.8011395}}, {"city": "Hà Nội", "district": "Cầu Giấy", "ward": "Yên Hòa", "street": "Trung Yên 10a", "geolocation": {"latitude": 21.0179836, "longitude": 105.7992547}}, {"city": "Hà Nội", "district": "Cầu Giấy", "ward": "Yên Hòa", "street": "Trung Yên 11", "geolocation": {"latitude": 21.0150147, "longitude": 105.8005113}}, {"city": "Hà Nội", "district": "Cầu Giấy", "ward": "Yên Hòa", "street": "Trung Yên 12", "geolocation": {"latitude": 21.0174491, "longitude": 105.8016707}}, {"city": "Hà Nội", "district": "Cầu Giấy", "ward": "Yên Hòa", "street": "Trung Yên 14", "geolocation": {"latitude": 21.0174005, "longitude": 105.8017113}}, {"city": "Hà Nội", "district": "Cầu Giấy", "ward": "Yên Hòa", "street": "Trung Yên 6", "geolocation": {"latitude": 21.0180846, "longitude": 105.8012935}}, {"city": "Hà Nội", "district": "Cầu Giấy", "ward": "Yên Hòa", "street": "Trung Yên 9", "geolocation": {"latitude": 21.0157844, "longitude": 105.8022909}}, {"city": "Hà Nội", "district": "Cầu Giấy", "ward": "Yên Hòa", "street": "Trần Kim Xuyến", "geolocation": {"latitude": 21.01865, "longitude": 105.7947923}}, {"city": "Hà Nội", "district": "Cầu Giấy", "ward": "Yên Hòa", "street": "Vũ Phạm Hàm", "geolocation": {"latitude": 21.0179694, "longitude": 105.7986125}}, {"city": "Hà Nội", "district": "Cầu Giấy", "ward": "Yên Hòa", "street": "Yên Hòa", "geolocation": {"latitude": 21.0231871, "longitude": 105.794927}}, {"city": "Hà Nội", "district": "Cầu Giấy", "ward": "Yên Hòa", "street": "Đinh Núp", "geolocation": {"latitude": 21.0111429, "longitude": 105.791274}}, {"city": "Hà Nội", "district": "Chương Mỹ", "ward": "Chúc Sơn", "street": "Quốc Lộ 6", "geolocation": {"latitude": 20.9239209, "longitude": 105.6957867}}, {"city": "Hà Nội", "district": "Chương Mỹ", "ward": "Chúc Sơn", "street": "Đt 419", "geolocation": {"latitude": 20.9189675, "longitude": 105.7027284}}, {"city": "Hà Nội", "district": "Chương Mỹ", "ward": "Đại Yên", "street": "Đt 419", "geolocation": {"latitude": 20.9189675, "longitude": 105.7027284}}, {"city": "Hà Nội", "district": "Chương Mỹ", "ward": "Đồng Phú", "street": "Đt 419", "geolocation": {"latitude": 20.9189675, "longitude": 105.7027284}}, {"city": "Hà Nội", "district": "Chương Mỹ", "ward": "Đông Phương Yên", "street": "Quốc Lộ 6", "geolocation": {"latitude": 20.9239209, "longitude": 105.6957867}}, {"city": "Hà Nội", "district": "Chương Mỹ", "ward": "Đông Sơn", "street": "Quốc Lộ 6", "geolocation": {"latitude": 20.9239209, "longitude": 105.6957867}}, {"city": "Hà Nội", "district": "Chương Mỹ", "ward": "Hoàng Văn Thụ", "street": "Quốc Lộ 21a", "geolocation": {"latitude": 20.8532384, "longitude": 105.5962543}}, {"city": "Hà Nội", "district": "Chương Mỹ", "ward": "Hồng Phong", "street": "Đt 419", "geolocation": {"latitude": 20.9189675, "longitude": 105.7027284}}, {"city": "Hà Nội", "district": "Chương Mỹ", "ward": "Hợp Đồng", "street": "Đt 419", "geolocation": {"latitude": 20.9189675, "longitude": 105.7027284}}, {"city": "Hà Nội", "district": "Chương Mỹ", "ward": "Hữu Văn", "street": "Quốc Lộ 21a", "geolocation": {"latitude": 20.8532384, "longitude": 105.5962543}}, {"city": "Hà Nội", "district": "Chương Mỹ", "ward": "Mỹ Lương", "street": "Quốc Lộ 21a", "geolocation": {"latitude": 20.8532384, "longitude": 105.5962543}}, {"city": "Hà Nội", "district": "Chương Mỹ", "ward": "Nam Phương Tiến", "street": "Quốc Lộ 21a", "geolocation": {"latitude": 20.8532384, "longitude": 105.5962543}}, {"city": "Hà Nội", "district": "Chương Mỹ", "ward": "Ngọc Hòa", "street": "Quốc Lộ 6", "geolocation": {"latitude": 20.9239209, "longitude": 105.6957867}}, {"city": "Hà Nội", "district": "Chương Mỹ", "ward": "Ngọc Hòa", "street": "Đt 419", "geolocation": {"latitude": 20.9189675, "longitude": 105.7027284}}, {"city": "Hà Nội", "district": "Chương Mỹ", "ward": "Phú Nghĩa", "street": "Quốc Lộ 6", "geolocation": {"latitude": 20.9239209, "longitude": 105.6957867}}, {"city": "Hà Nội", "district": "Chương Mỹ", "ward": "Phụng Châu", "street": "Phương Bản", "geolocation": {"latitude": 20.955469, "longitude": 105.6900742}}, {"city": "Hà Nội", "district": "Chương Mỹ", "ward": "Phụng Châu", "street": "Phượng Bãi", "geolocation": {"latitude": 20.934818, "longitude": 105.714026}}, {"city": "Hà Nội", "district": "Chương Mỹ", "ward": "Phụng Châu", "street": "Phượng Yên", "geolocation": {"latitude": 20.9464151, "longitude": 105.7059037}}, {"city": "Hà Nội", "district": "Chương Mỹ", "ward": "Phụng Châu", "street": "Đê Mới", "geolocation": {"latitude": 20.9463826, "longitude": 105.6983116}}, {"city": "Hà Nội", "district": "Chương Mỹ", "ward": "Phụng Châu", "street": "Đường Hoa", "geolocation": {"latitude": 20.942984, "longitude": 105.708102}}, {"city": "Hà Nội", "district": "Chương Mỹ", "ward": "Quảng Bị", "street": "Đt 419", "geolocation": {"latitude": 20.9189675, "longitude": 105.7027284}}, {"city": "Hà Nội", "district": "Chương Mỹ", "ward": "Tân Tiến", "street": "Quốc Lộ 21a", "geolocation": {"latitude": 20.8532384, "longitude": 105.5962543}}, {"city": "Hà Nội", "district": "Chương Mỹ", "ward": "Thanh Bình", "street": "Quốc Lộ 6", "geolocation": {"latitude": 20.9239209, "longitude": 105.6957867}}, {"city": "Hà Nội", "district": "Chương Mỹ", "ward": "Thủy Xuân Tiên", "street": "Quốc Lộ 21a", "geolocation": {"latitude": 20.8532384, "longitude": 105.5962543}}, {"city": "Hà Nội", "district": "Chương Mỹ", "ward": "Thủy Xuân Tiên", "street": "Quốc Lộ 6", "geolocation": {"latitude": 20.9239209, "longitude": 105.6957867}}, {"city": "Hà Nội", "district": "Chương Mỹ", "ward": "Tiên Phương", "street": "Quốc Lộ 6", "geolocation": {"latitude": 20.9239209, "longitude": 105.6957867}}, {"city": "Hà Nội", "district": "Chương Mỹ", "ward": "Tiên Phương", "street": "Đt 419", "geolocation": {"latitude": 20.9189675, "longitude": 105.7027284}}, {"city": "Hà Nội", "district": "Chương Mỹ", "ward": "Tiên Phương", "street": "Đê Mới", "geolocation": {"latitude": 20.9463826, "longitude": 105.6983116}}, {"city": "Hà Nội", "district": "Chương Mỹ", "ward": "Trần Phú", "street": "Quốc Lộ 21a", "geolocation": {"latitude": 20.8532384, "longitude": 105.5962543}}, {"city": "Hà Nội", "district": "Chương Mỹ", "ward": "Trường Yên", "street": "Quốc Lộ 6", "geolocation": {"latitude": 20.9239209, "longitude": 105.6957867}}, {"city": "Hà Nội", "district": "Chương Mỹ", "ward": "Xuân Mai", "street": "Chiến Thắng", "geolocation": {"latitude": 20.8920872, "longitude": 105.5658715}}, {"city": "Hà Nội", "district": "Chương Mỹ", "ward": "Xuân Mai", "street": "Quốc Lộ 21a", "geolocation": {"latitude": 20.8532384, "longitude": 105.5962543}}, {"city": "Hà Nội", "district": "Chương Mỹ", "ward": "Xuân Mai", "street": "Quốc Lộ 6", "geolocation": {"latitude": 20.9239209, "longitude": 105.6957867}}, {"city": "Hà Nội", "district": "Chương Mỹ", "ward": "Xuân Mai", "street": "Đt 421b", "geolocation": {"latitude": 20.90721, "longitude": 105.591102}}, {"city": "Hà Nội", "district": "Đan Phượng", "ward": "Đan Phượng", "street": "Hòa Bình", "geolocation": {"latitude": 21.0909363, "longitude": 105.664562}}, {"city": "Hà Nội", "district": "Đan Phượng", "ward": "Đan Phượng", "street": "Phượng Trì", "geolocation": {"latitude": 21.089608, "longitude": 105.6616409}}, {"city": "Hà Nội", "district": "Đan Phượng", "ward": "Đan Phượng", "street": "Thượng Mỗ", "geolocation": {"latitude": 21.0996895, "longitude": 105.6728571}}, {"city": "Hà Nội", "district": "Đan Phượng", "ward": "Đan Phượng", "street": "Thắng Lợi", "geolocation": {"latitude": 21.0917325, "longitude": 105.6629769}}, {"city": "Hà Nội", "district": "Đan Phượng", "ward": "Đan Phượng", "street": "Đoài Khê", "geolocation": {"latitude": 21.0918618, "longitude": 105.6655491}}, {"city": "Hà Nội", "district": "Đan Phượng", "ward": "Đan Phượng", "street": "Đt 417", "geolocation": {"latitude": 21.1107113, "longitude": 105.6566581}}, {"city": "Hà Nội", "district": "Đan Phượng", "ward": "Đan Phượng", "street": "Đông Bắc", "geolocation": {"latitude": 21.0888189, "longitude": 105.6689541}}, {"city": "Hà Nội", "district": "Đan Phượng", "ward": "Đan Phượng", "street": "Đông Khê", "geolocation": {"latitude": 21.0885186, "longitude": 105.6669907}}, {"city": "Hà Nội", "district": "Đan Phượng", "ward": "Đan Phượng", "street": "Đường Hùng", "geolocation": {"latitude": 21.0914051, "longitude": 105.6668246}}, {"city": "Hà Nội", "district": "Đan Phượng", "ward": "Đan Phượng", "street": "Đường Đê", "geolocation": {"latitude": 21.1035442, "longitude": 105.6617208}}, {"city": "Hà Nội", "district": "Đan Phượng", "ward": "Đan Phượng", "street": "Đại Phùng 1", "geolocation": {"latitude": 21.0905052, "longitude": 105.6632137}}, {"city": "Hà Nội", "district": "Đan Phượng", "ward": "Đan Phượng", "street": "Đại Phùng 2", "geolocation": {"latitude": 21.0876677, "longitude": 105.6659393}}, {"city": "Hà Nội", "district": "Đan Phượng", "ward": "Đan Phượng", "street": "Đồng Ông", "geolocation": {"latitude": 21.0966815, "longitude": 105.6793791}}, {"city": "Hà Nội", "district": "Đan Phượng", "ward": "Đồng Tháp", "street": "Bãi Tháp", "geolocation": {"latitude": 21.0790627, "longitude": 105.6517248}}, {"city": "Hà Nội", "district": "Đan Phượng", "ward": "Đồng Tháp", "street": "Nguyễn Thái Học", "geolocation": {"latitude": 21.0886987, "longitude": 105.6594273}}, {"city": "Hà Nội", "district": "Đan Phượng", "ward": "Đồng Tháp", "street": "Phan Đình Phùng", "geolocation": {"latitude": 21.0856335, "longitude": 105.6537667}}, {"city": "Hà Nội", "district": "Đan Phượng", "ward": "Đồng Tháp", "street": "Quốc Lộ 32", "geolocation": {"latitude": 21.086477, "longitude": 105.6642356}}, {"city": "Hà Nội", "district": "Đan Phượng", "ward": "Đồng Tháp", "street": "Đường Số 1 Bãi Thụy", "geolocation": {"latitude": 21.0808301, "longitude": 105.650143}}, {"city": "Hà Nội", "district": "Đan Phượng", "ward": "Đồng Tháp", "street": "Đường Số 2 Bãi Thụy", "geolocation": {"latitude": 21.0822498, "longitude": 105.6493894}}, {"city": "Hà Nội", "district": "Đan Phượng", "ward": "Đồng Tháp", "street": "Đường Đê", "geolocation": {"latitude": 21.1035442, "longitude": 105.6617208}}, {"city": "Hà Nội", "district": "Đan Phượng", "ward": "Hạ Mỗ", "street": "Liên Hồng", "geolocation": {"latitude": 21.1197688, "longitude": 105.7061389}}, {"city": "Hà Nội", "district": "Đan Phượng", "ward": "Hạ Mỗ", "street": "Ngõ Ngoài", "geolocation": {"latitude": 21.1092683, "longitude": 105.6862533}}, {"city": "Hà Nội", "district": "Đan Phượng", "ward": "Hạ Mỗ", "street": "Vạn Xuân", "geolocation": {"latitude": 21.1101839, "longitude": 105.6894159}}, {"city": "Hà Nội", "district": "Đan Phượng", "ward": "Hạ Mỗ", "street": "Ô Diên", "geolocation": {"latitude": 21.1221122, "longitude": 105.6750553}}, {"city": "Hà Nội", "district": "Đan Phượng", "ward": "Hạ Mỗ", "street": "Đường Đê", "geolocation": {"latitude": 21.1035442, "longitude": 105.6617208}}, {"city": "Hà Nội", "district": "Đan Phượng", "ward": "Hồng Hà", "street": "Bãi Tiên Tân", "geolocation": {"latitude": 21.1253683, "longitude": 105.6778755}}, {"city": "Hà Nội", "district": "Đan Phượng", "ward": "Hồng Hà", "street": "Cơ Đê", "geolocation": {"latitude": 21.1348246, "longitude": 105.6862084}}, {"city": "Hà Nội", "district": "Đan Phượng", "ward": "Hồng Hà", "street": "Cổng Đông", "geolocation": {"latitude": 21.1254226, "longitude": 105.6833285}}, {"city": "Hà Nội", "district": "Đan Phượng", "ward": "Hồng Hà", "street": "Hồng Hà", "geolocation": {"latitude": 21.1352536, "longitude": 105.6859265}}, {"city": "Hà Nội", "district": "Đan Phượng", "ward": "Hồng Hà", "street": "Lãnh Nguyệt Hàn", "geolocation": {"latitude": 21.1345183, "longitude": 105.6883645}}, {"city": "Hà Nội", "district": "Đan Phượng", "ward": "Hồng Hà", "street": "Nam Sông Hồng", "geolocation": {"latitude": 21.1246115, "longitude": 105.6743619}}, {"city": "Hà Nội", "district": "Đan Phượng", "ward": "Hồng Hà", "street": "Đường Kè", "geolocation": {"latitude": 21.1338074, "longitude": 105.680208}}, {"city": "Hà Nội", "district": "Đan Phượng", "ward": "Hồng Hà", "street": "Đường Đê", "geolocation": {"latitude": 21.1035442, "longitude": 105.6617208}}, {"city": "Hà Nội", "district": "Đan Phượng", "ward": "Liên Hà", "street": "Liên Hà", "geolocation": {"latitude": 21.1041224, "longitude": 105.7139708}}, {"city": "Hà Nội", "district": "Đan Phượng", "ward": "Liên Hà", "street": "Liên Hồng", "geolocation": {"latitude": 21.1197688, "longitude": 105.7061389}}, {"city": "Hà Nội", "district": "Đan Phượng", "ward": "Liên Hà", "street": "Làng Quý", "geolocation": {"latitude": 21.1090722, "longitude": 105.7191465}}, {"city": "Hà Nội", "district": "Đan Phượng", "ward": "Liên Hà", "street": "Làng Đoài", "geolocation": {"latitude": 21.1105929, "longitude": 105.7175416}}, {"city": "Hà Nội", "district": "Đan Phượng", "ward": "Liên Hà", "street": "Thành Công", "geolocation": {"latitude": 21.109802, "longitude": 105.7085495}}, {"city": "Hà Nội", "district": "Đan Phượng", "ward": "Liên Hồng", "street": "Cơ Đê", "geolocation": {"latitude": 21.1348246, "longitude": 105.6862084}}, {"city": "Hà Nội", "district": "Đan Phượng", "ward": "Liên Hồng", "street": "Liên Hồng", "geolocation": {"latitude": 21.1197688, "longitude": 105.7061389}}, {"city": "Hà Nội", "district": "Đan Phượng", "ward": "Liên Hồng", "street": "Làng Tổ", "geolocation": {"latitude": 21.1218524, "longitude": 105.7049454}}, {"city": "Hà Nội", "district": "Đan Phượng", "ward": "Liên Hồng", "street": "Đông Lai", "geolocation": {"latitude": 21.1233898, "longitude": 105.701257}}, {"city": "Hà Nội", "district": "Đan Phượng", "ward": "Liên Trung", "street": "Kim Ngọc", "geolocation": {"latitude": 21.096719, "longitude": 105.7201671}}, {"city": "Hà Nội", "district": "Đan Phượng", "ward": "Liên Trung", "street": "Liên Hà", "geolocation": {"latitude": 21.1041224, "longitude": 105.7139708}}, {"city": "Hà Nội", "district": "Đan Phượng", "ward": "Liên Trung", "street": "Liên Thôn 1", "geolocation": {"latitude": 21.1026707, "longitude": 105.72609}}, {"city": "Hà Nội", "district": "Đan Phượng", "ward": "Liên Trung", "street": "Liên Thôn 2", "geolocation": {"latitude": 21.1049665, "longitude": 105.7249022}}, {"city": "Hà Nội", "district": "Đan Phượng", "ward": "Liên Trung", "street": "Đường Số 1 Thôn Trung", "geolocation": {"latitude": 21.1083204, "longitude": 105.7230209}}, {"city": "Hà Nội", "district": "Đan Phượng", "ward": "Liên Trung", "street": "Đường Số 2 Thôn Trung", "geolocation": {"latitude": 21.106727, "longitude": 105.7247762}}, {"city": "Hà Nội", "district": "Đan Phượng", "ward": "Phương Đình", "street": "Phạm Bạch Hổ", "geolocation": {"latitude": 21.0969183, "longitude": 105.6488371}}, {"city": "Hà Nội", "district": "Đan Phượng", "ward": "Phương Đình", "street": "Đt 417", "geolocation": {"latitude": 21.1107113, "longitude": 105.6566581}}, {"city": "Hà Nội", "district": "Đan Phượng", "ward": "Phương Đình", "street": "Đường Đê", "geolocation": {"latitude": 21.1035442, "longitude": 105.6617208}}, {"city": "Hà Nội", "district": "Đan Phượng", "ward": "Phương Đình", "street": "Đạc 10", "geolocation": {"latitude": 21.1189441, "longitude": 105.6597309}}, {"city": "Hà Nội", "district": "Đan Phượng", "ward": "Phương Đình", "street": "Đạc 9", "geolocation": {"latitude": 21.1189713, "longitude": 105.6578609}}, {"city": "Hà Nội", "district": "Đan Phượng", "ward": "Song Phượng", "street": "Khu Đìa Đừng", "geolocation": {"latitude": 21.0832405, "longitude": 105.6694916}}, {"city": "Hà Nội", "district": "Đan Phượng", "ward": "Song Phượng", "street": "Tháp Thụy", "geolocation": {"latitude": 21.083223, "longitude": 105.6640387}}, {"city": "Hà Nội", "district": "Đan Phượng", "ward": "Song Phượng", "street": "Thụy Ứng", "geolocation": {"latitude": 21.0841972, "longitude": 105.6649884}}, {"city": "Hà Nội", "district": "Đan Phượng", "ward": "Song Phượng", "street": "Vườn Thị", "geolocation": {"latitude": 21.0831464, "longitude": 105.663599}}, {"city": "Hà Nội", "district": "Đan Phượng", "ward": "Tân Hội", "street": "Liên Hà", "geolocation": {"latitude": 21.1041224, "longitude": 105.7139708}}, {"city": "Hà Nội", "district": "Đan Phượng", "ward": "Tân Hội", "street": "NH Kỳ", "geolocation": {"latitude": 21.095591, "longitude": 105.700405}}, {"city": "Hà Nội", "district": "Đan Phượng", "ward": "Tân Hội", "street": "Nhuệ Giang", "geolocation": {"latitude": 21.0947811, "longitude": 105.7024253}}, {"city": "Hà Nội", "district": "Đan Phượng", "ward": "Tân Hội", "street": "Phan Long", "geolocation": {"latitude": 21.0908767, "longitude": 105.7032495}}, {"city": "Hà Nội", "district": "Đan Phượng", "ward": "Tân Hội", "street": "Thúy Hội", "geolocation": {"latitude": 21.0980819, "longitude": 105.7017355}}, {"city": "Hà Nội", "district": "Đan Phượng", "ward": "Tân Hội", "street": "Thượng Hội", "geolocation": {"latitude": 21.0911988, "longitude": 105.7057796}}, {"city": "Hà Nội", "district": "Đan Phượng", "ward": "Tân Hội", "street": "Vĩnh K", "geolocation": {"latitude": 21.09543, "longitude": 105.7006535}}, {"city": "Hà Nội", "district": "Đan Phượng", "ward": "Tân Hội", "street": "Vĩnh Kỳ", "geolocation": {"latitude": 21.097709, "longitude": 105.6991205}}, {"city": "Hà Nội", "district": "Đan Phượng", "ward": "Tân Hội", "street": "Đt 422", "geolocation": {"latitude": 21.08347, "longitude": 105.7091851}}, {"city": "Hà Nội", "district": "Đan Phượng", "ward": "Tân Hội", "street": "Đường Nhánh 422", "geolocation": {"latitude": 21.0886785, "longitude": 105.712717}}, {"city": "Hà Nội", "district": "Đan Phượng", "ward": "Tân Hội", "street": "Đỗ Bá Lược", "geolocation": {"latitude": 21.0961625, "longitude": 105.6980788}}, {"city": "Hà Nội", "district": "Đan Phượng", "ward": "Tân Lập", "street": "Bát Phúc", "geolocation": {"latitude": 21.0783783, "longitude": 105.7053523}}, {"city": "Hà Nội", "district": "Đan Phượng", "ward": "Tân Lập", "street": "Bình Minh", "geolocation": {"latitude": 21.0816208, "longitude": 105.7178814}}, {"city": "Hà Nội", "district": "Đan Phượng", "ward": "Tân Lập", "street": "Cầu Khoát", "geolocation": {"latitude": 21.0791092, "longitude": 105.7211664}}, {"city": "Hà Nội", "district": "Đan Phượng", "ward": "Tân Lập", "street": "Cầu Kênh", "geolocation": {"latitude": 21.0860761, "longitude": 105.7116976}}, {"city": "Hà Nội", "district": "Đan Phượng", "ward": "Tân Lập", "street": "Cụm Trường", "geolocation": {"latitude": 21.0869791, "longitude": 105.7161266}}, {"city": "Hà Nội", "district": "Đan Phượng", "ward": "Tân Lập", "street": "Hạ Hồi", "geolocation": {"latitude": 21.0836333, "longitude": 105.713795}}, {"city": "Hà Nội", "district": "Đan Phượng", "ward": "Tân Lập", "street": "Hạnh Đàn", "geolocation": {"latitude": 21.0788634, "longitude": 105.7081854}}, {"city": "Hà Nội", "district": "Đan Phượng", "ward": "Tân Lập", "street": "Kim Ngọc", "geolocation": {"latitude": 21.096719, "longitude": 105.7201671}}, {"city": "Hà Nội", "district": "Đan Phượng", "ward": "Tân Lập", "street": "Ngọc Kiệu", "geolocation": {"latitude": 21.0839405, "longitude": 105.7105078}}, {"city": "Hà Nội", "district": "Đan Phượng", "ward": "Tân Lập", "street": "Sông Nhuệ", "geolocation": {"latitude": 21.084872, "longitude": 105.712409}}, {"city": "Hà Nội", "district": "Đan Phượng", "ward": "Tân Lập", "street": "Thượng Hội", "geolocation": {"latitude": 21.0911988, "longitude": 105.7057796}}, {"city": "Hà Nội", "district": "Đan Phượng", "ward": "Tân Lập", "street": "Đan Hội", "geolocation": {"latitude": 21.0823971, "longitude": 105.7076751}}, {"city": "Hà Nội", "district": "Đan Phượng", "ward": "Tân Lập", "street": "Đt 422", "geolocation": {"latitude": 21.08347, "longitude": 105.7091851}}, {"city": "Hà Nội", "district": "Đan Phượng", "ward": "Tân Lập", "street": "Đường Nhánh 422", "geolocation": {"latitude": 21.0886785, "longitude": 105.712717}}, {"city": "Hà Nội", "district": "Đan Phượng", "ward": "Thị Trấn Phùng", "street": "Khu Đìa Đừng", "geolocation": {"latitude": 21.0832405, "longitude": 105.6694916}}, {"city": "Hà Nội", "district": "Đan Phượng", "ward": "Thị Trấn Phùng", "street": "Nguyễn Thái Học", "geolocation": {"latitude": 21.0886987, "longitude": 105.6594273}}, {"city": "Hà Nội", "district": "Đan Phượng", "ward": "Thị Trấn Phùng", "street": "Phan Đình Phùng", "geolocation": {"latitude": 21.0856335, "longitude": 105.6537667}}, {"city": "Hà Nội", "district": "Đan Phượng", "ward": "Thị Trấn Phùng", "street": "Phùng Hưng", "geolocation": {"latitude": 21.0880435, "longitude": 105.659231}}, {"city": "Hà Nội", "district": "Đan Phượng", "ward": "Thị Trấn Phùng", "street": "Phượng Trì", "geolocation": {"latitude": 21.089608, "longitude": 105.6616409}}, {"city": "Hà Nội", "district": "Đan Phượng", "ward": "Thị Trấn Phùng", "street": "Quốc Lộ 32", "geolocation": {"latitude": 21.086477, "longitude": 105.6642356}}, {"city": "Hà Nội", "district": "Đan Phượng", "ward": "Thị Trấn Phùng", "street": "Thụy Ứng", "geolocation": {"latitude": 21.0841972, "longitude": 105.6649884}}, {"city": "Hà Nội", "district": "Đan Phượng", "ward": "Thị Trấn Phùng", "street": "Đt 417", "geolocation": {"latitude": 21.1107113, "longitude": 105.6566581}}, {"city": "Hà Nội", "district": "Đan Phượng", "ward": "Thị Trấn Phùng", "street": "Đông Khê", "geolocation": {"latitude": 21.0885186, "longitude": 105.6669907}}, {"city": "Hà Nội", "district": "Đan Phượng", "ward": "Thị Trấn Phùng", "street": "Đường Đê", "geolocation": {"latitude": 21.1035442, "longitude": 105.6617208}}, {"city": "Hà Nội", "district": "Đan Phượng", "ward": "Thị Trấn Phùng", "street": "Đại Phùng 2", "geolocation": {"latitude": 21.0876677, "longitude": 105.6659393}}, {"city": "Hà Nội", "district": "Đan Phượng", "ward": "Thọ An", "street": "An Thịnh", "geolocation": {"latitude": 21.1348839, "longitude": 105.6466149}}, {"city": "Hà Nội", "district": "Đan Phượng", "ward": "Thọ An", "street": "Cụm 2", "geolocation": {"latitude": 21.1243549, "longitude": 105.6425974}}, {"city": "Hà Nội", "district": "Đan Phượng", "ward": "Thọ An", "street": "Hoàng Chân", "geolocation": {"latitude": 21.1219002, "longitude": 105.6402694}}, {"city": "Hà Nội", "district": "Đan Phượng", "ward": "Thọ An", "street": "Miếu Đinh Nguyên", "geolocation": {"latitude": 21.1242419, "longitude": 105.6357139}}, {"city": "Hà Nội", "district": "Đan Phượng", "ward": "Thọ An", "street": "Mới An", "geolocation": {"latitude": 21.1275012, "longitude": 105.6444479}}, {"city": "Hà Nội", "district": "Đan Phượng", "ward": "Thọ An", "street": "Phúc Lâm", "geolocation": {"latitude": 21.1203827, "longitude": 105.6415726}}, {"city": "Hà Nội", "district": "Đan Phượng", "ward": "Thọ An", "street": "Phố Cầu", "geolocation": {"latitude": 21.1253706, "longitude": 105.6403023}}, {"city": "Hà Nội", "district": "Đan Phượng", "ward": "Thọ An", "street": "Phố Nguyễn", "geolocation": {"latitude": 21.1220632, "longitude": 105.6421739}}, {"city": "Hà Nội", "district": "Đan Phượng", "ward": "Thọ An", "street": "Tam Đạc 1", "geolocation": {"latitude": 21.1228216, "longitude": 105.63884}}, {"city": "Hà Nội", "district": "Đan Phượng", "ward": "Thọ An", "street": "Tam Đạc 2", "geolocation": {"latitude": 21.1246268, "longitude": 105.6368232}}, {"city": "Hà Nội", "district": "Đan Phượng", "ward": "Thọ An", "street": "Thanh Hải", "geolocation": {"latitude": 21.1220599, "longitude": 105.6421677}}, {"city": "Hà Nội", "district": "Đan Phượng", "ward": "Thọ An", "street": "Thanh Xuân", "geolocation": {"latitude": 21.1214929, "longitude": 105.6349084}}, {"city": "Hà Nội", "district": "Đan Phượng", "ward": "Thọ An", "street": "Thọ Vực", "geolocation": {"latitude": 21.1279787, "longitude": 105.6360236}}, {"city": "Hà Nội", "district": "Đan Phượng", "ward": "Thọ An", "street": "Trung Dương Đông", "geolocation": {"latitude": 21.1315431, "longitude": 105.6387468}}, {"city": "Hà Nội", "district": "Đan Phượng", "ward": "Thọ An", "street": "Tây Sơn", "geolocation": {"latitude": 21.1233285, "longitude": 105.6364081}}, {"city": "Hà Nội", "district": "Đan Phượng", "ward": "Thọ An", "street": "Tây Đạc 3", "geolocation": {"latitude": 21.1225324, "longitude": 105.6436321}}, {"city": "Hà Nội", "district": "Đan Phượng", "ward": "Thọ An", "street": "Xóm Chùa", "geolocation": {"latitude": 21.119758, "longitude": 105.641449}}, {"city": "Hà Nội", "district": "Đan Phượng", "ward": "Thọ An", "street": "Đt 417", "geolocation": {"latitude": 21.1107113, "longitude": 105.6566581}}, {"city": "Hà Nội", "district": "Đan Phượng", "ward": "Thọ An", "street": "Đình Thọ Lão", "geolocation": {"latitude": 21.1238161, "longitude": 105.6444808}}, {"city": "Hà Nội", "district": "Đan Phượng", "ward": "Thọ An", "street": "Đông Hải", "geolocation": {"latitude": 21.1197795, "longitude": 105.6406055}}, {"city": "Hà Nội", "district": "Đan Phượng", "ward": "Thọ An", "street": "Đông Thanh Hải", "geolocation": {"latitude": 21.1254303, "longitude": 105.6404687}}, {"city": "Hà Nội", "district": "Đan Phượng", "ward": "Thọ An", "street": "Đường Trung Tâm", "geolocation": {"latitude": 21.1273649, "longitude": 105.6378094}}, {"city": "Hà Nội", "district": "Đan Phượng", "ward": "Thọ An", "street": "Đạc 2", "geolocation": {"latitude": 21.1215777, "longitude": 105.6432435}}, {"city": "Hà Nội", "district": "Đan Phượng", "ward": "Thọ An", "street": "Đạc 2 Đạo", "geolocation": {"latitude": 21.1265353, "longitude": 105.642361}}, {"city": "Hà Nội", "district": "Đan Phượng", "ward": "Thọ An", "street": "Đạc Nhất 1", "geolocation": {"latitude": 21.1258902, "longitude": 105.6397603}}, {"city": "Hà Nội", "district": "Đan Phượng", "ward": "Thọ An", "street": "Đạc Nhất 2", "geolocation": {"latitude": 21.1246252, "longitude": 105.6399109}}, {"city": "Hà Nội", "district": "Đan Phượng", "ward": "Thọ An", "street": "Đạc Nhất 3", "geolocation": {"latitude": 21.1246223, "longitude": 105.6399028}}, {"city": "Hà Nội", "district": "Đan Phượng", "ward": "Thọ An", "street": "Đạc Nhất 4", "geolocation": {"latitude": 21.123921, "longitude": 105.6401163}}, {"city": "Hà Nội", "district": "Đan Phượng", "ward": "Thọ An", "street": "Đạc Nhất 5", "geolocation": {"latitude": 21.121411, "longitude": 105.6402589}}, {"city": "Hà Nội", "district": "Đan Phượng", "ward": "Thọ An", "street": "Đạc Nhất 6", "geolocation": {"latitude": 21.1203545, "longitude": 105.6398879}}, {"city": "Hà Nội", "district": "Đan Phượng", "ward": "Thọ Xuân", "street": "Bắc Hòa Bình", "geolocation": {"latitude": 21.1273808, "longitude": 105.6463318}}, {"city": "Hà Nội", "district": "Đan Phượng", "ward": "Thọ Xuân", "street": "Bắc Thống Nhất", "geolocation": {"latitude": 21.1223669, "longitude": 105.6494652}}, {"city": "Hà Nội", "district": "Đan Phượng", "ward": "Thọ Xuân", "street": "Cổ Bồng", "geolocation": {"latitude": 21.1214032, "longitude": 105.6589004}}, {"city": "Hà Nội", "district": "Đan Phượng", "ward": "Thọ Xuân", "street": "Cực Nam", "geolocation": {"latitude": 21.1149628, "longitude": 105.6404319}}, {"city": "Hà Nội", "district": "Đan Phượng", "ward": "Thọ Xuân", "street": "Mới An", "geolocation": {"latitude": 21.1275012, "longitude": 105.6444479}}, {"city": "Hà Nội", "district": "Đan Phượng", "ward": "Thọ Xuân", "street": "Phương Vinh", "geolocation": {"latitude": 21.1186247, "longitude": 105.6570152}}, {"city": "Hà Nội", "district": "Đan Phượng", "ward": "Thọ Xuân", "street": "Thọ Xuân", "geolocation": {"latitude": 21.1229914, "longitude": 105.6521025}}, {"city": "Hà Nội", "district": "Đan Phượng", "ward": "Thọ Xuân", "street": "Thống Nhất", "geolocation": {"latitude": 21.1200852, "longitude": 105.6507882}}, {"city": "Hà Nội", "district": "Đan Phượng", "ward": "Thọ Xuân", "street": "Tiến Bộ", "geolocation": {"latitude": 21.1215479, "longitude": 105.6459024}}, {"city": "Hà Nội", "district": "Đan Phượng", "ward": "Thọ Xuân", "street": "Trung Hà Trại", "geolocation": {"latitude": 21.1232515, "longitude": 105.6568759}}, {"city": "Hà Nội", "district": "Đan Phượng", "ward": "Thọ Xuân", "street": "Tây Đạc 3", "geolocation": {"latitude": 21.1225324, "longitude": 105.6436321}}, {"city": "Hà Nội", "district": "Đan Phượng", "ward": "Thọ Xuân", "street": "Tây Đạc Tư Đình", "geolocation": {"latitude": 21.1246651, "longitude": 105.6441992}}, {"city": "Hà Nội", "district": "Đan Phượng", "ward": "Thọ Xuân", "street": "Đt 417", "geolocation": {"latitude": 21.1107113, "longitude": 105.6566581}}, {"city": "Hà Nội", "district": "Đan Phượng", "ward": "Thọ Xuân", "street": "Đình Thọ Lão", "geolocation": {"latitude": 21.1238161, "longitude": 105.6444808}}, {"city": "Hà Nội", "district": "Đan Phượng", "ward": "Thọ Xuân", "street": "Đạc 10", "geolocation": {"latitude": 21.1189441, "longitude": 105.6597309}}, {"city": "Hà Nội", "district": "Đan Phượng", "ward": "Thọ Xuân", "street": "Đạc 6 Nội", "geolocation": {"latitude": 21.1261639, "longitude": 105.6470799}}, {"city": "Hà Nội", "district": "Đan Phượng", "ward": "Thọ Xuân", "street": "Đạc 9", "geolocation": {"latitude": 21.1189713, "longitude": 105.6578609}}, {"city": "Hà Nội", "district": "Đan Phượng", "ward": "Thọ Xuân", "street": "Đạc Tư Đình", "geolocation": {"latitude": 21.1251298, "longitude": 105.6449668}}, {"city": "Hà Nội", "district": "Đan Phượng", "ward": "Thượng Mỗ", "street": "An Bài", "geolocation": {"latitude": 21.1050454, "longitude": 105.6801631}}, {"city": "Hà Nội", "district": "Đan Phượng", "ward": "Thượng Mỗ", "street": "Hạ Mỗ", "geolocation": {"latitude": 21.1080168, "longitude": 105.6801224}}, {"city": "Hà Nội", "district": "Đan Phượng", "ward": "Thượng Mỗ", "street": "Ngõ Ngoài", "geolocation": {"latitude": 21.1092683, "longitude": 105.6862533}}, {"city": "Hà Nội", "district": "Đan Phượng", "ward": "Thượng Mỗ", "street": "Thượng Mỗ", "geolocation": {"latitude": 21.0996895, "longitude": 105.6728571}}, {"city": "Hà Nội", "district": "Đan Phượng", "ward": "Thượng Mỗ", "street": "Trung Thành", "geolocation": {"latitude": 21.1132883, "longitude": 105.6673748}}, {"city": "Hà Nội", "district": "Đan Phượng", "ward": "Thượng Mỗ", "street": "Tân Thành", "geolocation": {"latitude": 21.1121275, "longitude": 105.6765197}}, {"city": "Hà Nội", "district": "Đan Phượng", "ward": "Thượng Mỗ", "street": "Đường Đê", "geolocation": {"latitude": 21.1035442, "longitude": 105.6617208}}, {"city": "Hà Nội", "district": "Đan Phượng", "ward": "Thượng Mỗ", "street": "Đại Phú", "geolocation": {"latitude": 21.105811, "longitude": 105.6806745}}, {"city": "Hà Nội", "district": "Đông Anh", "ward": "Bắc Hồng", "street": "Bắc Làng", "geolocation": {"latitude": 21.1850325, "longitude": 105.8048821}}, {"city": "Hà Nội", "district": "Đông Anh", "ward": "Bắc Hồng", "street": "Cửa Bắc", "geolocation": {"latitude": 21.1846735, "longitude": 105.8045192}}, {"city": "Hà Nội", "district": "Đông Anh", "ward": "Bắc Hồng", "street": "Cửa Nam", "geolocation": {"latitude": 21.1807479, "longitude": 105.8004258}}, {"city": "Hà Nội", "district": "Đông Anh", "ward": "Bắc Hồng", "street": "Làng Cần", "geolocation": {"latitude": 21.1782117, "longitude": 105.8032421}}, {"city": "Hà Nội", "district": "Đông Anh", "ward": "Bắc Hồng", "street": "Làng Thụy Hà", "geolocation": {"latitude": 21.1838921, "longitude": 105.8012362}}, {"city": "Hà Nội", "district": "Đông Anh", "ward": "Bắc Hồng", "street": "Nam Hồng", "geolocation": {"latitude": 21.1659968, "longitude": 105.7976505}}, {"city": "Hà Nội", "district": "Đông Anh", "ward": "Bắc Hồng", "street": "Phù Thụy", "geolocation": {"latitude": 21.1811727, "longitude": 105.7986006}}, {"city": "Hà Nội", "district": "Đông Anh", "ward": "Bắc Hồng", "street": "Quan Âm", "geolocation": {"latitude": 21.1751175, "longitude": 105.8101381}}, {"city": "Hà Nội", "district": "Đông Anh", "ward": "Bắc Hồng", "street": "Tây Làng", "geolocation": {"latitude": 21.1808925, "longitude": 105.7997253}}, {"city": "Hà Nội", "district": "Đông Anh", "ward": "Bắc Hồng", "street": "Võ Nguyên Giáp", "geolocation": {"latitude": 21.1614183, "longitude": 105.8195171}}, {"city": "Hà Nội", "district": "Đông Anh", "ward": "Bắc Hồng", "street": "Xóm Nam", "geolocation": {"latitude": 21.1817382, "longitude": 105.8066736}}, {"city": "Hà Nội", "district": "Đông Anh", "ward": "Bắc Hồng", "street": "Xóm Đình 3", "geolocation": {"latitude": 21.16386, "longitude": 105.8111308}}, {"city": "Hà Nội", "district": "Đông Anh", "ward": "Bắc Hồng", "street": "Đồng Rộc", "geolocation": {"latitude": 21.1803224, "longitude": 105.8028793}}, {"city": "Hà Nội", "district": "Đông Anh", "ward": "Cổ Loa", "street": "Cổ Loa", "geolocation": {"latitude": 21.1163964, "longitude": 105.8754263}}, {"city": "Hà Nội", "district": "Đông Anh", "ward": "Cổ Loa", "street": "Quốc Lộ 3", "geolocation": {"latitude": 21.116031, "longitude": 105.8460935}}, {"city": "Hà Nội", "district": "Đông Anh", "ward": "Cổ Loa", "street": "Đào Duy Tùng", "geolocation": {"latitude": 21.1248447, "longitude": 105.8538168}}, {"city": "Hà Nội", "district": "Đông Anh", "ward": "Cổ Loa", "street": "Đông Hội", "geolocation": {"latitude": 21.086424, "longitude": 105.8710198}}, {"city": "Hà Nội", "district": "Đông Anh", "ward": "Dục Tú", "street": "Dục Nội", "geolocation": {"latitude": 21.1277428, "longitude": 105.8792001}}, {"city": "Hà Nội", "district": "Đông Anh", "ward": "Dục Tú", "street": "Dục Tú", "geolocation": {"latitude": 21.1129905, "longitude": 105.8937149}}, {"city": "Hà Nội", "district": "Đông Anh", "ward": "Dục Tú", "street": "Hà Nội Thái Nguyên", "geolocation": {"latitude": 21.1396529, "longitude": 105.9082235}}, {"city": "Hà Nội", "district": "Đông Anh", "ward": "Dục Tú", "street": "Lý Thường Kiệt", "geolocation": {"latitude": 21.122392, "longitude": 105.9123947}}, {"city": "Hà Nội", "district": "Đông Anh", "ward": "Dục Tú", "street": "Nghĩa Vũ", "geolocation": {"latitude": 21.1080222, "longitude": 105.8922173}}, {"city": "Hà Nội", "district": "Đông Anh", "ward": "Dục Tú", "street": "Quốc Lộ 3", "geolocation": {"latitude": 21.116031, "longitude": 105.8460935}}, {"city": "Hà Nội", "district": "Đông Anh", "ward": "Dục Tú", "street": "Xóm Chùa", "geolocation": {"latitude": 21.1003522, "longitude": 105.8958223}}, {"city": "Hà Nội", "district": "Đông Anh", "ward": "Dục Tú", "street": "Đồng Dầu", "geolocation": {"latitude": 21.1032876, "longitude": 105.8969238}}, {"city": "Hà Nội", "district": "Đông Anh", "ward": "Dục Tú", "street": "Đồng Kỵ", "geolocation": {"latitude": 21.1338761, "longitude": 105.9111617}}, {"city": "Hà Nội", "district": "Đông Anh", "ward": "Đại Mạch", "street": "Tỉnh Lộ 23b", "geolocation": {"latitude": 21.1217246, "longitude": 105.76331}}, {"city": "Hà Nội", "district": "Đông Anh", "ward": "Đại Mạch", "street": "Đê Tả Sông Hồng", "geolocation": {"latitude": 21.1049117, "longitude": 105.7746198}}, {"city": "Hà Nội", "district": "Đông Anh", "ward": "Đại Mạch", "street": "Đại Mạch", "geolocation": {"latitude": 21.1131721, "longitude": 105.7545608}}, {"city": "Hà Nội", "district": "Đông Anh", "ward": "Đông Anh", "street": "Cao Lỗ", "geolocation": {"latitude": 21.1397048, "longitude": 105.8539793}}, {"city": "Hà Nội", "district": "Đông Anh", "ward": "Đông Anh", "street": "Hàng Kênh", "geolocation": {"latitude": 21.1523089, "longitude": 105.8507857}}, {"city": "Hà Nội", "district": "Đông Anh", "ward": "Đông Anh", "street": "Lâm Tiên", "geolocation": {"latitude": 21.1624019, "longitude": 105.8511503}}, {"city": "Hà Nội", "district": "Đông Anh", "ward": "Đông Anh", "street": "Phúc Lộc", "geolocation": {"latitude": 21.135763, "longitude": 105.8478532}}, {"city": "Hà Nội", "district": "Đông Anh", "ward": "Đông Anh", "street": "Quốc Lộ 23", "geolocation": {"latitude": 21.1564876, "longitude": 105.8050889}}, {"city": "Hà Nội", "district": "Đông Anh", "ward": "Đông Anh", "street": "Quốc Lộ 3", "geolocation": {"latitude": 21.116031, "longitude": 105.8460935}}, {"city": "Hà Nội", "district": "Đông Anh", "ward": "Đông Anh", "street": "Uy Nỗ", "geolocation": {"latitude": 21.1673685, "longitude": 105.8575911}}, {"city": "Hà Nội", "district": "Đông Anh", "ward": "Đông Anh", "street": "Đản Dị", "geolocation": {"latitude": 21.1531615, "longitude": 105.861628}}, {"city": "Hà Nội", "district": "Đông Anh", "ward": "Đông Anh", "street": "Đản Mỗ", "geolocation": {"latitude": 21.1490013, "longitude": 105.8522262}}, {"city": "Hà Nội", "district": "Đông Anh", "ward": "Đông Hội", "street": "Lại Đà", "geolocation": {"latitude": 21.0859047, "longitude": 105.8714189}}, {"city": "Hà Nội", "district": "Đông Anh", "ward": "Đông Hội", "street": "Mai Lam", "geolocation": {"latitude": 21.0829825, "longitude": 105.881158}}, {"city": "Hà Nội", "district": "Đông Anh", "ward": "Đông Hội", "street": "Quốc Lộ 3", "geolocation": {"latitude": 21.116031, "longitude": 105.8460935}}, {"city": "Hà Nội", "district": "Đông Anh", "ward": "Đông Hội", "street": "Quốc Lộ 5", "geolocation": {"latitude": 21.123387, "longitude": 105.8362472}}, {"city": "Hà Nội", "district": "Đông Anh", "ward": "Đông Hội", "street": "Trường Sa", "geolocation": {"latitude": 21.1071391, "longitude": 105.8500882}}, {"city": "Hà Nội", "district": "Đông Anh", "ward": "Đông Hội", "street": "Đê Phương Trạch", "geolocation": {"latitude": 21.0699338, "longitude": 105.8620723}}, {"city": "Hà Nội", "district": "Đông Anh", "ward": "Đông Hội", "street": "Đông Hội", "geolocation": {"latitude": 21.086424, "longitude": 105.8710198}}, {"city": "Hà Nội", "district": "Đông Anh", "ward": "Hải Bối", "street": "Hải Bối", "geolocation": {"latitude": 21.1143647, "longitude": 105.8018788}}, {"city": "Hà Nội", "district": "Đông Anh", "ward": "Hải Bối", "street": "Phương Trạch", "geolocation": {"latitude": 21.11638, "longitude": 105.8149602}}, {"city": "Hà Nội", "district": "Đông Anh", "ward": "Hải Bối", "street": "Phố Cổ Điển", "geolocation": {"latitude": 21.1088092, "longitude": 105.7906983}}, {"city": "Hà Nội", "district": "Đông Anh", "ward": "Hải Bối", "street": "Phố Cổ Điển 1", "geolocation": {"latitude": 21.1096875, "longitude": 105.7907747}}, {"city": "Hà Nội", "district": "Đông Anh", "ward": "Hải Bối", "street": "Phố Cổ Điển 2", "geolocation": {"latitude": 21.1101142, "longitude": 105.7912005}}, {"city": "Hà Nội", "district": "Đông Anh", "ward": "Hải Bối", "street": "Phố Cổ Điển 3", "geolocation": {"latitude": 21.1105485, "longitude": 105.7917008}}, {"city": "Hà Nội", "district": "Đông Anh", "ward": "Hải Bối", "street": "Phố Cổ Điển 4", "geolocation": {"latitude": 21.1100897, "longitude": 105.7919181}}, {"city": "Hà Nội", "district": "Đông Anh", "ward": "Hải Bối", "street": "Võ Văn Kiệt", "geolocation": {"latitude": 21.1344539, "longitude": 105.7784753}}, {"city": "Hà Nội", "district": "Đông Anh", "ward": "Hải Bối", "street": "Vũ Huy Tài", "geolocation": {"latitude": 21.1144289, "longitude": 105.7890663}}, {"city": "Hà Nội", "district": "Đông Anh", "ward": "Hải Bối", "street": "Đê Tả Sông Hồng", "geolocation": {"latitude": 21.1049117, "longitude": 105.7746198}}, {"city": "Hà Nội", "district": "Đông Anh", "ward": "Hải Bối", "street": "Đường Cụt", "geolocation": {"latitude": 21.1081716, "longitude": 105.7830023}}, {"city": "Hà Nội", "district": "Đông Anh", "ward": "Hải Bối", "street": "Đường Số 6", "geolocation": {"latitude": 21.1159517, "longitude": 105.7898519}}, {"city": "Hà Nội", "district": "Đông Anh", "ward": "Kim Chung", "street": "Cổng Gỗ", "geolocation": {"latitude": 21.1270446, "longitude": 105.7784432}}, {"city": "Hà Nội", "district": "Đông Anh", "ward": "Kim Chung", "street": "Cổng Hậu 1", "geolocation": {"latitude": 21.1213296, "longitude": 105.7718272}}, {"city": "Hà Nội", "district": "Đông Anh", "ward": "Kim Chung", "street": "Cổng Hậu 2", "geolocation": {"latitude": 21.1216665, "longitude": 105.7718162}},