{"data": [{"district": "Bắc Từ Liêm", "ward": "Cổ Nhuế 1", "street": "Hoàng Quốc Việt", "city": "Hà Nội", "normalize": "hoang quoc viet co nhue 1 bac tu liem ha noi", "streetNormalize": "hoang quoc viet co nhue 1 bac tu liem ha noi", "wardNormalize": "co nhue 1 bac tu liem ha noi", "districtNormalize": "bac tu liem ha noi", "preWardNormalize": "phuong co nhue 1 bac tu liem ha noi", "lat": 21.0462501, "lon": 105.7870461, "geolocation": {"latitude": 21.0462501, "longitude": 105.7870461}}, {"district": "Bắc Từ Liêm", "ward": "Cổ Nhuế 1", "street": "Phan Bá Vành", "city": "Hà Nội", "normalize": "phan ba vanh co nhue 1 bac tu liem ha noi", "streetNormalize": "phan ba vanh co nhue 1 bac tu liem ha noi", "wardNormalize": "co nhue 1 bac tu liem ha noi", "districtNormalize": "bac tu liem ha noi", "preWardNormalize": "phuong co nhue 1 bac tu liem ha noi", "lat": 21.055116, "lon": 105.773168, "geolocation": {"latitude": 21.055116, "longitude": 105.773168}}, {"district": "Bắc Từ Liêm", "ward": "Cổ Nhuế 1", "street": "Phạm Văn Đồng", "city": "Hà Nội", "normalize": "pham van dong co nhue 1 bac tu liem ha noi", "streetNormalize": "pham van dong co nhue 1 bac tu liem ha noi", "wardNormalize": "co nhue 1 bac tu liem ha noi", "districtNormalize": "bac tu liem ha noi", "preWardNormalize": "phuong co nhue 1 bac tu liem ha noi", "lat": 21.0519203, "lon": 105.7817105, "geolocation": {"latitude": 21.0519203, "longitude": 105.7817105}}, {"district": "Bắc Từ Liêm", "ward": "Cổ Nhuế 1", "street": "Trần Cung", "city": "Hà Nội", "normalize": "tran cung co nhue 1 bac tu liem ha noi", "streetNormalize": "tran cung co nhue 1 bac tu liem ha noi", "wardNormalize": "co nhue 1 bac tu liem ha noi", "districtNormalize": "bac tu liem ha noi", "preWardNormalize": "phuong co nhue 1 bac tu liem ha noi", "lat": 21.054259, "lon": 105.78711, "geolocation": {"latitude": 21.054259, "longitude": 105.78711}}, {"district": "Bắc Từ Liêm", "ward": "Cổ Nhuế 1", "street": "Đặng Thùy Trâm", "city": "Hà Nội", "normalize": "dang thuy tram co nhue 1 bac tu liem ha noi", "streetNormalize": "dang thuy tram co nhue 1 bac tu liem ha noi", "wardNormalize": "co nhue 1 bac tu liem ha noi", "districtNormalize": "bac tu liem ha noi", "preWardNormalize": "phuong co nhue 1 bac tu liem ha noi", "lat": 21.045026, "lon": 105.784363, "geolocation": {"latitude": 21.045026, "longitude": 105.784363}}, {"district": "Bắc Từ Liêm", "ward": "Cổ Nhuế 2", "street": "Bờ Tây Sông Nhuệ", "city": "Hà Nội", "normalize": "bo tay song nhue co nhue 2 bac tu liem ha noi", "streetNormalize": "bo tay song nhue co nhue 2 bac tu liem ha noi", "wardNormalize": "co nhue 2 bac tu liem ha noi", "districtNormalize": "bac tu liem ha noi", "preWardNormalize": "phuong co nhue 2 bac tu liem ha noi", "lat": 21.0664354, "lon": 105.7717265, "geolocation": {"latitude": 21.0664354, "longitude": 105.7717265}}, {"district": "Bắc Từ Liêm", "ward": "Cổ Nhuế 2", "street": "Cổ Nhuế", "city": "Hà Nội", "normalize": "co nhue co nhue 2 bac tu liem ha noi", "streetNormalize": "co nhue co nhue 2 bac tu liem ha noi", "wardNormalize": "co nhue 2 bac tu liem ha noi", "districtNormalize": "bac tu liem ha noi", "preWardNormalize": "phuong co nhue 2 bac tu liem ha noi", "lat": 21.065107, "lon": 105.779439, "geolocation": {"latitude": 21.065107, "longitude": 105.779439}}, {"district": "Bắc Từ Liêm", "ward": "Cổ Nhuế 2", "street": "Nguyễn Đình Tứ", "city": "Hà Nội", "normalize": "nguyen dinh tu co nhue 2 bac tu liem ha noi", "streetNormalize": "nguyen dinh tu co nhue 2 bac tu liem ha noi", "wardNormalize": "co nhue 2 bac tu liem ha noi", "districtNormalize": "bac tu liem ha noi", "preWardNormalize": "phuong co nhue 2 bac tu liem ha noi", "lat": 21.0715, "lon": 105.7801353, "geolocation": {"latitude": 21.0715, "longitude": 105.7801353}}, {"district": "Bắc Từ Liêm", "ward": "Cổ Nhuế 2", "street": "Phan Bá Vành", "city": "Hà Nội", "normalize": "phan ba vanh co nhue 2 bac tu liem ha noi", "streetNormalize": "phan ba vanh co nhue 2 bac tu liem ha noi", "wardNormalize": "co nhue 2 bac tu liem ha noi", "districtNormalize": "bac tu liem ha noi", "preWardNormalize": "phuong co nhue 2 bac tu liem ha noi", "lat": 21.059028, "lon": 105.773284, "geolocation": {"latitude": 21.059028, "longitude": 105.773284}}, {"district": "Bắc Từ Liêm", "ward": "Cổ Nhuế 2", "street": "Phú Diễn", "city": "Hà Nội", "normalize": "phu dien co nhue 2 bac tu liem ha noi", "streetNormalize": "phu dien co nhue 2 bac tu liem ha noi", "wardNormalize": "co nhue 2 bac tu liem ha noi", "districtNormalize": "bac tu liem ha noi", "preWardNormalize": "phuong co nhue 2 bac tu liem ha noi", "lat": 21.058966, "lon": 105.764644, "geolocation": {"latitude": 21.058966, "longitude": 105.764644}}, {"district": "Bắc Từ Liêm", "ward": "Cổ Nhuế 2", "street": "Phạm Văn Nghị", "city": "Hà Nội", "normalize": "pham van nghi co nhue 2 bac tu liem ha noi", "streetNormalize": "pham van nghi co nhue 2 bac tu liem ha noi", "wardNormalize": "co nhue 2 bac tu liem ha noi", "districtNormalize": "bac tu liem ha noi", "preWardNormalize": "phuong co nhue 2 bac tu liem ha noi", "lat": 21.064134, "lon": 105.763804, "geolocation": {"latitude": 21.064134, "longitude": 105.763804}}, {"district": "Bắc Từ Liêm", "ward": "Cổ Nhuế 2", "street": "Phạm Văn Đồng", "city": "Hà Nội", "normalize": "pham van dong co nhue 2 bac tu liem ha noi", "streetNormalize": "pham van dong co nhue 2 bac tu liem ha noi", "wardNormalize": "co nhue 2 bac tu liem ha noi", "districtNormalize": "bac tu liem ha noi", "preWardNormalize": "phuong co nhue 2 bac tu liem ha noi", "lat": 21.0600104, "lon": 105.7835988, "geolocation": {"latitude": 21.0600104, "longitude": 105.7835988}}, {"district": "Bắc Từ Liêm", "ward": "Cổ Nhuế 2", "street": "Phố Viên", "city": "Hà Nội", "normalize": "pho vien co nhue 2 bac tu liem ha noi", "streetNormalize": "pho vien co nhue 2 bac tu liem ha noi", "wardNormalize": "co nhue 2 bac tu liem ha noi", "districtNormalize": "bac tu liem ha noi", "preWardNormalize": "phuong co nhue 2 bac tu liem ha noi", "lat": 21.071221, "lon": 105.7724262, "geolocation": {"latitude": 21.071221, "longitude": 105.7724262}}, {"district": "Bắc Từ Liêm", "ward": "Cổ Nhuế 2", "street": "Trại Gà", "city": "Hà Nội", "normalize": "trai ga co nhue 2 bac tu liem ha noi", "streetNormalize": "trai ga co nhue 2 bac tu liem ha noi", "wardNormalize": "co nhue 2 bac tu liem ha noi", "districtNormalize": "bac tu liem ha noi", "preWardNormalize": "phuong co nhue 2 bac tu liem ha noi", "lat": 21.062481, "lon": 105.761309, "geolocation": {"latitude": 21.062481, "longitude": 105.761309}}, {"district": "Bắc Từ Liêm", "ward": "Cổ Nhuế 2", "street": "Trần Cung", "city": "Hà Nội", "normalize": "tran cung co nhue 2 bac tu liem ha noi", "streetNormalize": "tran cung co nhue 2 bac tu liem ha noi", "wardNormalize": "co nhue 2 bac tu liem ha noi", "districtNormalize": "bac tu liem ha noi", "preWardNormalize": "phuong co nhue 2 bac tu liem ha noi", "lat": 21.057182, "lon": 105.783913, "geolocation": {"latitude": 21.057182, "longitude": 105.783913}}, {"district": "Bắc Từ Liêm", "ward": "Cổ Nhuế 2", "street": "Tăng Thiết Giáp", "city": "Hà Nội", "normalize": "tang thiet giap co nhue 2 bac tu liem ha noi", "streetNormalize": "tang thiet giap co nhue 2 bac tu liem ha noi", "wardNormalize": "co nhue 2 bac tu liem ha noi", "districtNormalize": "bac tu liem ha noi", "preWardNormalize": "phuong co nhue 2 bac tu liem ha noi", "lat": 21.057654, "lon": 105.780233, "geolocation": {"latitude": 21.057654, "longitude": 105.780233}}, {"district": "Bắc Từ Liêm", "ward": "Đông Ngạc", "street": "An Dương Vương", "city": "Hà Nội", "normalize": "an duong vuong dong ngac bac tu liem ha noi", "streetNormalize": "an duong vuong dong ngac bac tu liem ha noi", "wardNormalize": "dong ngac bac tu liem ha noi", "districtNormalize": "bac tu liem ha noi", "preWardNormalize": "phuong dong ngac bac tu liem ha noi", "lat": 21.090957, "lon": 105.787416, "geolocation": {"latitude": 21.090957, "longitude": 105.787416}}, {"district": "Bắc Từ Liêm", "ward": "Đông Ngạc", "street": "Kẻ Vẽ", "city": "Hà Nội", "normalize": "ke ve dong ngac bac tu liem ha noi", "streetNormalize": "ke ve dong ngac bac tu liem ha noi", "wardNormalize": "dong ngac bac tu liem ha noi", "districtNormalize": "bac tu liem ha noi", "preWardNormalize": "phuong dong ngac bac tu liem ha noi", "lat": 21.088749, "lon": 105.781938, "geolocation": {"latitude": 21.088749, "longitude": 105.781938}}, {"district": "Bắc Từ Liêm", "ward": "Đông Ngạc", "street": "Nhật Tảo", "city": "Hà Nội", "normalize": "nhat tao dong ngac bac tu liem ha noi", "streetNormalize": "nhat tao dong ngac bac tu liem ha noi", "wardNormalize": "dong ngac bac tu liem ha noi", "districtNormalize": "bac tu liem ha noi", "preWardNormalize": "phuong dong ngac bac tu liem ha noi", "lat": 21.087427, "lon": 105.790944, "geolocation": {"latitude": 21.087427, "longitude": 105.790944}}, {"district": "Bắc Từ Liêm", "ward": "Đông Ngạc", "street": "Phạm Văn Đồng", "city": "Hà Nội", "normalize": "pham van dong dong ngac bac tu liem ha noi", "streetNormalize": "pham van dong dong ngac bac tu liem ha noi", "wardNormalize": "dong ngac bac tu liem ha noi", "districtNormalize": "bac tu liem ha noi", "preWardNormalize": "phuong dong ngac bac tu liem ha noi", "lat": 21.0869927, "lon": 105.7867033, "geolocation": {"latitude": 21.0869927, "longitude": 105.7867033}}, {"district": "Bắc Từ Liêm", "ward": "Đông Ngạc", "street": "Tân Xuân", "city": "Hà Nội", "normalize": "tan xuan dong ngac bac tu liem ha noi", "streetNormalize": "tan xuan dong ngac bac tu liem ha noi", "wardNormalize": "dong ngac bac tu liem ha noi", "districtNormalize": "bac tu liem ha noi", "preWardNormalize": "phuong dong ngac bac tu liem ha noi", "lat": 21.088326, "lon": 105.785846, "geolocation": {"latitude": 21.088326, "longitude": 105.785846}}, {"district": "Bắc Từ Liêm", "ward": "Đông Ngạc", "street": "Đông Ngạc", "city": "Hà Nội", "normalize": "dong ngac dong ngac bac tu liem ha noi", "streetNormalize": "dong ngac dong ngac bac tu liem ha noi", "wardNormalize": "dong ngac bac tu liem ha noi", "districtNormalize": "bac tu liem ha noi", "preWardNormalize": "phuong dong ngac bac tu liem ha noi", "lat": 21.091928, "lon": 105.783417, "geolocation": {"latitude": 21.091928, "longitude": 105.783417}}, {"district": "Bắc Từ Liêm", "ward": "Đông Ngạc", "street": "Đông Thắng", "city": "Hà Nội", "normalize": "dong thang dong ngac bac tu liem ha noi", "streetNormalize": "dong thang dong ngac bac tu liem ha noi", "wardNormalize": "dong ngac bac tu liem ha noi", "districtNormalize": "bac tu liem ha noi", "preWardNormalize": "phuong dong ngac bac tu liem ha noi", "lat": 21.0843109, "lon": 105.7796336, "geolocation": {"latitude": 21.0843109, "longitude": 105.7796336}}, {"district": "Bắc Từ Liêm", "ward": "Đức Thắng", "street": "Hoàng Tăng Bí", "city": "Hà Nội", "normalize": "hoang tang bi duc thang bac tu liem ha noi", "streetNormalize": "hoang tang bi duc thang bac tu liem ha noi", "wardNormalize": "duc thang bac tu liem ha noi", "districtNormalize": "bac tu liem ha noi", "preWardNormalize": "phuong duc thang bac tu liem ha noi", "lat": 21.083857, "lon": 105.779358, "geolocation": {"latitude": 21.083857, "longitude": 105.779358}}, {"district": "Bắc Từ Liêm", "ward": "Đức Thắng", "street": "Kẻ Vẽ", "city": "Hà Nội", "normalize": "ke ve duc thang bac tu liem ha noi", "streetNormalize": "ke ve duc thang bac tu liem ha noi", "wardNormalize": "duc thang bac tu liem ha noi", "districtNormalize": "bac tu liem ha noi", "preWardNormalize": "phuong duc thang bac tu liem ha noi", "lat": 21.090619, "lon": 105.778842, "geolocation": {"latitude": 21.090619, "longitude": 105.778842}}, {"district": "Bắc Từ Liêm", "ward": "Đức Thắng", "street": "Lê Văn Hiến", "city": "Hà Nội", "normalize": "le van hien duc thang bac tu liem ha noi", "streetNormalize": "le van hien duc thang bac tu liem ha noi", "wardNormalize": "duc thang bac tu liem ha noi", "districtNormalize": "bac tu liem ha noi", "preWardNormalize": "phuong duc thang bac tu liem ha noi", "lat": 21.075444, "lon": 105.773554, "geolocation": {"latitude": 21.075444, "longitude": 105.773554}}, {"district": "Bắc Từ Liêm", "ward": "Đức Thắng", "street": "Phố Viên", "city": "Hà Nội", "normalize": "pho vien duc thang bac tu liem ha noi", "streetNormalize": "pho vien duc thang bac tu liem ha noi", "wardNormalize": "duc thang bac tu liem ha noi", "districtNormalize": "bac tu liem ha noi", "preWardNormalize": "phuong duc thang bac tu liem ha noi", "lat": 21.0717015, "lon": 105.7724691, "geolocation": {"latitude": 21.0717015, "longitude": 105.7724691}}, {"district": "Bắc Từ Liêm", "ward": "Đức Thắng", "street": "Sông Nhuệ", "city": "Hà Nội", "normalize": "song nhue duc thang bac tu liem ha noi", "streetNormalize": "song nhue duc thang bac tu liem ha noi", "wardNormalize": "duc thang bac tu liem ha noi", "districtNormalize": "bac tu liem ha noi", "preWardNormalize": "phuong duc thang bac tu liem ha noi", "lat": 21.076948, "lon": 105.772249, "geolocation": {"latitude": 21.076948, "longitude": 105.772249}}, {"district": "Bắc Từ Liêm", "ward": "Đức Thắng", "street": "Thụy Phương", "city": "Hà Nội", "normalize": "thuy phuong duc thang bac tu liem ha noi", "streetNormalize": "thuy phuong duc thang bac tu liem ha noi", "wardNormalize": "duc thang bac tu liem ha noi", "districtNormalize": "bac tu liem ha noi", "preWardNormalize": "phuong duc thang bac tu liem ha noi", "lat": 21.086029, "lon": 105.776842, "geolocation": {"latitude": 21.086029, "longitude": 105.776842}}, {"district": "Bắc Từ Liêm", "ward": "Đức Thắng", "street": "Văn Hội", "city": "Hà Nội", "normalize": "van hoi duc thang bac tu liem ha noi", "streetNormalize": "van hoi duc thang bac tu liem ha noi", "wardNormalize": "duc thang bac tu liem ha noi", "districtNormalize": "bac tu liem ha noi", "preWardNormalize": "phuong duc thang bac tu liem ha noi", "lat": 21.0788861, "lon": 105.7737044, "geolocation": {"latitude": 21.0788861, "longitude": 105.7737044}}, {"district": "Bắc Từ Liêm", "ward": "Đức Thắng", "street": "Đức Thắng", "city": "Hà Nội", "normalize": "duc thang duc thang bac tu liem ha noi", "streetNormalize": "duc thang duc thang bac tu liem ha noi", "wardNormalize": "duc thang bac tu liem ha noi", "districtNormalize": "bac tu liem ha noi", "preWardNormalize": "phuong duc thang bac tu liem ha noi", "lat": 21.077481, "lon": 105.777653, "geolocation": {"latitude": 21.077481, "longitude": 105.777653}}, {"district": "Bắc Từ Liêm", "ward": "Liên Mạc", "street": "Hoàng Liên", "city": "Hà Nội", "normalize": "hoang lien lien mac bac tu liem ha noi", "streetNormalize": "hoang lien lien mac bac tu liem ha noi", "wardNormalize": "lien mac bac tu liem ha noi", "districtNormalize": "bac tu liem ha noi", "preWardNormalize": "phuong lien mac bac tu liem ha noi", "lat": 21.0834942, "lon": 105.7579743, "geolocation": {"latitude": 21.0834942, "longitude": 105.7579743}}, {"district": "Bắc Từ Liêm", "ward": "Liên Mạc", "street": "Liên Mạc", "city": "Hà Nội", "normalize": "lien mac lien mac bac tu liem ha noi", "streetNormalize": "lien mac lien mac bac tu liem ha noi", "wardNormalize": "lien mac bac tu liem ha noi", "districtNormalize": "bac tu liem ha noi", "preWardNormalize": "phuong lien mac bac tu liem ha noi", "lat": 21.0873959, "lon": 105.7555013, "geolocation": {"latitude": 21.0873959, "longitude": 105.7555013}}, {"district": "Bắc Từ Liêm", "ward": "Liên Mạc", "street": "Sùng Khang", "city": "Hà Nội", "normalize": "sung khang lien mac bac tu liem ha noi", "streetNormalize": "sung khang lien mac bac tu liem ha noi", "wardNormalize": "lien mac bac tu liem ha noi", "districtNormalize": "bac tu liem ha noi", "preWardNormalize": "phuong lien mac bac tu liem ha noi", "lat": 21.080965, "lon": 105.74084, "geolocation": {"latitude": 21.080965, "longitude": 105.74084}}, {"district": "Bắc Từ Liêm", "ward": "Liên Mạc", "street": "Tân Phong", "city": "Hà Nội", "normalize": "tan phong lien mac bac tu liem ha noi", "streetNormalize": "tan phong lien mac bac tu liem ha noi", "wardNormalize": "lien mac bac tu liem ha noi", "districtNormalize": "bac tu liem ha noi", "preWardNormalize": "phuong lien mac bac tu liem ha noi", "lat": 21.0892222, "lon": 105.7695983, "geolocation": {"latitude": 21.0892222, "longitude": 105.7695983}}, {"district": "Bắc Từ Liêm", "ward": "Liên Mạc", "street": "Yên Nội", "city": "Hà Nội", "normalize": "yen noi lien mac bac tu liem ha noi", "streetNormalize": "yen noi lien mac bac tu liem ha noi", "wardNormalize": "lien mac bac tu liem ha noi", "districtNormalize": "bac tu liem ha noi", "preWardNormalize": "phuong lien mac bac tu liem ha noi", "lat": 21.084577, "lon": 105.75001, "geolocation": {"latitude": 21.084577, "longitude": 105.75001}}, {"district": "Bắc Từ Liêm", "ward": "Minh Khai", "street": "Cầu Diễn", "city": "Hà Nội", "normalize": "cau dien minh khai bac tu liem ha noi", "streetNormalize": "cau dien minh khai bac tu liem ha noi", "wardNormalize": "minh khai bac tu liem ha noi", "districtNormalize": "bac tu liem ha noi", "preWardNormalize": "phuong minh khai bac tu liem ha noi", "lat": 21.0500086, "lon": 105.7403024, "geolocation": {"latitude": 21.0500086, "longitude": 105.7403024}}, {"district": "Bắc Từ Liêm", "ward": "Minh Khai", "street": "Hoàng Liên", "city": "Hà Nội", "normalize": "hoang lien minh khai bac tu liem ha noi", "streetNormalize": "hoang lien minh khai bac tu liem ha noi", "wardNormalize": "minh khai bac tu liem ha noi", "districtNormalize": "bac tu liem ha noi", "preWardNormalize": "phuong minh khai bac tu liem ha noi", "lat": 21.0753383, "lon": 105.7571989, "geolocation": {"latitude": 21.0753383, "longitude": 105.7571989}}, {"district": "Bắc Từ Liêm", "ward": "Minh Khai", "street": "Nguyên Xá", "city": "Hà Nội", "normalize": "nguyen xa minh khai bac tu liem ha noi", "streetNormalize": "nguyen xa minh khai bac tu liem ha noi", "wardNormalize": "minh khai bac tu liem ha noi", "districtNormalize": "bac tu liem ha noi", "preWardNormalize": "phuong minh khai bac tu liem ha noi", "lat": 21.05203, "lon": 105.7382657, "geolocation": {"latitude": 21.05203, "longitude": 105.7382657}}, {"district": "Bắc Từ Liêm", "ward": "Minh Khai", "street": "Ngọa Long", "city": "Hà Nội", "normalize": "ngoa long minh khai bac tu liem ha noi", "streetNormalize": "ngoa long minh khai bac tu liem ha noi", "wardNormalize": "minh khai bac tu liem ha noi", "districtNormalize": "bac tu liem ha noi", "preWardNormalize": "phuong minh khai bac tu liem ha noi", "lat": 21.0509602, "lon": 105.7449357, "geolocation": {"latitude": 21.0509602, "longitude": 105.7449357}}, {"district": "Bắc Từ Liêm", "ward": "Minh Khai", "street": "Phú Minh", "city": "Hà Nội", "normalize": "phu minh minh khai bac tu liem ha noi", "streetNormalize": "phu minh minh khai bac tu liem ha noi", "wardNormalize": "minh khai bac tu liem ha noi", "districtNormalize": "bac tu liem ha noi", "preWardNormalize": "phuong minh khai bac tu liem ha noi", "lat": 21.0594707, "lon": 105.7456665, "geolocation": {"latitude": 21.0594707, "longitude": 105.7456665}}, {"district": "Bắc Từ Liêm", "ward": "Minh Khai", "street": "Phạm Văn Nghị", "city": "Hà Nội", "normalize": "pham van nghi minh khai bac tu liem ha noi", "streetNormalize": "pham van nghi minh khai bac tu liem ha noi", "wardNormalize": "minh khai bac tu liem ha noi", "districtNormalize": "bac tu liem ha noi", "preWardNormalize": "phuong minh khai bac tu liem ha noi", "lat": 21.067775, "lon": 105.757421, "geolocation": {"latitude": 21.067775, "longitude": 105.757421}}, {"district": "Bắc Từ Liêm", "ward": "Minh Khai", "street": "Phố Nhổn", "city": "Hà Nội", "normalize": "pho nhon minh khai bac tu liem ha noi", "streetNormalize": "pho nhon minh khai bac tu liem ha noi", "wardNormalize": "minh khai bac tu liem ha noi", "districtNormalize": "bac tu liem ha noi", "preWardNormalize": "phuong minh khai bac tu liem ha noi", "lat": 21.0542565, "lon": 105.7330992, "geolocation": {"latitude": 21.0542565, "longitude": 105.7330992}}, {"district": "Bắc Từ Liêm", "ward": "Minh Khai", "street": "Thanh Lâm", "city": "Hà Nội", "normalize": "thanh lam minh khai bac tu liem ha noi", "streetNormalize": "thanh lam minh khai bac tu liem ha noi", "wardNormalize": "minh khai bac tu liem ha noi", "districtNormalize": "bac tu liem ha noi", "preWardNormalize": "phuong minh khai bac tu liem ha noi", "lat": 21.047537, "lon": 105.737568, "geolocation": {"latitude": 21.047537, "longitude": 105.737568}}, {"district": "Bắc Từ Liêm", "ward": "Minh Khai", "street": "Tây Tựu", "city": "Hà Nội", "normalize": "tay tuu minh khai bac tu liem ha noi", "streetNormalize": "tay tuu minh khai bac tu liem ha noi", "wardNormalize": "minh khai bac tu liem ha noi", "districtNormalize": "bac tu liem ha noi", "preWardNormalize": "phuong minh khai bac tu liem ha noi", "lat": 21.0544918, "lon": 105.7330666, "geolocation": {"latitude": 21.0544918, "longitude": 105.7330666}}, {"district": "Bắc Từ Liêm", "ward": "Minh Khai", "street": "Văn Tiến Dũng", "city": "Hà Nội", "normalize": "van tien dung minh khai bac tu liem ha noi", "streetNormalize": "van tien dung minh khai bac tu liem ha noi", "wardNormalize": "minh khai bac tu liem ha noi", "districtNormalize": "bac tu liem ha noi", "preWardNormalize": "phuong minh khai bac tu liem ha noi", "lat": 21.0609828, "lon": 105.7520768, "geolocation": {"latitude": 21.0609828, "longitude": 105.7520768}}, {"district": "Bắc Từ Liêm", "ward": "Minh Khai", "street": "Văn Trì", "city": "Hà Nội", "normalize": "van tri minh khai bac tu liem ha noi", "streetNormalize": "van tri minh khai bac tu liem ha noi", "wardNormalize": "minh khai bac tu liem ha noi", "districtNormalize": "bac tu liem ha noi", "preWardNormalize": "phuong minh khai bac tu liem ha noi", "lat": 21.0537, "lon": 105.744754, "geolocation": {"latitude": 21.0537, "longitude": 105.744754}}, {"district": "Bắc Từ Liêm", "ward": "Minh Khai", "street": "Xuân Phương", "city": "Hà Nội", "normalize": "xuan phuong minh khai bac tu liem ha noi", "streetNormalize": "xuan phuong minh khai bac tu liem ha noi", "wardNormalize": "minh khai bac tu liem ha noi", "districtNormalize": "bac tu liem ha noi", "preWardNormalize": "phuong minh khai bac tu liem ha noi", "lat": 21.051556, "lon": 105.735865, "geolocation": {"latitude": 21.051556, "longitude": 105.735865}}, {"district": "Bắc Từ Liêm", "ward": "Minh Khai", "street": "Đường Cn6", "city": "Hà Nội", "normalize": "duong cn6 minh khai bac tu liem ha noi", "streetNormalize": "duong cn6 minh khai bac tu liem ha noi", "wardNormalize": "minh khai bac tu liem ha noi", "districtNormalize": "bac tu liem ha noi", "preWardNormalize": "phuong minh khai bac tu liem ha noi", "lat": 21.047839, "lon": 105.740009, "geolocation": {"latitude": 21.047839, "longitude": 105.740009}}, {"district": "Bắc Từ Liêm", "ward": "Minh Khai", "street": "Đường Cn8", "city": "Hà Nội", "normalize": "duong cn8 minh khai bac tu liem ha noi", "streetNormalize": "duong cn8 minh khai bac tu liem ha noi", "wardNormalize": "minh khai bac tu liem ha noi", "districtNormalize": "bac tu liem ha noi", "preWardNormalize": "phuong minh khai bac tu liem ha noi", "lat": 21.043943, "lon": 105.741362, "geolocation": {"latitude": 21.043943, "longitude": 105.741362}}, {"district": "Bắc Từ Liêm", "ward": "Phú Diễn", "street": "Cầu Diễn", "city": "Hà Nội", "normalize": "cau dien phu dien bac tu liem ha noi", "streetNormalize": "cau dien phu dien bac tu liem ha noi", "wardNormalize": "phu dien bac tu liem ha noi", "districtNormalize": "bac tu liem ha noi", "preWardNormalize": "phuong phu dien bac tu liem ha noi", "lat": 21.04424, "lon": 105.754748, "geolocation": {"latitude": 21.04424, "longitude": 105.754748}}, {"district": "Bắc Từ Liêm", "ward": "Phú Diễn", "street": "Phan Bá Vành", "city": "Hà Nội", "normalize": "phan ba vanh phu dien bac tu liem ha noi", "streetNormalize": "phan ba vanh phu dien bac tu liem ha noi", "wardNormalize": "phu dien bac tu liem ha noi", "districtNormalize": "bac tu liem ha noi", "preWardNormalize": "phuong phu dien bac tu liem ha noi", "lat": 21.04889, "lon": 105.769493, "geolocation": {"latitude": 21.04889, "longitude": 105.769493}}, {"district": "Bắc Từ Liêm", "ward": "Phú Diễn", "street": "Phú Diễn", "city": "Hà Nội", "normalize": "phu dien phu dien bac tu liem ha noi", "streetNormalize": "phu dien phu dien bac tu liem ha noi", "wardNormalize": "phu dien bac tu liem ha noi", "districtNormalize": "bac tu liem ha noi", "preWardNormalize": "phuong phu dien bac tu liem ha noi", "lat": 21.049911, "lon": 105.763549, "geolocation": {"latitude": 21.049911, "longitude": 105.763549}}, {"district": "Bắc Từ Liêm", "ward": "Phú Diễn", "street": "Đức Diễn", "city": "Hà Nội", "normalize": "duc dien phu dien bac tu liem ha noi", "streetNormalize": "duc dien phu dien bac tu liem ha noi", "wardNormalize": "phu dien bac tu liem ha noi", "districtNormalize": "bac tu liem ha noi", "preWardNormalize": "phuong phu dien bac tu liem ha noi", "lat": 21.051172, "lon": 105.755838, "geolocation": {"latitude": 21.051172, "longitude": 105.755838}}, {"district": "Bắc Từ Liêm", "ward": "Phúc Diễn", "street": "Cầu Diễn", "city": "Hà Nội", "normalize": "cau dien phuc dien bac tu liem ha noi", "streetNormalize": "cau dien phuc dien bac tu liem ha noi", "wardNormalize": "phuc dien bac tu liem ha noi", "districtNormalize": "bac tu liem ha noi", "preWardNormalize": "phuong phuc dien bac tu liem ha noi", "lat": 21.04424, "lon": 105.754748, "geolocation": {"latitude": 21.04424, "longitude": 105.754748}}, {"district": "Bắc Từ Liêm", "ward": "Phúc Diễn", "street": "Kiều Mai", "city": "Hà Nội", "normalize": "kieu mai phuc dien bac tu liem ha noi", "streetNormalize": "kieu mai phuc dien bac tu liem ha noi", "wardNormalize": "phuc dien bac tu liem ha noi", "districtNormalize": "bac tu liem ha noi", "preWardNormalize": "phuong phuc dien bac tu liem ha noi", "lat": 21.041282, "lon": 105.751494, "geolocation": {"latitude": 21.041282, "longitude": 105.751494}}, {"district": "Bắc Từ Liêm", "ward": "Phúc Diễn", "street": "Phú Diễn", "city": "Hà Nội", "normalize": "phu dien phuc dien bac tu liem ha noi", "streetNormalize": "phu dien phuc dien bac tu liem ha noi", "wardNormalize": "phuc dien bac tu liem ha noi", "districtNormalize": "bac tu liem ha noi", "preWardNormalize": "phuong phuc dien bac tu liem ha noi", "lat": 21.0399217, "lon": 105.7596597, "geolocation": {"latitude": 21.0399217, "longitude": 105.7596597}}, {"district": "Bắc Từ Liêm", "ward": "Phúc Diễn", "street": "Phú Kiều", "city": "Hà Nội", "normalize": "phu kieu phuc dien bac tu liem ha noi", "streetNormalize": "phu kieu phuc dien bac tu liem ha noi", "wardNormalize": "phuc dien bac tu liem ha noi", "districtNormalize": "bac tu liem ha noi", "preWardNormalize": "phuong phuc dien bac tu liem ha noi", "lat": 21.043212, "lon": 105.751895, "geolocation": {"latitude": 21.043212, "longitude": 105.751895}}, {"district": "Bắc Từ Liêm", "ward": "Phúc Diễn", "street": "Phú Minh", "city": "Hà Nội", "normalize": "phu minh phuc dien bac tu liem ha noi", "streetNormalize": "phu minh phuc dien bac tu liem ha noi", "wardNormalize": "phuc dien bac tu liem ha noi", "districtNormalize": "bac tu liem ha noi", "preWardNormalize": "phuong phuc dien bac tu liem ha noi", "lat": 21.0518638, "lon": 105.7488337, "geolocation": {"latitude": 21.0518638, "longitude": 105.7488337}}, {"district": "Bắc Từ Liêm", "ward": "Phúc Diễn", "street": "Phúc Minh", "city": "Hà Nội", "normalize": "phuc minh phuc dien bac tu liem ha noi", "streetNormalize": "phuc minh phuc dien bac tu liem ha noi", "wardNormalize": "phuc dien bac tu liem ha noi", "districtNormalize": "bac tu liem ha noi", "preWardNormalize": "phuong phuc dien bac tu liem ha noi", "lat": 21.0479676, "lon": 105.7524466, "geolocation": {"latitude": 21.0479676, "longitude": 105.7524466}}, {"district": "Bắc Từ Liêm", "ward": "Phúc Diễn", "street": "Tiền Phong", "city": "Hà Nội", "normalize": "tien phong phuc dien bac tu liem ha noi", "streetNormalize": "tien phong phuc dien bac tu liem ha noi", "wardNormalize": "phuc dien bac tu liem ha noi", "districtNormalize": "bac tu liem ha noi", "preWardNormalize": "phuong phuc dien bac tu liem ha noi", "lat": 21.0499193, "lon": 105.753483, "geolocation": {"latitude": 21.0499193, "longitude": 105.753483}}, {"district": "Bắc Từ Liêm", "ward": "Phúc Diễn", "street": "Tân Tiến", "city": "Hà Nội", "normalize": "tan tien phuc dien bac tu liem ha noi", "streetNormalize": "tan tien phuc dien bac tu liem ha noi", "wardNormalize": "phuc dien bac tu liem ha noi", "districtNormalize": "bac tu liem ha noi", "preWardNormalize": "phuong phuc dien bac tu liem ha noi", "lat": 21.0495609, "lon": 105.754837, "geolocation": {"latitude": 21.0495609, "longitude": 105.754837}}, {"district": "Bắc Từ Liêm", "ward": "Phúc Diễn", "street": "Võ Quý Huân", "city": "Hà Nội", "normalize": "vo quy huan phuc dien bac tu liem ha noi", "streetNormalize": "vo quy huan phuc dien bac tu liem ha noi", "wardNormalize": "phuc dien bac tu liem ha noi", "districtNormalize": "bac tu liem ha noi", "preWardNormalize": "phuong phuc dien bac tu liem ha noi", "lat": 21.047602, "lon": 105.750204, "geolocation": {"latitude": 21.047602, "longitude": 105.750204}}, {"district": "Bắc Từ Liêm", "ward": "Phúc Diễn", "street": "Văn Tiến Dũng", "city": "Hà Nội", "normalize": "van tien dung phuc dien bac tu liem ha noi", "streetNormalize": "van tien dung phuc dien bac tu liem ha noi", "wardNormalize": "phuc dien bac tu liem ha noi", "districtNormalize": "bac tu liem ha noi", "preWardNormalize": "phuong phuc dien bac tu liem ha noi", "lat": 21.050495, "lon": 105.749338, "geolocation": {"latitude": 21.050495, "longitude": 105.749338}}, {"district": "Bắc Từ Liêm", "ward": "Phúc Diễn", "street": "Yên Lộc", "city": "Hà Nội", "normalize": "yen loc phuc dien bac tu liem ha noi", "streetNormalize": "yen loc phuc dien bac tu liem ha noi", "wardNormalize": "phuc dien bac tu liem ha noi", "districtNormalize": "bac tu liem ha noi", "preWardNormalize": "phuong phuc dien bac tu liem ha noi", "lat": 21.0496315, "lon": 105.7531906, "geolocation": {"latitude": 21.0496315, "longitude": 105.7531906}}, {"district": "Bắc Từ Liêm", "ward": "Phúc Diễn", "street": "Đường Cn8", "city": "Hà Nội", "normalize": "duong cn8 phuc dien bac tu liem ha noi", "streetNormalize": "duong cn8 phuc dien bac tu liem ha noi", "wardNormalize": "phuc dien bac tu liem ha noi", "districtNormalize": "bac tu liem ha noi", "preWardNormalize": "phuong phuc dien bac tu liem ha noi", "lat": 21.0425567, "lon": 105.7455088, "geolocation": {"latitude": 21.0425567, "longitude": 105.7455088}}, {"district": "Bắc Từ Liêm", "ward": "Phúc Diễn", "street": "Đức Diễn", "city": "Hà Nội", "normalize": "duc dien phuc dien bac tu liem ha noi", "streetNormalize": "duc dien phuc dien bac tu liem ha noi", "wardNormalize": "phuc dien bac tu liem ha noi", "districtNormalize": "bac tu liem ha noi", "preWardNormalize": "phuong phuc dien bac tu liem ha noi", "lat": 21.05035, "lon": 105.752893, "geolocation": {"latitude": 21.05035, "longitude": 105.752893}}, {"district": "Bắc Từ Liêm", "ward": "Tây Tựu", "street": "Phú Minh", "city": "Hà Nội", "normalize": "phu minh tay tuu bac tu liem ha noi", "streetNormalize": "phu minh tay tuu bac tu liem ha noi", "wardNormalize": "tay tuu bac tu liem ha noi", "districtNormalize": "bac tu liem ha noi", "preWardNormalize": "phuong tay tuu bac tu liem ha noi", "lat": 21.0663969632332, "lon": 105.740459341573, "geolocation": {"latitude": 21.0663969632332, "longitude": 105.740459341573}}, {"district": "Bắc Từ Liêm", "ward": "Tây Tựu", "street": "Phố Nhổn", "city": "Hà Nội", "normalize": "pho nhon tay tuu bac tu liem ha noi", "streetNormalize": "pho nhon tay tuu bac tu liem ha noi", "wardNormalize": "tay tuu bac tu liem ha noi", "districtNormalize": "bac tu liem ha noi", "preWardNormalize": "phuong tay tuu bac tu liem ha noi", "lat": 21.0545280277893, "lon": 105.73269680803, "geolocation": {"latitude": 21.0545280277893, "longitude": 105.73269680803}}, {"district": "Bắc Từ Liêm", "ward": "Tây Tựu", "street": "Trung Tựu", "city": "Hà Nội", "normalize": "trung tuu tay tuu bac tu liem ha noi", "streetNormalize": "trung tuu tay tuu bac tu liem ha noi", "wardNormalize": "tay tuu bac tu liem ha noi", "districtNormalize": "bac tu liem ha noi", "preWardNormalize": "phuong tay tuu bac tu liem ha noi", "lat": 21.0692878, "lon": 105.7405025, "geolocation": {"latitude": 21.0692878, "longitude": 105.7405025}}, {"district": "Bắc Từ Liêm", "ward": "Tây Tựu", "street": "Tây Tựu", "city": "Hà Nội", "normalize": "tay tuu tay tuu bac tu liem ha noi", "streetNormalize": "tay tuu tay tuu bac tu liem ha noi", "wardNormalize": "tay tuu bac tu liem ha noi", "districtNormalize": "bac tu liem ha noi", "preWardNormalize": "phuong tay tuu bac tu liem ha noi", "lat": 21.074443, "lon": 105.727849, "geolocation": {"latitude": 21.074443, "longitude": 105.727849}}, {"district": "Bắc Từ Liêm", "ward": "Tây Tựu", "street": "Yên Nội", "city": "Hà Nội", "normalize": "yen noi tay tuu bac tu liem ha noi", "streetNormalize": "yen noi tay tuu bac tu liem ha noi", "wardNormalize": "tay tuu bac tu liem ha noi", "districtNormalize": "bac tu liem ha noi", "preWardNormalize": "phuong tay tuu bac tu liem ha noi", "lat": 21.0752482, "lon": 105.7445858, "geolocation": {"latitude": 21.0752482, "longitude": 105.7445858}}, {"district": "Bắc Từ Liêm", "ward": "Thượng Cát", "street": "Châu Đài", "city": "Hà Nội", "normalize": "chau dai thuong cat bac tu liem ha noi", "streetNormalize": "chau dai thuong cat bac tu liem ha noi", "wardNormalize": "thuong cat bac tu liem ha noi", "districtNormalize": "bac tu liem ha noi", "preWardNormalize": "phuong thuong cat bac tu liem ha noi", "lat": 21.090835, "lon": 105.7324149, "geolocation": {"latitude": 21.090835, "longitude": 105.7324149}}, {"district": "Bắc Từ Liêm", "ward": "Thượng Cát", "street": "Kỳ Vũ", "city": "Hà Nội", "normalize": "ky vu thuong cat bac tu liem ha noi", "streetNormalize": "ky vu thuong cat bac tu liem ha noi", "wardNormalize": "thuong cat bac tu liem ha noi", "districtNormalize": "bac tu liem ha noi", "preWardNormalize": "phuong thuong cat bac tu liem ha noi", "lat": 21.0873079, "lon": 105.7347348, "geolocation": {"latitude": 21.0873079, "longitude": 105.7347348}}, {"district": "Bắc Từ Liêm", "ward": "Thượng Cát", "street": "Sùng Khang", "city": "Hà Nội", "normalize": "sung khang thuong cat bac tu liem ha noi", "streetNormalize": "sung khang thuong cat bac tu liem ha noi", "wardNormalize": "thuong cat bac tu liem ha noi", "districtNormalize": "bac tu liem ha noi", "preWardNormalize": "phuong thuong cat bac tu liem ha noi", "lat": 21.083713, "lon": 105.737281, "geolocation": {"latitude": 21.083713, "longitude": 105.737281}}, {"district": "Bắc Từ Liêm", "ward": "Thượng Cát", "street": "Thượng Cát", "city": "Hà Nội", "normalize": "thuong cat thuong cat bac tu liem ha noi", "streetNormalize": "thuong cat thuong cat bac tu liem ha noi", "wardNormalize": "thuong cat bac tu liem ha noi", "districtNormalize": "bac tu liem ha noi", "preWardNormalize": "phuong thuong cat bac tu liem ha noi", "lat": 21.095688, "lon": 105.733314, "geolocation": {"latitude": 21.095688, "longitude": 105.733314}}, {"district": "Bắc Từ Liêm", "ward": "Thượng Cát", "street": "Tây Tựu", "city": "Hà Nội", "normalize": "tay tuu thuong cat bac tu liem ha noi", "streetNormalize": "tay tuu thuong cat bac tu liem ha noi", "wardNormalize": "thuong cat bac tu liem ha noi", "districtNormalize": "bac tu liem ha noi", "preWardNormalize": "phuong thuong cat bac tu liem ha noi", "lat": 21.0845645, "lon": 105.7360023, "geolocation": {"latitude": 21.0845645, "longitude": 105.7360023}}, {"district": "Bắc Từ Liêm", "ward": "Thụy Phương", "street": "Bờ Tây Sông Nhuệ", "city": "Hà Nội", "normalize": "bo tay song nhue thuy phuong bac tu liem ha noi", "streetNormalize": "bo tay song nhue thuy phuong bac tu liem ha noi", "wardNormalize": "thuy phuong bac tu liem ha noi", "districtNormalize": "bac tu liem ha noi", "preWardNormalize": "phuong thuy phuong bac tu liem ha noi", "lat": 21.07981, "lon": 105.770858, "geolocation": {"latitude": 21.07981, "longitude": 105.770858}}, {"district": "Bắc Từ Liêm", "ward": "Thụy Phương", "street": "Hoàng Tăng Bí", "city": "Hà Nội", "normalize": "hoang tang bi thuy phuong bac tu liem ha noi", "streetNormalize": "hoang tang bi thuy phuong bac tu liem ha noi", "wardNormalize": "thuy phuong bac tu liem ha noi", "districtNormalize": "bac tu liem ha noi", "preWardNormalize": "phuong thuy phuong bac tu liem ha noi", "lat": 21.0833788, "lon": 105.7725382, "geolocation": {"latitude": 21.0833788, "longitude": 105.7725382}}, {"district": "Bắc Từ Liêm", "ward": "Thụy Phương", "street": "Liên Mạc", "city": "Hà Nội", "normalize": "lien mac thuy phuong bac tu liem ha noi", "streetNormalize": "lien mac thuy phuong bac tu liem ha noi", "wardNormalize": "thuy phuong bac tu liem ha noi", "districtNormalize": "bac tu liem ha noi", "preWardNormalize": "phuong thuy phuong bac tu liem ha noi", "lat": 21.089481, "lon": 105.77015, "geolocation": {"latitude": 21.089481, "longitude": 105.77015}}, {"district": "Bắc Từ Liêm", "ward": "Thụy Phương", "street": "Phố Viên", "city": "Hà Nội", "normalize": "pho vien thuy phuong bac tu liem ha noi", "streetNormalize": "pho vien thuy phuong bac tu liem ha noi", "wardNormalize": "thuy phuong bac tu liem ha noi", "districtNormalize": "bac tu liem ha noi", "preWardNormalize": "phuong thuy phuong bac tu liem ha noi", "lat": 21.0715814, "lon": 105.7630707, "geolocation": {"latitude": 21.0715814, "longitude": 105.7630707}}, {"district": "Bắc Từ Liêm", "ward": "Thụy Phương", "street": "Sông Nhuệ", "city": "Hà Nội", "normalize": "song nhue thuy phuong bac tu liem ha noi", "streetNormalize": "song nhue thuy phuong bac tu liem ha noi", "wardNormalize": "thuy phuong bac tu liem ha noi", "districtNormalize": "bac tu liem ha noi", "preWardNormalize": "phuong thuy phuong bac tu liem ha noi", "lat": 21.0821204259797, "lon": 105.771768325968, "geolocation": {"latitude": 21.0821204259797, "longitude": 105.771768325968}}, {"district": "Bắc Từ Liêm", "ward": "Thụy Phương", "street": "Thụy Phương", "city": "Hà Nội", "normalize": "thuy phuong thuy phuong bac tu liem ha noi", "streetNormalize": "thuy phuong thuy phuong bac tu liem ha noi", "wardNormalize": "thuy phuong bac tu liem ha noi", "districtNormalize": "bac tu liem ha noi", "preWardNormalize": "phuong thuy phuong bac tu liem ha noi", "lat": 21.0918031, "lon": 105.7775876, "geolocation": {"latitude": 21.0918031, "longitude": 105.7775876}}, {"district": "Bắc Từ Liêm", "ward": "Thụy Phương", "street": "Tân Nhuệ", "city": "Hà Nội", "normalize": "tan nhue thuy phuong bac tu liem ha noi", "streetNormalize": "tan nhue thuy phuong bac tu liem ha noi", "wardNormalize": "thuy phuong bac tu liem ha noi", "districtNormalize": "bac tu liem ha noi", "preWardNormalize": "phuong thuy phuong bac tu liem ha noi", "lat": 21.086393, "lon": 105.771402, "geolocation": {"latitude": 21.086393, "longitude": 105.771402}}, {"district": "Bắc Từ Liêm", "ward": "Thụy Phương", "street": "Tân Phong", "city": "Hà Nội", "normalize": "tan phong thuy phuong bac tu liem ha noi", "streetNormalize": "tan phong thuy phuong bac tu liem ha noi", "wardNormalize": "thuy phuong bac tu liem ha noi", "districtNormalize": "bac tu liem ha noi", "preWardNormalize": "phuong thuy phuong bac tu liem ha noi", "lat": 21.081629, "lon": 105.768853, "geolocation": {"latitude": 21.081629, "longitude": 105.768853}}, {"district": "Bắc Từ Liêm", "ward": "Thụy Phương", "street": "Đông Ngạc", "city": "Hà Nội", "normalize": "dong ngac thuy phuong bac tu liem ha noi", "streetNormalize": "dong ngac thuy phuong bac tu liem ha noi", "wardNormalize": "thuy phuong bac tu liem ha noi", "districtNormalize": "bac tu liem ha noi", "preWardNormalize": "phuong thuy phuong bac tu liem ha noi", "lat": 21.093938, "lon": 105.777619, "geolocation": {"latitude": 21.093938, "longitude": 105.777619}}, {"district": "Bắc Từ Liêm", "ward": "Xuân Đỉnh", "street": "Hoàng Tăng Bí", "city": "Hà Nội", "normalize": "hoang tang bi xuan dinh bac tu liem ha noi", "streetNormalize": "hoang tang bi xuan dinh bac tu liem ha noi", "wardNormalize": "xuan dinh bac tu liem ha noi", "districtNormalize": "bac tu liem ha noi", "preWardNormalize": "phuong xuan dinh bac tu liem ha noi", "lat": 21.0819045, "lon": 105.7841031, "geolocation": {"latitude": 21.0819045, "longitude": 105.7841031}}, {"district": "Bắc Từ Liêm", "ward": "Xuân Đỉnh", "street": "Nguyễn Hoàng Tôn", "city": "Hà Nội", "normalize": "nguyen hoang ton xuan dinh bac tu liem ha noi", "streetNormalize": "nguyen hoang ton xuan dinh bac tu liem ha noi", "wardNormalize": "xuan dinh bac tu liem ha noi", "districtNormalize": "bac tu liem ha noi", "preWardNormalize": "phuong xuan dinh bac tu liem ha noi", "lat": 21.076366, "lon": 105.793308, "geolocation": {"latitude": 21.076366, "longitude": 105.793308}}, {"district": "Bắc Từ Liêm", "ward": "Xuân Đỉnh", "street": "Nguyễn Văn Huyên", "city": "Hà Nội", "normalize": "nguyen van huyen xuan dinh bac tu liem ha noi", "streetNormalize": "nguyen van huyen xuan dinh bac tu liem ha noi", "wardNormalize": "xuan dinh bac tu liem ha noi", "districtNormalize": "bac tu liem ha noi", "preWardNormalize": "phuong xuan dinh bac tu liem ha noi", "lat": 21.067419, "lon": 105.797733, "geolocation": {"latitude": 21.067419, "longitude": 105.797733}}, {"district": "Bắc Từ Liêm", "ward": "Xuân Đỉnh", "street": "Nguyễn Đình Tứ", "city": "Hà Nội", "normalize": "nguyen dinh tu xuan dinh bac tu liem ha noi", "streetNormalize": "nguyen dinh tu xuan dinh bac tu liem ha noi", "wardNormalize": "xuan dinh bac tu liem ha noi", "districtNormalize": "bac tu liem ha noi", "preWardNormalize": "phuong xuan dinh bac tu liem ha noi", "lat": 21.0746035, "lon": 105.7842981, "geolocation": {"latitude": 21.0746035, "longitude": 105.7842981}}, {"district": "Bắc Từ Liêm", "ward": "Xuân Đỉnh", "street": "Phạm Văn Đồng", "city": "Hà Nội", "normalize": "pham van dong xuan dinh bac tu liem ha noi", "streetNormalize": "pham van dong xuan dinh bac tu liem ha noi", "wardNormalize": "xuan dinh bac tu liem ha noi", "districtNormalize": "bac tu liem ha noi", "preWardNormalize": "phuong xuan dinh bac tu liem ha noi", "lat": 21.078745, "lon": 105.787833, "geolocation": {"latitude": 21.078745, "longitude": 105.787833}}, {"district": "Bắc Từ Liêm", "ward": "Xuân Đỉnh", "street": "Phố Lộc", "city": "Hà Nội", "normalize": "pho loc xuan dinh bac tu liem ha noi", "streetNormalize": "pho loc xuan dinh bac tu liem ha noi", "wardNormalize": "xuan dinh bac tu liem ha noi", "districtNormalize": "bac tu liem ha noi", "preWardNormalize": "phuong xuan dinh bac tu liem ha noi", "lat": 21.0667853, "lon": 105.7891384, "geolocation": {"latitude": 21.0667853, "longitude": 105.7891384}}, {"district": "Bắc Từ Liêm", "ward": "Xuân Đỉnh", "street": "Pineapple Lane", "city": "Hà Nội", "normalize": "pineapple lane xuan dinh bac tu liem ha noi", "streetNormalize": "pineapple lane xuan dinh bac tu liem ha noi", "wardNormalize": "xuan dinh bac tu liem ha noi", "districtNormalize": "bac tu liem ha noi", "preWardNormalize": "phuong xuan dinh bac tu liem ha noi", "lat": 21.07688, "lon": 105.796203, "geolocation": {"latitude": 21.07688, "longitude": 105.796203}}, {"district": "Bắc Từ Liêm", "ward": "Xuân Đỉnh", "street": "Pomelo Lane", "city": "Hà Nội", "normalize": "pomelo lane xuan dinh bac tu liem ha noi", "streetNormalize": "pomelo lane xuan dinh bac tu liem ha noi", "wardNormalize": "xuan dinh bac tu liem ha noi", "districtNormalize": "bac tu liem ha noi", "preWardNormalize": "phuong xuan dinh bac tu liem ha noi", "lat": 21.076145, "lon": 105.79909, "geolocation": {"latitude": 21.076145, "longitude": 105.79909}}, {"district": "Bắc Từ Liêm", "ward": "Xuân Đỉnh", "street": "Tân Xuân", "city": "Hà Nội", "normalize": "tan xuan xuan dinh bac tu liem ha noi", "streetNormalize": "tan xuan xuan dinh bac tu liem ha noi", "wardNormalize": "xuan dinh bac tu liem ha noi", "districtNormalize": "bac tu liem ha noi", "preWardNormalize": "phuong xuan dinh bac tu liem ha noi", "lat": 21.0811164, "lon": 105.7853679, "geolocation": {"latitude": 21.0811164, "longitude": 105.7853679}}, {"district": "Bắc Từ Liêm", "ward": "Xuân Đỉnh", "street": "Xuân Đỉnh", "city": "Hà Nội", "normalize": "xuan dinh xuan dinh bac tu liem ha noi", "streetNormalize": "xuan dinh xuan dinh bac tu liem ha noi", "wardNormalize": "xuan dinh bac tu liem ha noi", "districtNormalize": "bac tu liem ha noi", "preWardNormalize": "phuong xuan dinh bac tu liem ha noi", "lat": 21.071322, "lon": 105.793428, "geolocation": {"latitude": 21.071322, "longitude": 105.793428}}, {"district": "Bắc Từ Liêm", "ward": "Xuân Đỉnh", "street": "Đỗ Nhuận", "city": "Hà Nội", "normalize": "do nhuan xuan dinh bac tu liem ha noi", "streetNormalize": "do nhuan xuan dinh bac tu liem ha noi", "wardNormalize": "xuan dinh bac tu liem ha noi", "districtNormalize": "bac tu liem ha noi", "preWardNormalize": "phuong xuan dinh bac tu liem ha noi", "lat": 21.065201, "lon": 105.789889, "geolocation": {"latitude": 21.065201, "longitude": 105.789889}}, {"district": "Bắc Từ Liêm", "ward": "Xuân Tảo", "street": "Nguyễn Văn Huyên", "city": "Hà Nội", "normalize": "nguyen van huyen xuan tao bac tu liem ha noi", "streetNormalize": "nguyen van huyen xuan tao bac tu liem ha noi", "wardNormalize": "xuan tao bac tu liem ha noi", "districtNormalize": "bac tu liem ha noi", "preWardNormalize": "phuong xuan tao bac tu liem ha noi", "lat": 21.062939, "lon": 105.797736, "geolocation": {"latitude": 21.062939, "longitude": 105.797736}}, {"district": "Bắc Từ Liêm", "ward": "Xuân Tảo", "street": "Nguyễn Xuân Khoát", "city": "Hà Nội", "normalize": "nguyen xuan khoat xuan tao bac tu liem ha noi", "streetNormalize": "nguyen xuan khoat xuan tao bac tu liem ha noi", "wardNormalize": "xuan tao bac tu liem ha noi", "districtNormalize": "bac tu liem ha noi", "preWardNormalize": "phuong xuan tao bac tu liem ha noi", "lat": 21.0673499, "lon": 105.7975807, "geolocation": {"latitude": 21.0673499, "longitude": 105.7975807}}, {"district": "Bắc Từ Liêm", "ward": "Xuân Tảo", "street": "Phạm Văn Đồng", "city": "Hà Nội", "normalize": "pham van dong xuan tao bac tu liem ha noi", "streetNormalize": "pham van dong xuan tao bac tu liem ha noi", "wardNormalize": "xuan tao bac tu liem ha noi", "districtNormalize": "bac tu liem ha noi", "preWardNormalize": "phuong xuan tao bac tu liem ha noi", "lat": 21.0661697, "lon": 105.7849009, "geolocation": {"latitude": 21.0661697, "longitude": 105.7849009}}, {"district": "Bắc Từ Liêm", "ward": "Xuân Tảo", "street": "Xuân La", "city": "Hà Nội", "normalize": "xuan la xuan tao bac tu liem ha noi", "streetNormalize": "xuan la xuan tao bac tu liem ha noi", "wardNormalize": "xuan tao bac tu liem ha noi", "districtNormalize": "bac tu liem ha noi", "preWardNormalize": "phuong xuan tao bac tu liem ha noi", "lat": 21.067521, "lon": 105.803723, "geolocation": {"latitude": 21.067521, "longitude": 105.803723}}, {"district": "Bắc Từ Liêm", "ward": "Xuân Tảo", "street": "Xuân Đỉnh", "city": "Hà Nội", "normalize": "xuan dinh xuan tao bac tu liem ha noi", "streetNormalize": "xuan dinh xuan tao bac tu liem ha noi", "wardNormalize": "xuan tao bac tu liem ha noi", "districtNormalize": "bac tu liem ha noi", "preWardNormalize": "phuong xuan tao bac tu liem ha noi", "lat": 21.070013, "lon": 105.801698, "geolocation": {"latitude": 21.070013, "longitude": 105.801698}}, {"district": "Bắc Từ Liêm", "ward": "Xuân Tảo", "street": "Đỗ Nhuận", "city": "Hà Nội", "normalize": "do nhuan xuan tao bac tu liem ha noi", "streetNormalize": "do nhuan xuan tao bac tu liem ha noi", "wardNormalize": "xuan tao bac tu liem ha noi", "districtNormalize": "bac tu liem ha noi", "preWardNormalize": "phuong xuan tao bac tu liem ha noi", "lat": 21.065201, "lon": 105.789889, "geolocation": {"latitude": 21.065201, "longitude": 105.789889}}]}