{"data": [{"district": "Gia Lâm", "ward": "Bát Tràng", "street": "Bát Tràng", "city": "Hà Nội", "normalize": "bat trang bat trang gia lam ha noi", "streetNormalize": "bat trang bat trang gia lam ha noi", "wardNormalize": "bat trang gia lam ha noi", "districtNormalize": "gia lam ha noi", "preWardNormalize": "xa bat trang gia lam ha noi", "lat": 20.9748395, "lon": 105.9116864, "geolocation": {"latitude": 20.9748395, "longitude": 105.9116864}}, {"district": "Gia Lâm", "ward": "Bát Tràng", "street": "Giang Cao", "city": "Hà Nội", "normalize": "giang cao bat trang gia lam ha noi", "streetNormalize": "giang cao bat trang gia lam ha noi", "wardNormalize": "bat trang gia lam ha noi", "districtNormalize": "gia lam ha noi", "preWardNormalize": "xa bat trang gia lam ha noi", "lat": 20.978375, "lon": 105.9159261, "geolocation": {"latitude": 20.978375, "longitude": 105.9159261}}, {"district": "Gia Lâm", "ward": "Bát Tràng", "street": "Xuân Quan Long Biên", "city": "Hà Nội", "normalize": "xuan quan long bien bat trang gia lam ha noi", "streetNormalize": "xuan quan long bien bat trang gia lam ha noi", "wardNormalize": "bat trang gia lam ha noi", "districtNormalize": "gia lam ha noi", "preWardNormalize": "xa bat trang gia lam ha noi", "lat": 20.977477, "lon": 105.920023, "geolocation": {"latitude": 20.977477, "longitude": 105.920023}}, {"district": "Gia Lâm", "ward": "Cổ Bi", "street": "Cổ Bi", "city": "Hà Nội", "normalize": "co bi co bi gia lam ha noi", "streetNormalize": "co bi co bi gia lam ha noi", "wardNormalize": "co bi gia lam ha noi", "districtNormalize": "gia lam ha noi", "preWardNormalize": "xa co bi gia lam ha noi", "lat": 21.027842, "lon": 105.940697, "geolocation": {"latitude": 21.027842, "longitude": 105.940697}}, {"district": "Gia Lâm", "ward": "Cổ Bi", "street": "Hà Nội Bắc Giang", "city": "Hà Nội", "normalize": "ha noi bac giang co bi gia lam ha noi", "streetNormalize": "ha noi bac giang co bi gia lam ha noi", "wardNormalize": "co bi gia lam ha noi", "districtNormalize": "gia lam ha noi", "preWardNormalize": "xa co bi gia lam ha noi", "lat": 21.063079, "lon": 105.9543602, "geolocation": {"latitude": 21.063079, "longitude": 105.9543602}}, {"district": "Gia Lâm", "ward": "Cổ Bi", "street": "Nguyễn Văn Linh", "city": "Hà Nội", "normalize": "nguyen van linh co bi gia lam ha noi", "streetNormalize": "nguyen van linh co bi gia lam ha noi", "wardNormalize": "co bi gia lam ha noi", "districtNormalize": "gia lam ha noi", "preWardNormalize": "xa co bi gia lam ha noi", "lat": 21.0253192, "lon": 105.9281871, "geolocation": {"latitude": 21.0253192, "longitude": 105.9281871}}, {"district": "Gia Lâm", "ward": "Cổ Bi", "street": "Quốc Lộ 5", "city": "Hà Nội", "normalize": "quoc lo 5 co bi gia lam ha noi", "streetNormalize": "quoc lo 5 co bi gia lam ha noi", "wardNormalize": "co bi gia lam ha noi", "districtNormalize": "gia lam ha noi", "preWardNormalize": "xa co bi gia lam ha noi", "lat": 21.0093565, "lon": 105.9549106, "geolocation": {"latitude": 21.0093565, "longitude": 105.9549106}}, {"district": "Gia Lâm", "ward": "Cổ Bi", "street": "Đê Vàng", "city": "Hà Nội", "normalize": "de vang co bi gia lam ha noi", "streetNormalize": "de vang co bi gia lam ha noi", "wardNormalize": "co bi gia lam ha noi", "districtNormalize": "gia lam ha noi", "preWardNormalize": "xa co bi gia lam ha noi", "lat": 21.0359858, "lon": 105.9653065, "geolocation": {"latitude": 21.0359858, "longitude": 105.9653065}}, {"district": "Gia Lâm", "ward": "Dương Hà", "street": "Dương Hà", "city": "Hà Nội", "normalize": "duong ha duong ha gia lam ha noi", "streetNormalize": "duong ha duong ha gia lam ha noi", "wardNormalize": "duong ha gia lam ha noi", "districtNormalize": "gia lam ha noi", "preWardNormalize": "xa duong ha gia lam ha noi", "lat": 21.0762152, "lon": 105.9325143, "geolocation": {"latitude": 21.0762152, "longitude": 105.9325143}}, {"district": "Gia Lâm", "ward": "Dương Hà", "street": "Đê Đuống", "city": "Hà Nội", "normalize": "de duong duong ha gia lam ha noi", "streetNormalize": "de duong duong ha gia lam ha noi", "wardNormalize": "duong ha gia lam ha noi", "districtNormalize": "gia lam ha noi", "preWardNormalize": "xa duong ha gia lam ha noi", "lat": 21.0727826, "lon": 105.9262112, "geolocation": {"latitude": 21.0727826, "longitude": 105.9262112}}, {"district": "Gia Lâm", "ward": "Dương Quang", "street": "Dương Xá", "city": "Hà Nội", "normalize": "duong xa duong quang gia lam ha noi", "streetNormalize": "duong xa duong quang gia lam ha noi", "wardNormalize": "duong quang gia lam ha noi", "districtNormalize": "gia lam ha noi", "preWardNormalize": "xa duong quang gia lam ha noi", "lat": 21.0083737, "lon": 105.9739877, "geolocation": {"latitude": 21.0083737, "longitude": 105.9739877}}, {"district": "Gia Lâm", "ward": "Dương Xá", "street": "Dương Xá", "city": "Hà Nội", "normalize": "duong xa duong xa gia lam ha noi", "streetNormalize": "duong xa duong xa gia lam ha noi", "wardNormalize": "duong xa gia lam ha noi", "districtNormalize": "gia lam ha noi", "preWardNormalize": "xa duong xa gia lam ha noi", "lat": 21.0087543, "lon": 105.9681083, "geolocation": {"latitude": 21.0087543, "longitude": 105.9681083}}, {"district": "Gia Lâm", "ward": "Dương Xá", "street": "Kiêu Kỵ", "city": "Hà Nội", "normalize": "kieu ky duong xa gia lam ha noi", "streetNormalize": "kieu ky duong xa gia lam ha noi", "wardNormalize": "duong xa gia lam ha noi", "districtNormalize": "gia lam ha noi", "preWardNormalize": "xa duong xa gia lam ha noi", "lat": 20.9948961, "lon": 105.9635176, "geolocation": {"latitude": 20.9948961, "longitude": 105.9635176}}, {"district": "Gia Lâm", "ward": "Dương Xá", "street": "Lò Gạch Mới", "city": "Hà Nội", "normalize": "lo gach moi duong xa gia lam ha noi", "streetNormalize": "lo gach moi duong xa gia lam ha noi", "wardNormalize": "duong xa gia lam ha noi", "districtNormalize": "gia lam ha noi", "preWardNormalize": "xa duong xa gia lam ha noi", "lat": 21.0100714, "lon": 105.9603962, "geolocation": {"latitude": 21.0100714, "longitude": 105.9603962}}, {"district": "Gia Lâm", "ward": "Dương Xá", "street": "Nguyễn Bình", "city": "Hà Nội", "normalize": "nguyen binh duong xa gia lam ha noi", "streetNormalize": "nguyen binh duong xa gia lam ha noi", "wardNormalize": "duong xa gia lam ha noi", "districtNormalize": "gia lam ha noi", "preWardNormalize": "xa duong xa gia lam ha noi", "lat": 21.0023582, "lon": 105.9641888, "geolocation": {"latitude": 21.0023582, "longitude": 105.9641888}}, {"district": "Gia Lâm", "ward": "Dương Xá", "street": "Quốc Lộ 5", "city": "Hà Nội", "normalize": "quoc lo 5 duong xa gia lam ha noi", "streetNormalize": "quoc lo 5 duong xa gia lam ha noi", "wardNormalize": "duong xa gia lam ha noi", "districtNormalize": "gia lam ha noi", "preWardNormalize": "xa duong xa gia lam ha noi", "lat": 21.0013482, "lon": 105.9658278, "geolocation": {"latitude": 21.0013482, "longitude": 105.9658278}}, {"district": "Gia Lâm", "ward": "Dương Xá", "street": "Sao Biển 10", "city": "Hà Nội", "normalize": "sao bien 10 duong xa gia lam ha noi", "streetNormalize": "sao bien 10 duong xa gia lam ha noi", "wardNormalize": "duong xa gia lam ha noi", "districtNormalize": "gia lam ha noi", "preWardNormalize": "xa duong xa gia lam ha noi", "lat": 20.9962732, "lon": 105.9533119, "geolocation": {"latitude": 20.9962732, "longitude": 105.9533119}}, {"district": "Gia Lâm", "ward": "Dương Xá", "street": "Sao Biển 8", "city": "Hà Nội", "normalize": "sao bien 8 duong xa gia lam ha noi", "streetNormalize": "sao bien 8 duong xa gia lam ha noi", "wardNormalize": "duong xa gia lam ha noi", "districtNormalize": "gia lam ha noi", "preWardNormalize": "xa duong xa gia lam ha noi", "lat": 20.9966846, "lon": 105.953173, "geolocation": {"latitude": 20.9966846, "longitude": 105.953173}}, {"district": "Gia Lâm", "ward": "Dương Xá", "street": "Ỷ Lan", "city": "Hà Nội", "normalize": "y lan duong xa gia lam ha noi", "streetNormalize": "y lan duong xa gia lam ha noi", "wardNormalize": "duong xa gia lam ha noi", "districtNormalize": "gia lam ha noi", "preWardNormalize": "xa duong xa gia lam ha noi", "lat": 21.004526, "lon": 105.965802, "geolocation": {"latitude": 21.004526, "longitude": 105.965802}}, {"district": "Gia Lâm", "ward": "Đa Tốn", "street": "Chín Khúc", "city": "Hà Nội", "normalize": "chin khuc da ton gia lam ha noi", "streetNormalize": "chin khuc da ton gia lam ha noi", "wardNormalize": "da ton gia lam ha noi", "districtNormalize": "gia lam ha noi", "preWardNormalize": "xa da ton gia lam ha noi", "lat": 20.9805053, "lon": 105.9290647, "geolocation": {"latitude": 20.9805053, "longitude": 105.9290647}}, {"district": "Gia Lâm", "ward": "Đa Tốn", "street": "Chùa Cự Đà", "city": "Hà Nội", "normalize": "chua cu da da ton gia lam ha noi", "streetNormalize": "chua cu da da ton gia lam ha noi", "wardNormalize": "da ton gia lam ha noi", "districtNormalize": "gia lam ha noi", "preWardNormalize": "xa da ton gia lam ha noi", "lat": 20.9835104, "lon": 105.9300665, "geolocation": {"latitude": 20.9835104, "longitude": 105.9300665}}, {"district": "Gia Lâm", "ward": "Đa Tốn", "street": "Chợ Bún", "city": "Hà Nội", "normalize": "cho bun da ton gia lam ha noi", "streetNormalize": "cho bun da ton gia lam ha noi", "wardNormalize": "da ton gia lam ha noi", "districtNormalize": "gia lam ha noi", "preWardNormalize": "xa da ton gia lam ha noi", "lat": 20.9853162, "lon": 105.9292858, "geolocation": {"latitude": 20.9853162, "longitude": 105.9292858}}, {"district": "Gia Lâm", "ward": "Đa Tốn", "street": "Cổng Cái", "city": "Hà Nội", "normalize": "cong cai da ton gia lam ha noi", "streetNormalize": "cong cai da ton gia lam ha noi", "wardNormalize": "da ton gia lam ha noi", "districtNormalize": "gia lam ha noi", "preWardNormalize": "xa da ton gia lam ha noi", "lat": 20.9787876, "lon": 105.9328384, "geolocation": {"latitude": 20.9787876, "longitude": 105.9328384}}, {"district": "Gia Lâm", "ward": "Đa Tốn", "street": "Giáp Hải", "city": "Hà Nội", "normalize": "giap hai da ton gia lam ha noi", "streetNormalize": "giap hai da ton gia lam ha noi", "wardNormalize": "da ton gia lam ha noi", "districtNormalize": "gia lam ha noi", "preWardNormalize": "xa da ton gia lam ha noi", "lat": 20.978958, "lon": 105.927212, "geolocation": {"latitude": 20.978958, "longitude": 105.927212}}, {"district": "Gia Lâm", "ward": "Đa Tốn", "street": "Hà Nội Hải Phòng", "city": "Hà Nội", "normalize": "ha noi hai phong da ton gia lam ha noi", "streetNormalize": "ha noi hai phong da ton gia lam ha noi", "wardNormalize": "da ton gia lam ha noi", "districtNormalize": "gia lam ha noi", "preWardNormalize": "xa da ton gia lam ha noi", "lat": 20.9908638, "lon": 105.937799, "geolocation": {"latitude": 20.9908638, "longitude": 105.937799}}, {"district": "Gia Lâm", "ward": "Đa Tốn", "street": "Hải Đăng 2", "city": "Hà Nội", "normalize": "hai dang 2 da ton gia lam ha noi", "streetNormalize": "hai dang 2 da ton gia lam ha noi", "wardNormalize": "da ton gia lam ha noi", "districtNormalize": "gia lam ha noi", "preWardNormalize": "xa da ton gia lam ha noi", "lat": 20.9960512, "lon": 105.9425548, "geolocation": {"latitude": 20.9960512, "longitude": 105.9425548}}, {"district": "Gia Lâm", "ward": "Đa Tốn", "street": "Lê Xá", "city": "Hà Nội", "normalize": "le xa da ton gia lam ha noi", "streetNormalize": "le xa da ton gia lam ha noi", "wardNormalize": "da ton gia lam ha noi", "districtNormalize": "gia lam ha noi", "preWardNormalize": "xa da ton gia lam ha noi", "lat": 20.9871054, "lon": 105.9361341, "geolocation": {"latitude": 20.9871054, "longitude": 105.9361341}}, {"district": "Gia Lâm", "ward": "Đa Tốn", "street": "Lý Thánh Tông", "city": "Hà Nội", "normalize": "ly thanh tong da ton gia lam ha noi", "streetNormalize": "ly thanh tong da ton gia lam ha noi", "wardNormalize": "da ton gia lam ha noi", "districtNormalize": "gia lam ha noi", "preWardNormalize": "xa da ton gia lam ha noi", "lat": 20.9976096, "lon": 105.9335663, "geolocation": {"latitude": 20.9976096, "longitude": 105.9335663}}, {"district": "Gia Lâm", "ward": "Đa Tốn", "street": "Ngõ Thùa", "city": "Hà Nội", "normalize": "ngo thua da ton gia lam ha noi", "streetNormalize": "ngo thua da ton gia lam ha noi", "wardNormalize": "da ton gia lam ha noi", "districtNormalize": "gia lam ha noi", "preWardNormalize": "xa da ton gia lam ha noi", "lat": 20.9797284, "lon": 105.9278756, "geolocation": {"latitude": 20.9797284, "longitude": 105.9278756}}, {"district": "Gia Lâm", "ward": "Đa Tốn", "street": "San Hô", "city": "Hà Nội", "normalize": "san ho da ton gia lam ha noi", "streetNormalize": "san ho da ton gia lam ha noi", "wardNormalize": "da ton gia lam ha noi", "districtNormalize": "gia lam ha noi", "preWardNormalize": "xa da ton gia lam ha noi", "lat": 20.9918852, "lon": 105.9485673, "geolocation": {"latitude": 20.9918852, "longitude": 105.9485673}}, {"district": "Gia Lâm", "ward": "Đa Tốn", "street": "San Hô 1", "city": "Hà Nội", "normalize": "san ho 1 da ton gia lam ha noi", "streetNormalize": "san ho 1 da ton gia lam ha noi", "wardNormalize": "da ton gia lam ha noi", "districtNormalize": "gia lam ha noi", "preWardNormalize": "xa da ton gia lam ha noi", "lat": 20.9902563, "lon": 105.9500557, "geolocation": {"latitude": 20.9902563, "longitude": 105.9500557}}, {"district": "Gia Lâm", "ward": "Đa Tốn", "street": "San Hô 11", "city": "Hà Nội", "normalize": "san ho 11 da ton gia lam ha noi", "streetNormalize": "san ho 11 da ton gia lam ha noi", "wardNormalize": "da ton gia lam ha noi", "districtNormalize": "gia lam ha noi", "preWardNormalize": "xa da ton gia lam ha noi", "lat": 20.9918781, "lon": 105.9468351, "geolocation": {"latitude": 20.9918781, "longitude": 105.9468351}}, {"district": "Gia Lâm", "ward": "Đa Tốn", "street": "San Hô 12", "city": "Hà Nội", "normalize": "san ho 12 da ton gia lam ha noi", "streetNormalize": "san ho 12 da ton gia lam ha noi", "wardNormalize": "da ton gia lam ha noi", "districtNormalize": "gia lam ha noi", "preWardNormalize": "xa da ton gia lam ha noi", "lat": 20.9922174, "lon": 105.9465481, "geolocation": {"latitude": 20.9922174, "longitude": 105.9465481}}, {"district": "Gia Lâm", "ward": "Đa Tốn", "street": "San Hô 15", "city": "Hà Nội", "normalize": "san ho 15 da ton gia lam ha noi", "streetNormalize": "san ho 15 da ton gia lam ha noi", "wardNormalize": "da ton gia lam ha noi", "districtNormalize": "gia lam ha noi", "preWardNormalize": "xa da ton gia lam ha noi", "lat": 20.9924703, "lon": 105.9462316, "geolocation": {"latitude": 20.9924703, "longitude": 105.9462316}}, {"district": "Gia Lâm", "ward": "Đa Tốn", "street": "San Hô 16", "city": "Hà Nội", "normalize": "san ho 16 da ton gia lam ha noi", "streetNormalize": "san ho 16 da ton gia lam ha noi", "wardNormalize": "da ton gia lam ha noi", "districtNormalize": "gia lam ha noi", "preWardNormalize": "xa da ton gia lam ha noi", "lat": 20.992672, "lon": 105.9458951, "geolocation": {"latitude": 20.992672, "longitude": 105.9458951}}, {"district": "Gia Lâm", "ward": "Đa Tốn", "street": "San Hô 8", "city": "Hà Nội", "normalize": "san ho 8 da ton gia lam ha noi", "streetNormalize": "san ho 8 da ton gia lam ha noi", "wardNormalize": "da ton gia lam ha noi", "districtNormalize": "gia lam ha noi", "preWardNormalize": "xa da ton gia lam ha noi", "lat": 20.991298, "lon": 105.94791, "geolocation": {"latitude": 20.991298, "longitude": 105.94791}}, {"district": "Gia Lâm", "ward": "Đa Tốn", "street": "Xuân Quan Long Biên", "city": "Hà Nội", "normalize": "xuan quan long bien da ton gia lam ha noi", "streetNormalize": "xuan quan long bien da ton gia lam ha noi", "wardNormalize": "da ton gia lam ha noi", "districtNormalize": "gia lam ha noi", "preWardNormalize": "xa da ton gia lam ha noi", "lat": 20.9846476, "lon": 105.9194257, "geolocation": {"latitude": 20.9846476, "longitude": 105.9194257}}, {"district": "Gia Lâm", "ward": "Đa Tốn", "street": "Xóm Xúc", "city": "Hà Nội", "normalize": "xom xuc da ton gia lam ha noi", "streetNormalize": "xom xuc da ton gia lam ha noi", "wardNormalize": "da ton gia lam ha noi", "districtNormalize": "gia lam ha noi", "preWardNormalize": "xa da ton gia lam ha noi", "lat": 20.980615, "lon": 105.9281847, "geolocation": {"latitude": 20.980615, "longitude": 105.9281847}}, {"district": "Gia Lâm", "ward": "Đa Tốn", "street": "Xóm Đá", "city": "Hà Nội", "normalize": "xom da da ton gia lam ha noi", "streetNormalize": "xom da da ton gia lam ha noi", "wardNormalize": "da ton gia lam ha noi", "districtNormalize": "gia lam ha noi", "preWardNormalize": "xa da ton gia lam ha noi", "lat": 20.984024, "lon": 105.9304927, "geolocation": {"latitude": 20.984024, "longitude": 105.9304927}}, {"district": "Gia Lâm", "ward": "Đa Tốn", "street": "Đa Tốn", "city": "Hà Nội", "normalize": "da ton da ton gia lam ha noi", "streetNormalize": "da ton da ton gia lam ha noi", "wardNormalize": "da ton gia lam ha noi", "districtNormalize": "gia lam ha noi", "preWardNormalize": "xa da ton gia lam ha noi", "lat": 20.9860864, "lon": 105.9294967, "geolocation": {"latitude": 20.9860864, "longitude": 105.9294967}}, {"district": "Gia Lâm", "ward": "Đa Tốn", "street": "Đào Xuyên", "city": "Hà Nội", "normalize": "dao xuyen da ton gia lam ha noi", "streetNormalize": "dao xuyen da ton gia lam ha noi", "wardNormalize": "da ton gia lam ha noi", "districtNormalize": "gia lam ha noi", "preWardNormalize": "xa da ton gia lam ha noi", "lat": 20.989742, "lon": 105.931202, "geolocation": {"latitude": 20.989742, "longitude": 105.931202}}, {"district": "Gia Lâm", "ward": "Đa Tốn", "street": "Đại Dương 1", "city": "Hà Nội", "normalize": "dai duong 1 da ton gia lam ha noi", "streetNormalize": "dai duong 1 da ton gia lam ha noi", "wardNormalize": "da ton gia lam ha noi", "districtNormalize": "gia lam ha noi", "preWardNormalize": "xa da ton gia lam ha noi", "lat": 20.9920971, "lon": 105.9422252, "geolocation": {"latitude": 20.9920971, "longitude": 105.9422252}}, {"district": "Gia Lâm", "ward": "Đa Tốn", "street": "Đại Dương 2", "city": "Hà Nội", "normalize": "dai duong 2 da ton gia lam ha noi", "streetNormalize": "dai duong 2 da ton gia lam ha noi", "wardNormalize": "da ton gia lam ha noi", "districtNormalize": "gia lam ha noi", "preWardNormalize": "xa da ton gia lam ha noi", "lat": 20.9930327, "lon": 105.9400586, "geolocation": {"latitude": 20.9930327, "longitude": 105.9400586}}, {"district": "Gia Lâm", "ward": "Đa Tốn", "street": "Đại Dương 8", "city": "Hà Nội", "normalize": "dai duong 8 da ton gia lam ha noi", "streetNormalize": "dai duong 8 da ton gia lam ha noi", "wardNormalize": "da ton gia lam ha noi", "districtNormalize": "gia lam ha noi", "preWardNormalize": "xa da ton gia lam ha noi", "lat": 20.9916171, "lon": 105.9405501, "geolocation": {"latitude": 20.9916171, "longitude": 105.9405501}}, {"district": "Gia Lâm", "ward": "Đa Tốn", "street": "Đại Dương 9", "city": "Hà Nội", "normalize": "dai duong 9 da ton gia lam ha noi", "streetNormalize": "dai duong 9 da ton gia lam ha noi", "wardNormalize": "da ton gia lam ha noi", "districtNormalize": "gia lam ha noi", "preWardNormalize": "xa da ton gia lam ha noi", "lat": 20.9925469, "lon": 105.9411208, "geolocation": {"latitude": 20.9925469, "longitude": 105.9411208}}, {"district": "Gia Lâm", "ward": "Đặng Xá", "street": "Quốc Lộ 17", "city": "Hà Nội", "normalize": "quoc lo 17 dang xa gia lam ha noi", "streetNormalize": "quoc lo 17 dang xa gia lam ha noi", "wardNormalize": "dang xa gia lam ha noi", "districtNormalize": "gia lam ha noi", "preWardNormalize": "xa dang xa gia lam ha noi", "lat": 21.0213764, "lon": 105.9686513, "geolocation": {"latitude": 21.0213764, "longitude": 105.9686513}}, {"district": "Gia Lâm", "ward": "Đặng Xá", "street": "Đê Vàng", "city": "Hà Nội", "normalize": "de vang dang xa gia lam ha noi", "streetNormalize": "de vang dang xa gia lam ha noi", "wardNormalize": "dang xa gia lam ha noi", "districtNormalize": "gia lam ha noi", "preWardNormalize": "xa dang xa gia lam ha noi", "lat": 21.037915, "lon": 105.9577551, "geolocation": {"latitude": 21.037915, "longitude": 105.9577551}}, {"district": "Gia Lâm", "ward": "Đặng Xá", "street": "Đường ĐX10", "city": "Hà Nội", "normalize": "duong dx10 dang xa gia lam ha noi", "streetNormalize": "duong dx10 dang xa gia lam ha noi", "wardNormalize": "dang xa gia lam ha noi", "districtNormalize": "gia lam ha noi", "preWardNormalize": "xa dang xa gia lam ha noi", "lat": 21.0146443, "lon": 105.9509665, "geolocation": {"latitude": 21.0146443, "longitude": 105.9509665}}, {"district": "Gia Lâm", "ward": "Đặng Xá", "street": "Đường ĐX3", "city": "Hà Nội", "normalize": "duong dx3 dang xa gia lam ha noi", "streetNormalize": "duong dx3 dang xa gia lam ha noi", "wardNormalize": "dang xa gia lam ha noi", "districtNormalize": "gia lam ha noi", "preWardNormalize": "xa dang xa gia lam ha noi", "lat": 21.0160583, "lon": 105.9512845, "geolocation": {"latitude": 21.0160583, "longitude": 105.9512845}}, {"district": "Gia Lâm", "ward": "Đặng Xá", "street": "Ỷ Lan", "city": "Hà Nội", "normalize": "y lan dang xa gia lam ha noi", "streetNormalize": "y lan dang xa gia lam ha noi", "wardNormalize": "dang xa gia lam ha noi", "districtNormalize": "gia lam ha noi", "preWardNormalize": "xa dang xa gia lam ha noi", "lat": 21.0116485, "lon": 105.9662353, "geolocation": {"latitude": 21.0116485, "longitude": 105.9662353}}, {"district": "Gia Lâm", "ward": "Đình Xuyên", "street": "Dương Hà", "city": "Hà Nội", "normalize": "duong ha dinh xuyen gia lam ha noi", "streetNormalize": "duong ha dinh xuyen gia lam ha noi", "wardNormalize": "dinh xuyen gia lam ha noi", "districtNormalize": "gia lam ha noi", "preWardNormalize": "xa dinh xuyen gia lam ha noi", "lat": 21.0762152, "lon": 105.9325143, "geolocation": {"latitude": 21.0762152, "longitude": 105.9325143}}, {"district": "Gia Lâm", "ward": "Đình Xuyên", "street": "Đình Xuyên", "city": "Hà Nội", "normalize": "dinh xuyen dinh xuyen gia lam ha noi", "streetNormalize": "dinh xuyen dinh xuyen gia lam ha noi", "wardNormalize": "dinh xuyen gia lam ha noi", "districtNormalize": "gia lam ha noi", "preWardNormalize": "xa dinh xuyen gia lam ha noi", "lat": 21.08936, "lon": 105.928901, "geolocation": {"latitude": 21.08936, "longitude": 105.928901}}, {"district": "Gia Lâm", "ward": "Đông Dư", "street": "Bát Khối", "city": "Hà Nội", "normalize": "bat khoi dong du gia lam ha noi", "streetNormalize": "bat khoi dong du gia lam ha noi", "wardNormalize": "dong du gia lam ha noi", "districtNormalize": "gia lam ha noi", "preWardNormalize": "xa dong du gia lam ha noi", "lat": 21.0035413, "lon": 105.9092817, "geolocation": {"latitude": 21.0035413, "longitude": 105.9092817}}, {"district": "Gia Lâm", "ward": "Đông Dư", "street": "Giáp Hải", "city": "Hà Nội", "normalize": "giap hai dong du gia lam ha noi", "streetNormalize": "giap hai dong du gia lam ha noi", "wardNormalize": "dong du gia lam ha noi", "districtNormalize": "gia lam ha noi", "preWardNormalize": "xa dong du gia lam ha noi", "lat": 20.9989693, "lon": 105.9183761, "geolocation": {"latitude": 20.9989693, "longitude": 105.9183761}}, {"district": "Gia Lâm", "ward": "Đông Dư", "street": "Hà Nội Hải Phòng", "city": "Hà Nội", "normalize": "ha noi hai phong dong du gia lam ha noi", "streetNormalize": "ha noi hai phong dong du gia lam ha noi", "wardNormalize": "dong du gia lam ha noi", "districtNormalize": "gia lam ha noi", "preWardNormalize": "xa dong du gia lam ha noi", "lat": 21.0010267526239, "lon": 105.928256012556, "geolocation": {"latitude": 21.0010267526239, "longitude": 105.928256012556}}, {"district": "Gia Lâm", "ward": "Đông Dư", "street": "Lý Thánh Tông", "city": "Hà Nội", "normalize": "ly thanh tong dong du gia lam ha noi", "streetNormalize": "ly thanh tong dong du gia lam ha noi", "wardNormalize": "dong du gia lam ha noi", "districtNormalize": "gia lam ha noi", "preWardNormalize": "xa dong du gia lam ha noi", "lat": 20.9902373, "lon": 105.9200051, "geolocation": {"latitude": 20.9902373, "longitude": 105.9200051}}, {"district": "Gia Lâm", "ward": "Đông Dư", "street": "Xuân Quan Long Biên", "city": "Hà Nội", "normalize": "xuan quan long bien dong du gia lam ha noi", "streetNormalize": "xuan quan long bien dong du gia lam ha noi", "wardNormalize": "dong du gia lam ha noi", "districtNormalize": "gia lam ha noi", "preWardNormalize": "xa dong du gia lam ha noi", "lat": 20.9947793, "lon": 105.9118865, "geolocation": {"latitude": 20.9947793, "longitude": 105.9118865}}, {"district": "Gia Lâm", "ward": "Kiêu Kỵ", "street": "Hà Nội Hải Phòng", "city": "Hà Nội", "normalize": "ha noi hai phong kieu ky gia lam ha noi", "streetNormalize": "ha noi hai phong kieu ky gia lam ha noi", "wardNormalize": "kieu ky gia lam ha noi", "districtNormalize": "gia lam ha noi", "preWardNormalize": "xa kieu ky gia lam ha noi", "lat": 20.9760454, "lon": 105.9483874, "geolocation": {"latitude": 20.9760454, "longitude": 105.9483874}}, {"district": "Gia Lâm", "ward": "Kiêu Kỵ", "street": "Kiêu Kỵ", "city": "Hà Nội", "normalize": "kieu ky kieu ky gia lam ha noi", "streetNormalize": "kieu ky kieu ky gia lam ha noi", "wardNormalize": "kieu ky gia lam ha noi", "districtNormalize": "gia lam ha noi", "preWardNormalize": "xa kieu ky gia lam ha noi", "lat": 20.981528, "lon": 105.959474, "geolocation": {"latitude": 20.981528, "longitude": 105.959474}}, {"district": "Gia Lâm", "ward": "Kiêu Kỵ", "street": "San Hô 1", "city": "Hà Nội", "normalize": "san ho 1 kieu ky gia lam ha noi", "streetNormalize": "san ho 1 kieu ky gia lam ha noi", "wardNormalize": "kieu ky gia lam ha noi", "districtNormalize": "gia lam ha noi", "preWardNormalize": "xa kieu ky gia lam ha noi", "lat": 20.989475, "lon": 105.9495676, "geolocation": {"latitude": 20.989475, "longitude": 105.9495676}}, {"district": "Gia Lâm", "ward": "Kim Lan", "street": "Văn Đức Kim Lan", "city": "Hà Nội", "normalize": "van duc kim lan kim lan gia lam ha noi", "streetNormalize": "van duc kim lan kim lan gia lam ha noi", "wardNormalize": "kim lan gia lam ha noi", "districtNormalize": "gia lam ha noi", "preWardNormalize": "thi tran kim lan gia lam ha noi", "lat": 20.9492179, "lon": 105.9021658, "geolocation": {"latitude": 20.9492179, "longitude": 105.9021658}}, {"district": "Gia Lâm", "ward": "Kim Sơn", "street": "Ngõ Cả", "city": "Hà Nội", "normalize": "ngo ca kim son gia lam ha noi", "streetNormalize": "ngo ca kim son gia lam ha noi", "wardNormalize": "kim son gia lam ha noi", "districtNormalize": "gia lam ha noi", "preWardNormalize": "xa kim son gia lam ha noi", "lat": 21.0237042, "lon": 105.9978924, "geolocation": {"latitude": 21.0237042, "longitude": 105.9978924}}, {"district": "Gia Lâm", "ward": "Kim Sơn", "street": "Quốc Lộ 17", "city": "Hà Nội", "normalize": "quoc lo 17 kim son gia lam ha noi", "streetNormalize": "quoc lo 17 kim son gia lam ha noi", "wardNormalize": "kim son gia lam ha noi", "districtNormalize": "gia lam ha noi", "preWardNormalize": "xa kim son gia lam ha noi", "lat": 21.0258353, "lon": 105.9837015, "geolocation": {"latitude": 21.0258353, "longitude": 105.9837015}}, {"district": "Gia Lâm", "ward": "Kim Sơn", "street": "Đê Vàng", "city": "Hà Nội", "normalize": "de vang kim son gia lam ha noi", "streetNormalize": "de vang kim son gia lam ha noi", "wardNormalize": "kim son gia lam ha noi", "districtNormalize": "gia lam ha noi", "preWardNormalize": "xa kim son gia lam ha noi", "lat": 21.0303228, "lon": 105.9883152, "geolocation": {"latitude": 21.0303228, "longitude": 105.9883152}}, {"district": "Gia Lâm", "ward": "Lệ Chi", "street": "Quốc Lộ 17", "city": "Hà Nội", "normalize": "quoc lo 17 le chi gia lam ha noi", "streetNormalize": "quoc lo 17 le chi gia lam ha noi", "wardNormalize": "le chi gia lam ha noi", "districtNormalize": "gia lam ha noi", "preWardNormalize": "xa le chi gia lam ha noi", "lat": 21.0213764, "lon": 105.9686513, "geolocation": {"latitude": 21.0213764, "longitude": 105.9686513}}, {"district": "Gia Lâm", "ward": "Lệ Chi", "street": "Đê Vàng", "city": "Hà Nội", "normalize": "de vang le chi gia lam ha noi", "streetNormalize": "de vang le chi gia lam ha noi", "wardNormalize": "le chi gia lam ha noi", "districtNormalize": "gia lam ha noi", "preWardNormalize": "xa le chi gia lam ha noi", "lat": 21.0359858, "lon": 105.9653065, "geolocation": {"latitude": 21.0359858, "longitude": 105.9653065}}, {"district": "Gia Lâm", "ward": "Ninh Hiệp", "street": "Dương Hà", "city": "Hà Nội", "normalize": "duong ha ninh hiep gia lam ha noi", "streetNormalize": "duong ha ninh hiep gia lam ha noi", "wardNormalize": "ninh hiep gia lam ha noi", "districtNormalize": "gia lam ha noi", "preWardNormalize": "xa ninh hiep gia lam ha noi", "lat": 21.0762152, "lon": 105.9325143, "geolocation": {"latitude": 21.0762152, "longitude": 105.9325143}}, {"district": "Gia Lâm", "ward": "Ninh Hiệp", "street": "Hà Nội Bắc Giang", "city": "Hà Nội", "normalize": "ha noi bac giang ninh hiep gia lam ha noi", "streetNormalize": "ha noi bac giang ninh hiep gia lam ha noi", "wardNormalize": "ninh hiep gia lam ha noi", "districtNormalize": "gia lam ha noi", "preWardNormalize": "xa ninh hiep gia lam ha noi", "lat": 21.063079, "lon": 105.9543602, "geolocation": {"latitude": 21.063079, "longitude": 105.9543602}}, {"district": "Gia Lâm", "ward": "Ninh Hiệp", "street": "Hà Nội Thái Nguyên", "city": "Hà Nội", "normalize": "ha noi thai nguyen ninh hiep gia lam ha noi", "streetNormalize": "ha noi thai nguyen ninh hiep gia lam ha noi", "wardNormalize": "ninh hiep gia lam ha noi", "districtNormalize": "gia lam ha noi", "preWardNormalize": "xa ninh hiep gia lam ha noi", "lat": 21.098652, "lon": 105.934842, "geolocation": {"latitude": 21.098652, "longitude": 105.934842}}, {"district": "Gia Lâm", "ward": "Ninh Hiệp", "street": "Ninh Hiệp", "city": "Hà Nội", "normalize": "ninh hiep ninh hiep gia lam ha noi", "streetNormalize": "ninh hiep ninh hiep gia lam ha noi", "wardNormalize": "ninh hiep gia lam ha noi", "districtNormalize": "gia lam ha noi", "preWardNormalize": "xa ninh hiep gia lam ha noi", "lat": 21.082448, "lon": 105.939997, "geolocation": {"latitude": 21.082448, "longitude": 105.939997}}, {"district": "Gia Lâm", "ward": "Phù Đổng", "street": "Hà Nội Bắc Giang", "city": "Hà Nội", "normalize": "ha noi bac giang phu dong gia lam ha noi", "streetNormalize": "ha noi bac giang phu dong gia lam ha noi", "wardNormalize": "phu dong gia lam ha noi", "districtNormalize": "gia lam ha noi", "preWardNormalize": "xa phu dong gia lam ha noi", "lat": 21.063079, "lon": 105.9543602, "geolocation": {"latitude": 21.063079, "longitude": 105.9543602}}, {"district": "Gia Lâm", "ward": "Phù Đổng", "street": "Ninh Hiệp", "city": "Hà Nội", "normalize": "ninh hiep phu dong gia lam ha noi", "streetNormalize": "ninh hiep phu dong gia lam ha noi", "wardNormalize": "phu dong gia lam ha noi", "districtNormalize": "gia lam ha noi", "preWardNormalize": "xa phu dong gia lam ha noi", "lat": 21.0647651, "lon": 105.9528564, "geolocation": {"latitude": 21.0647651, "longitude": 105.9528564}}, {"district": "Gia Lâm", "ward": "Phù Đổng", "street": "Phù Đổng", "city": "Hà Nội", "normalize": "phu dong phu dong gia lam ha noi", "streetNormalize": "phu dong phu dong gia lam ha noi", "wardNormalize": "phu dong gia lam ha noi", "districtNormalize": "gia lam ha noi", "preWardNormalize": "xa phu dong gia lam ha noi", "lat": 21.0618222, "lon": 105.9667314, "geolocation": {"latitude": 21.0618222, "longitude": 105.9667314}}, {"district": "Gia Lâm", "ward": "Phù Đổng", "street": "Đt 179", "city": "Hà Nội", "normalize": "dt 179 phu dong gia lam ha noi", "streetNormalize": "dt 179 phu dong gia lam ha noi", "wardNormalize": "phu dong gia lam ha noi", "districtNormalize": "gia lam ha noi", "preWardNormalize": "xa phu dong gia lam ha noi", "lat": 21.0614439, "lon": 105.9659482, "geolocation": {"latitude": 21.0614439, "longitude": 105.9659482}}, {"district": "Gia Lâm", "ward": "Phú Thị", "street": "Lò Gạch Mới", "city": "Hà Nội", "normalize": "lo gach moi phu thi gia lam ha noi", "streetNormalize": "lo gach moi phu thi gia lam ha noi", "wardNormalize": "phu thi gia lam ha noi", "districtNormalize": "gia lam ha noi", "preWardNormalize": "xa phu thi gia lam ha noi", "lat": 21.0140375, "lon": 105.9609326, "geolocation": {"latitude": 21.0140375, "longitude": 105.9609326}}, {"district": "Gia Lâm", "ward": "Phú Thị", "street": "Quốc Lộ 17", "city": "Hà Nội", "normalize": "quoc lo 17 phu thi gia lam ha noi", "streetNormalize": "quoc lo 17 phu thi gia lam ha noi", "wardNormalize": "phu thi gia lam ha noi", "districtNormalize": "gia lam ha noi", "preWardNormalize": "xa phu thi gia lam ha noi", "lat": 21.0213764, "lon": 105.9686513, "geolocation": {"latitude": 21.0213764, "longitude": 105.9686513}}, {"district": "Gia Lâm", "ward": "Phú Thị", "street": "Thôn Hàn Lạc", "city": "Hà Nội", "normalize": "thon han lac phu thi gia lam ha noi", "streetNormalize": "thon han lac phu thi gia lam ha noi", "wardNormalize": "phu thi gia lam ha noi", "districtNormalize": "gia lam ha noi", "preWardNormalize": "xa phu thi gia lam ha noi", "lat": 21.0263671, "lon": 105.9708681, "geolocation": {"latitude": 21.0263671, "longitude": 105.9708681}}, {"district": "Gia Lâm", "ward": "Phú Thị", "street": "Thôn Tô Khê", "city": "Hà Nội", "normalize": "thon to khe phu thi gia lam ha noi", "streetNormalize": "thon to khe phu thi gia lam ha noi", "wardNormalize": "phu thi gia lam ha noi", "districtNormalize": "gia lam ha noi", "preWardNormalize": "xa phu thi gia lam ha noi", "lat": 21.0295536, "lon": 105.9677283, "geolocation": {"latitude": 21.0295536, "longitude": 105.9677283}}, {"district": "Gia Lâm", "ward": "Phú Thị", "street": "Đê Vàng", "city": "Hà Nội", "normalize": "de vang phu thi gia lam ha noi", "streetNormalize": "de vang phu thi gia lam ha noi", "wardNormalize": "phu thi gia lam ha noi", "districtNormalize": "gia lam ha noi", "preWardNormalize": "xa phu thi gia lam ha noi", "lat": 21.0325379, "lon": 105.9702568, "geolocation": {"latitude": 21.0325379, "longitude": 105.9702568}}, {"district": "Gia Lâm", "ward": "Phú Thị", "street": "Ỷ Lan", "city": "Hà Nội", "normalize": "y lan phu thi gia lam ha noi", "streetNormalize": "y lan phu thi gia lam ha noi", "wardNormalize": "phu thi gia lam ha noi", "districtNormalize": "gia lam ha noi", "preWardNormalize": "xa phu thi gia lam ha noi", "lat": 21.0116485, "lon": 105.9662353, "geolocation": {"latitude": 21.0116485, "longitude": 105.9662353}}, {"district": "Gia Lâm", "ward": "Trâu Quỳ", "street": "An Lạc", "city": "Hà Nội", "normalize": "an lac trau quy gia lam ha noi", "streetNormalize": "an lac trau quy gia lam ha noi", "wardNormalize": "trau quy gia lam ha noi", "districtNormalize": "gia lam ha noi", "preWardNormalize": "thi tran trau quy gia lam ha noi", "lat": 21.0150362, "lon": 105.9257081, "geolocation": {"latitude": 21.0150362, "longitude": 105.9257081}}, {"district": "Gia Lâm", "ward": "Trâu Quỳ", "street": "An Đào A", "city": "Hà Nội", "normalize": "an dao a trau quy gia lam ha noi", "streetNormalize": "an dao a trau quy gia lam ha noi", "wardNormalize": "trau quy gia lam ha noi", "districtNormalize": "gia lam ha noi", "preWardNormalize": "thi tran trau quy gia lam ha noi", "lat": 21.0028252, "lon": 105.9393154, "geolocation": {"latitude": 21.0028252, "longitude": 105.9393154}}, {"district": "Gia Lâm", "ward": "Trâu Quỳ", "street": "An Đào B", "city": "Hà Nội", "normalize": "an dao b trau quy gia lam ha noi", "streetNormalize": "an dao b trau quy gia lam ha noi", "wardNormalize": "trau quy gia lam ha noi", "districtNormalize": "gia lam ha noi", "preWardNormalize": "thi tran trau quy gia lam ha noi", "lat": 21.0023083, "lon": 105.9390315, "geolocation": {"latitude": 21.0023083, "longitude": 105.9390315}}, {"district": "Gia Lâm", "ward": "Trâu Quỳ", "street": "An Đào C", "city": "Hà Nội", "normalize": "an dao c trau quy gia lam ha noi", "streetNormalize": "an dao c trau quy gia lam ha noi", "wardNormalize": "trau quy gia lam ha noi", "districtNormalize": "gia lam ha noi", "preWardNormalize": "thi tran trau quy gia lam ha noi", "lat": 20.9998905, "lon": 105.9419617, "geolocation": {"latitude": 20.9998905, "longitude": 105.9419617}}, {"district": "Gia Lâm", "ward": "Trâu Quỳ", "street": "An Đào D", "city": "Hà Nội", "normalize": "an dao d trau quy gia lam ha noi", "streetNormalize": "an dao d trau quy gia lam ha noi", "wardNormalize": "trau quy gia lam ha noi", "districtNormalize": "gia lam ha noi", "preWardNormalize": "thi tran trau quy gia lam ha noi", "lat": 20.9978492, "lon": 105.9432612, "geolocation": {"latitude": 20.9978492, "longitude": 105.9432612}}, {"district": "Gia Lâm", "ward": "Trâu Quỳ", "street": "Chính Trung", "city": "Hà Nội", "normalize": "chinh trung trau quy gia lam ha noi", "streetNormalize": "chinh trung trau quy gia lam ha noi", "wardNormalize": "trau quy gia lam ha noi", "districtNormalize": "gia lam ha noi", "preWardNormalize": "thi tran trau quy gia lam ha noi", "lat": 21.0159883, "lon": 105.9375721, "geolocation": {"latitude": 21.0159883, "longitude": 105.9375721}}, {"district": "Gia Lâm", "ward": "Trâu Quỳ", "street": "Cổ Bi", "city": "Hà Nội", "normalize": "co bi trau quy gia lam ha noi", "streetNormalize": "co bi trau quy gia lam ha noi", "wardNormalize": "trau quy gia lam ha noi", "districtNormalize": "gia lam ha noi", "preWardNormalize": "thi tran trau quy gia lam ha noi", "lat": 21.021569, "lon": 105.938381, "geolocation": {"latitude": 21.021569, "longitude": 105.938381}}, {"district": "Gia Lâm", "ward": "Trâu Quỳ", "street": "Cửu Việt", "city": "Hà Nội", "normalize": "cuu viet trau quy gia lam ha noi", "streetNormalize": "cuu viet trau quy gia lam ha noi", "wardNormalize": "trau quy gia lam ha noi", "districtNormalize": "gia lam ha noi", "preWardNormalize": "thi tran trau quy gia lam ha noi", "lat": 21.014165, "lon": 105.9395688, "geolocation": {"latitude": 21.014165, "longitude": 105.9395688}}, {"district": "Gia Lâm", "ward": "Trâu Quỳ", "street": "Cửu Việt 1", "city": "Hà Nội", "normalize": "cuu viet 1 trau quy gia lam ha noi", "streetNormalize": "cuu viet 1 trau quy gia lam ha noi", "wardNormalize": "trau quy gia lam ha noi", "districtNormalize": "gia lam ha noi", "preWardNormalize": "thi tran trau quy gia lam ha noi", "lat": 21.0096517, "lon": 105.9385268, "geolocation": {"latitude": 21.0096517, "longitude": 105.9385268}}, {"district": "Gia Lâm", "ward": "Trâu Quỳ", "street": "Cửu Việt 2", "city": "Hà Nội", "normalize": "cuu viet 2 trau quy gia lam ha noi", "streetNormalize": "cuu viet 2 trau quy gia lam ha noi", "wardNormalize": "trau quy gia lam ha noi", "districtNormalize": "gia lam ha noi", "preWardNormalize": "thi tran trau quy gia lam ha noi", "lat": 21.0091309, "lon": 105.9367167, "geolocation": {"latitude": 21.0091309, "longitude": 105.9367167}}, {"district": "Gia Lâm", "ward": "Trâu Quỳ", "street": "Hà Nội Hải Phòng", "city": "Hà Nội", "normalize": "ha noi hai phong trau quy gia lam ha noi", "streetNormalize": "ha noi hai phong trau quy gia lam ha noi", "wardNormalize": "trau quy gia lam ha noi", "districtNormalize": "gia lam ha noi", "preWardNormalize": "thi tran trau quy gia lam ha noi", "lat": 21.0034, "lon": 105.926024, "geolocation": {"latitude": 21.0034, "longitude": 105.926024}}, {"district": "Gia Lâm", "ward": "Trâu Quỳ", "street": "Hải Đăng 2", "city": "Hà Nội", "normalize": "hai dang 2 trau quy gia lam ha noi", "streetNormalize": "hai dang 2 trau quy gia lam ha noi", "wardNormalize": "trau quy gia lam ha noi", "districtNormalize": "gia lam ha noi", "preWardNormalize": "thi tran trau quy gia lam ha noi", "lat": 20.9957307, "lon": 105.9419003, "geolocation": {"latitude": 20.9957307, "longitude": 105.9419003}}, {"district": "Gia Lâm", "ward": "Trâu Quỳ", "street": "Kiên Thành", "city": "Hà Nội", "normalize": "kien thanh trau quy gia lam ha noi", "streetNormalize": "kien thanh trau quy gia lam ha noi", "wardNormalize": "trau quy gia lam ha noi", "districtNormalize": "gia lam ha noi", "preWardNormalize": "thi tran trau quy gia lam ha noi", "lat": 21.0072984, "lon": 105.9494052, "geolocation": {"latitude": 21.0072984, "longitude": 105.9494052}}, {"district": "Gia Lâm", "ward": "Trâu Quỳ", "street": "Lý Thánh Tông", "city": "Hà Nội", "normalize": "ly thanh tong trau quy gia lam ha noi", "streetNormalize": "ly thanh tong trau quy gia lam ha noi", "wardNormalize": "trau quy gia lam ha noi", "districtNormalize": "gia lam ha noi", "preWardNormalize": "thi tran trau quy gia lam ha noi", "lat": 20.9976096, "lon": 105.9335663, "geolocation": {"latitude": 20.9976096, "longitude": 105.9335663}}, {"district": "Gia Lâm", "ward": "Trâu Quỳ", "street": "Nguyễn Bình", "city": "Hà Nội", "normalize": "nguyen binh trau quy gia lam ha noi", "streetNormalize": "nguyen binh trau quy gia lam ha noi", "wardNormalize": "trau quy gia lam ha noi", "districtNormalize": "gia lam ha noi", "preWardNormalize": "thi tran trau quy gia lam ha noi", "lat": 21.0082475, "lon": 105.9557774, "geolocation": {"latitude": 21.0082475, "longitude": 105.9557774}}, {"district": "Gia Lâm", "ward": "Trâu Quỳ", "street": "Nguyễn Khiêm Ích", "city": "Hà Nội", "normalize": "nguyen khiem ich trau quy gia lam ha noi", "streetNormalize": "nguyen khiem ich trau quy gia lam ha noi", "wardNormalize": "trau quy gia lam ha noi", "districtNormalize": "gia lam ha noi", "preWardNormalize": "thi tran trau quy gia lam ha noi", "lat": 21.0135522, "lon": 105.9389625, "geolocation": {"latitude": 21.0135522, "longitude": 105.9389625}}, {"district": "Gia Lâm", "ward": "Trâu Quỳ", "street": "Nguyễn Mậu Tài", "city": "Hà Nội", "normalize": "nguyen mau tai trau quy gia lam ha noi", "streetNormalize": "nguyen mau tai trau quy gia lam ha noi", "wardNormalize": "trau quy gia lam ha noi", "districtNormalize": "gia lam ha noi", "preWardNormalize": "thi tran trau quy gia lam ha noi", "lat": 21.016497, "lon": 105.941, "geolocation": {"latitude": 21.016497, "longitude": 105.941}}, {"district": "Gia Lâm", "ward": "Trâu Quỳ", "street": "Nguyễn Đức Thuận", "city": "Hà Nội", "normalize": "nguyen duc thuan trau quy gia lam ha noi", "streetNormalize": "nguyen duc thuan trau quy gia lam ha noi", "wardNormalize": "trau quy gia lam ha noi", "districtNormalize": "gia lam ha noi", "preWardNormalize": "thi tran trau quy gia lam ha noi", "lat": 21.0148925, "lon": 105.9468267, "geolocation": {"latitude": 21.0148925, "longitude": 105.9468267}}, {"district": "Gia Lâm", "ward": "Trâu Quỳ", "street": "Ngô Xuân Quảng", "city": "Hà Nội", "normalize": "ngo xuan quang trau quy gia lam ha noi", "streetNormalize": "ngo xuan quang trau quy gia lam ha noi", "wardNormalize": "trau quy gia lam ha noi", "districtNormalize": "gia lam ha noi", "preWardNormalize": "thi tran trau quy gia lam ha noi", "lat": 21.0134591, "lon": 105.9362249, "geolocation": {"latitude": 21.0134591, "longitude": 105.9362249}}, {"district": "Gia Lâm", "ward": "Trâu Quỳ", "street": "Quốc Lộ 17", "city": "Hà Nội", "normalize": "quoc lo 17 trau quy gia lam ha noi", "streetNormalize": "quoc lo 17 trau quy gia lam ha noi", "wardNormalize": "trau quy gia lam ha noi", "districtNormalize": "gia lam ha noi", "preWardNormalize": "thi tran trau quy gia lam ha noi", "lat": 21.0101448, "lon": 105.9534102, "geolocation": {"latitude": 21.0101448, "longitude": 105.9534102}}, {"district": "Gia Lâm", "ward": "Trâu Quỳ", "street": "Quốc Lộ 5", "city": "Hà Nội", "normalize": "quoc lo 5 trau quy gia lam ha noi", "streetNormalize": "quoc lo 5 trau quy gia lam ha noi", "wardNormalize": "trau quy gia lam ha noi", "districtNormalize": "gia lam ha noi", "preWardNormalize": "thi tran trau quy gia lam ha noi", "lat": 21.0093565, "lon": 105.9549106, "geolocation": {"latitude": 21.0093565, "longitude": 105.9549106}}, {"district": "Gia Lâm", "ward": "Trâu Quỳ", "street": "Thành Trung", "city": "Hà Nội", "normalize": "thanh trung trau quy gia lam ha noi", "streetNormalize": "thanh trung trau quy gia lam ha noi", "wardNormalize": "trau quy gia lam ha noi", "districtNormalize": "gia lam ha noi", "preWardNormalize": "thi tran trau quy gia lam ha noi", "lat": 21.010292, "lon": 105.938432, "geolocation": {"latitude": 21.010292, "longitude": 105.938432}}, {"district": "Gia Lâm", "ward": "Trâu Quỳ", "street": "Trâu Qùy", "city": "Hà Nội", "normalize": "trau quy trau quy gia lam ha noi", "streetNormalize": "trau quy trau quy gia lam ha noi", "wardNormalize": "trau quy gia lam ha noi", "districtNormalize": "gia lam ha noi", "preWardNormalize": "thi tran trau quy gia lam ha noi", "lat": 21.0052147, "lon": 105.9378612, "geolocation": {"latitude": 21.0052147, "longitude": 105.9378612}}, {"district": "Gia Lâm", "ward": "Trâu Quỳ", "street": "Đoàn Quang Dung", "city": "Hà Nội", "normalize": "doan quang dung trau quy gia lam ha noi", "streetNormalize": "doan quang dung trau quy gia lam ha noi", "wardNormalize": "trau quy gia lam ha noi", "districtNormalize": "gia lam ha noi", "preWardNormalize": "thi tran trau quy gia lam ha noi", "lat": 21.0119334, "lon": 105.9446012, "geolocation": {"latitude": 21.0119334, "longitude": 105.9446012}}, {"district": "Gia Lâm", "ward": "Trâu Quỳ", "street": "Đường E", "city": "Hà Nội", "normalize": "duong e trau quy gia lam ha noi", "streetNormalize": "duong e trau quy gia lam ha noi", "wardNormalize": "trau quy gia lam ha noi", "districtNormalize": "gia lam ha noi", "preWardNormalize": "thi tran trau quy gia lam ha noi", "lat": 20.9994024, "lon": 105.9410076, "geolocation": {"latitude": 20.9994024, "longitude": 105.9410076}}, {"district": "Gia Lâm", "ward": "Trâu Quỳ", "street": "Đường G", "city": "Hà Nội", "normalize": "duong g trau quy gia lam ha noi", "streetNormalize": "duong g trau quy gia lam ha noi", "wardNormalize": "trau quy gia lam ha noi", "districtNormalize": "gia lam ha noi", "preWardNormalize": "thi tran trau quy gia lam ha noi", "lat": 21.0076196, "lon": 105.9356495, "geolocation": {"latitude": 21.0076196, "longitude": 105.9356495}}, {"district": "Gia Lâm", "ward": "Trâu Quỳ", "street": "Đường N", "city": "Hà Nội", "normalize": "duong n trau quy gia lam ha noi", "streetNormalize": "duong n trau quy gia lam ha noi", "wardNormalize": "trau quy gia lam ha noi", "districtNormalize": "gia lam ha noi", "preWardNormalize": "thi tran trau quy gia lam ha noi", "lat": 21.0079552, "lon": 105.9358373, "geolocation": {"latitude": 21.0079552, "longitude": 105.9358373}}, {"district": "Gia Lâm", "ward": "Trâu Quỳ", "street": "Đường T", "city": "Hà Nội", "normalize": "duong t trau quy gia lam ha noi", "streetNormalize": "duong t trau quy gia lam ha noi", "wardNormalize": "trau quy gia lam ha noi", "districtNormalize": "gia lam ha noi", "preWardNormalize": "thi tran trau quy gia lam ha noi", "lat": 21.0066707, "lon": 105.9352229, "geolocation": {"latitude": 21.0066707, "longitude": 105.9352229}}, {"district": "Gia Lâm", "ward": "Trâu Quỳ", "street": "Đường U", "city": "Hà Nội", "normalize": "duong u trau quy gia lam ha noi", "streetNormalize": "duong u trau quy gia lam ha noi", "wardNormalize": "trau quy gia lam ha noi", "districtNormalize": "gia lam ha noi", "preWardNormalize": "thi tran trau quy gia lam ha noi", "lat": 21.0068353, "lon": 105.9363333, "geolocation": {"latitude": 21.0068353, "longitude": 105.9363333}}, {"district": "Gia Lâm", "ward": "Trung Mầu", "street": "Trung Mầu", "city": "Hà Nội", "normalize": "trung mau trung mau gia lam ha noi", "streetNormalize": "trung mau trung mau gia lam ha noi", "wardNormalize": "trung mau gia lam ha noi", "districtNormalize": "gia lam ha noi", "preWardNormalize": "xa trung mau gia lam ha noi", "lat": 21.0618532, "lon": 105.9834118, "geolocation": {"latitude": 21.0618532, "longitude": 105.9834118}}, {"district": "Gia Lâm", "ward": "Văn Đức", "street": "Trung Quan", "city": "Hà Nội", "normalize": "trung quan van duc gia lam ha noi", "streetNormalize": "trung quan van duc gia lam ha noi", "wardNormalize": "van duc gia lam ha noi", "districtNormalize": "gia lam ha noi", "preWardNormalize": "xa van duc gia lam ha noi", "lat": 20.9502501, "lon": 105.8954739, "geolocation": {"latitude": 20.9502501, "longitude": 105.8954739}}, {"district": "Gia Lâm", "ward": "Văn Đức", "street": "Văn Đức Kim Lan", "city": "Hà Nội", "normalize": "van duc kim lan van duc gia lam ha noi", "streetNormalize": "van duc kim lan van duc gia lam ha noi", "wardNormalize": "van duc gia lam ha noi", "districtNormalize": "gia lam ha noi", "preWardNormalize": "xa van duc gia lam ha noi", "lat": 20.9473479, "lon": 105.9009534, "geolocation": {"latitude": 20.9473479, "longitude": 105.9009534}}, {"district": "Gia Lâm", "ward": "Văn Đức", "street": "Đội 1", "city": "Hà Nội", "normalize": "doi 1 van duc gia lam ha noi", "streetNormalize": "doi 1 van duc gia lam ha noi", "wardNormalize": "van duc gia lam ha noi", "districtNormalize": "gia lam ha noi", "preWardNormalize": "xa van duc gia lam ha noi", "lat": 20.949801, "lon": 105.897044, "geolocation": {"latitude": 20.949801, "longitude": 105.897044}}, {"district": "Gia Lâm", "ward": "Văn Đức", "street": "Đội 10", "city": "Hà Nội", "normalize": "doi 10 van duc gia lam ha noi", "streetNormalize": "doi 10 van duc gia lam ha noi", "wardNormalize": "van duc gia lam ha noi", "districtNormalize": "gia lam ha noi", "preWardNormalize": "xa van duc gia lam ha noi", "lat": 20.9460967, "lon": 105.8974433, "geolocation": {"latitude": 20.9460967, "longitude": 105.8974433}}, {"district": "Gia Lâm", "ward": "Văn Đức", "street": "Đội 2", "city": "Hà Nội", "normalize": "doi 2 van duc gia lam ha noi", "streetNormalize": "doi 2 van duc gia lam ha noi", "wardNormalize": "van duc gia lam ha noi", "districtNormalize": "gia lam ha noi", "preWardNormalize": "xa van duc gia lam ha noi", "lat": 20.9489118, "lon": 105.896867, "geolocation": {"latitude": 20.9489118, "longitude": 105.896867}}, {"district": "Gia Lâm", "ward": "Văn Đức", "street": "Đội 3", "city": "Hà Nội", "normalize": "doi 3 van duc gia lam ha noi", "streetNormalize": "doi 3 van duc gia lam ha noi", "wardNormalize": "van duc gia lam ha noi", "districtNormalize": "gia lam ha noi", "preWardNormalize": "xa van duc gia lam ha noi", "lat": 20.9487286, "lon": 105.8975983, "geolocation": {"latitude": 20.9487286, "longitude": 105.8975983}}, {"district": "Gia Lâm", "ward": "Văn Đức", "street": "Đội 4", "city": "Hà Nội", "normalize": "doi 4 van duc gia lam ha noi", "streetNormalize": "doi 4 van duc gia lam ha noi", "wardNormalize": "van duc gia lam ha noi", "districtNormalize": "gia lam ha noi", "preWardNormalize": "xa van duc gia lam ha noi", "lat": 20.9482176, "lon": 105.8974803, "geolocation": {"latitude": 20.9482176, "longitude": 105.8974803}}, {"district": "Gia Lâm", "ward": "Văn Đức", "street": "Đội 5", "city": "Hà Nội", "normalize": "doi 5 van duc gia lam ha noi", "streetNormalize": "doi 5 van duc gia lam ha noi", "wardNormalize": "van duc gia lam ha noi", "districtNormalize": "gia lam ha noi", "preWardNormalize": "xa van duc gia lam ha noi", "lat": 20.9478205, "lon": 105.89748, "geolocation": {"latitude": 20.9478205, "longitude": 105.89748}}, {"district": "Gia Lâm", "ward": "Văn Đức", "street": "Đội 6", "city": "Hà Nội", "normalize": "doi 6 van duc gia lam ha noi", "streetNormalize": "doi 6 van duc gia lam ha noi", "wardNormalize": "van duc gia lam ha noi", "districtNormalize": "gia lam ha noi", "preWardNormalize": "xa van duc gia lam ha noi", "lat": 20.9473273, "lon": 105.8980666, "geolocation": {"latitude": 20.9473273, "longitude": 105.8980666}}, {"district": "Gia Lâm", "ward": "Yên Thường", "street": "Hà Nội Thái Nguyên", "city": "Hà Nội", "normalize": "ha noi thai nguyen yen thuong gia lam ha noi", "streetNormalize": "ha noi thai nguyen yen thuong gia lam ha noi", "wardNormalize": "yen thuong gia lam ha noi", "districtNormalize": "gia lam ha noi", "preWardNormalize": "xa yen thuong gia lam ha noi", "lat": 21.098652, "lon": 105.934842, "geolocation": {"latitude": 21.098652, "longitude": 105.934842}}, {"district": "Gia Lâm", "ward": "Yên Thường", "street": "Ninh Hiệp", "city": "Hà Nội", "normalize": "ninh hiep yen thuong gia lam ha noi", "streetNormalize": "ninh hiep yen thuong gia lam ha noi", "wardNormalize": "yen thuong gia lam ha noi", "districtNormalize": "gia lam ha noi", "preWardNormalize": "xa yen thuong gia lam ha noi", "lat": 21.0932193, "lon": 105.9336718, "geolocation": {"latitude": 21.0932193, "longitude": 105.9336718}}, {"district": "Gia Lâm", "ward": "Yên Thường", "street": "Yên Thường", "city": "Hà Nội", "normalize": "yen thuong yen thuong gia lam ha noi", "streetNormalize": "yen thuong yen thuong gia lam ha noi", "wardNormalize": "yen thuong gia lam ha noi", "districtNormalize": "gia lam ha noi", "preWardNormalize": "xa yen thuong gia lam ha noi", "lat": 21.096923, "lon": 105.915424, "geolocation": {"latitude": 21.096923, "longitude": 105.915424}}, {"district": "Gia Lâm", "ward": "Yên Thường", "street": "Đặng Phúc Thông", "city": "Hà Nội", "normalize": "dang phuc thong yen thuong gia lam ha noi", "streetNormalize": "dang phuc thong yen thuong gia lam ha noi", "wardNormalize": "yen thuong gia lam ha noi", "districtNormalize": "gia lam ha noi", "preWardNormalize": "xa yen thuong gia lam ha noi", "lat": 21.09899, "lon": 105.931064, "geolocation": {"latitude": 21.09899, "longitude": 105.931064}}, {"district": "Gia Lâm", "ward": "Yên Viên", "street": "Hà Huy Tập", "city": "Hà Nội", "normalize": "ha huy tap yen vien gia lam ha noi", "streetNormalize": "ha huy tap yen vien gia lam ha noi", "wardNormalize": "yen vien gia lam ha noi", "districtNormalize": "gia lam ha noi", "preWardNormalize": "thi tran yen vien gia lam ha noi", "lat": 21.088675, "lon": 105.920578, "geolocation": {"latitude": 21.088675, "longitude": 105.920578}}, {"district": "Gia Lâm", "ward": "Yên Viên", "street": "Phan Đăng Lưu", "city": "Hà Nội", "normalize": "phan dang luu yen vien gia lam ha noi", "streetNormalize": "phan dang luu yen vien gia lam ha noi", "wardNormalize": "yen vien gia lam ha noi", "districtNormalize": "gia lam ha noi", "preWardNormalize": "thi tran yen vien gia lam ha noi", "lat": 21.0805808, "lon": 105.9090772, "geolocation": {"latitude": 21.0805808, "longitude": 105.9090772}}, {"district": "Gia Lâm", "ward": "Yên Viên", "street": "Đình Xuyên", "city": "Hà Nội", "normalize": "dinh xuyen yen vien gia lam ha noi", "streetNormalize": "dinh xuyen yen vien gia lam ha noi", "wardNormalize": "yen vien gia lam ha noi", "districtNormalize": "gia lam ha noi", "preWardNormalize": "thi tran yen vien gia lam ha noi", "lat": 21.08936, "lon": 105.928901, "geolocation": {"latitude": 21.08936, "longitude": 105.928901}}, {"district": "Gia Lâm", "ward": "Yên Viên", "street": "Hà Huy Tập", "city": "Hà Nội", "normalize": "ha huy tap yen vien gia lam ha noi", "streetNormalize": "ha huy tap yen vien gia lam ha noi", "wardNormalize": "yen vien gia lam ha noi", "districtNormalize": "gia lam ha noi", "preWardNormalize": "thi tran yen vien gia lam ha noi", "lat": 21.088675, "lon": 105.920578, "geolocation": {"latitude": 21.088675, "longitude": 105.920578}}, {"district": "Gia Lâm", "ward": "Yên Viên", "street": "Phan Đăng Lưu", "city": "Hà Nội", "normalize": "phan dang luu yen vien gia lam ha noi", "streetNormalize": "phan dang luu yen vien gia lam ha noi", "wardNormalize": "yen vien gia lam ha noi", "districtNormalize": "gia lam ha noi", "preWardNormalize": "thi tran yen vien gia lam ha noi", "lat": 21.0805808, "lon": 105.9090772, "geolocation": {"latitude": 21.0805808, "longitude": 105.9090772}}, {"district": "Gia Lâm", "ward": "Yên Viên", "street": "Đình Xuyên", "city": "Hà Nội", "normalize": "dinh xuyen yen vien gia lam ha noi", "streetNormalize": "dinh xuyen yen vien gia lam ha noi", "wardNormalize": "yen vien gia lam ha noi", "districtNormalize": "gia lam ha noi", "preWardNormalize": "thi tran yen vien gia lam ha noi", "lat": 21.08936, "lon": 105.928901, "geolocation": {"latitude": 21.08936, "longitude": 105.928901}}]}