{"data": [{"district": "Thường Tín", "ward": "Chương Dương", "street": "Chương Dương", "city": "Hà Nội", "normalize": "chuong duong chuong duong thuong tin ha noi", "streetNormalize": "chuong duong chuong duong thuong tin ha noi", "wardNormalize": "chuong duong thuong tin ha noi", "districtNormalize": "thuong tin ha noi", "preWardNormalize": "xa chuong duong thuong tin ha noi", "lat": 20.8465112, "lon": 105.9016007, "geolocation": {"latitude": 20.8465112, "longitude": 105.9016007}}, {"district": "Thường Tín", "ward": "Chương Dương", "street": "Chương Dương Lê Lợi", "city": "Hà Nội", "normalize": "chuong duong le loi chuong duong thuong tin ha noi", "streetNormalize": "chuong duong le loi chuong duong thuong tin ha noi", "wardNormalize": "chuong duong thuong tin ha noi", "districtNormalize": "thuong tin ha noi", "preWardNormalize": "xa chuong duong thuong tin ha noi", "lat": 20.8430247, "lon": 105.897568, "geolocation": {"latitude": 20.8430247, "longitude": 105.897568}}, {"district": "Thường Tín", "ward": "Chương Dương", "street": "Chương Dương Thư Phú", "city": "Hà Nội", "normalize": "chuong duong thu phu chuong duong thuong tin ha noi", "streetNormalize": "chuong duong thu phu chuong duong thuong tin ha noi", "wardNormalize": "chuong duong thuong tin ha noi", "districtNormalize": "thuong tin ha noi", "preWardNormalize": "xa chuong duong thuong tin ha noi", "lat": 20.8524453, "lon": 105.9088453, "geolocation": {"latitude": 20.8524453, "longitude": 105.9088453}}, {"district": "Thường Tín", "ward": "Chương Dương", "street": "Kênh Xóm 2", "city": "Hà Nội", "normalize": "kenh xom 2 chuong duong thuong tin ha noi", "streetNormalize": "kenh xom 2 chuong duong thuong tin ha noi", "wardNormalize": "chuong duong thuong tin ha noi", "districtNormalize": "thuong tin ha noi", "preWardNormalize": "xa chuong duong thuong tin ha noi", "lat": 20.8400982, "lon": 105.9067589, "geolocation": {"latitude": 20.8400982, "longitude": 105.9067589}}, {"district": "Thường Tín", "ward": "Chương Dương", "street": "Xóm 2", "city": "Hà Nội", "normalize": "xom 2 chuong duong thuong tin ha noi", "streetNormalize": "xom 2 chuong duong thuong tin ha noi", "wardNormalize": "chuong duong thuong tin ha noi", "districtNormalize": "thuong tin ha noi", "preWardNormalize": "xa chuong duong thuong tin ha noi", "lat": 20.8411877, "lon": 105.9091083, "geolocation": {"latitude": 20.8411877, "longitude": 105.9091083}}, {"district": "Thường Tín", "ward": "Chương Dương", "street": "Đê Sông Hồng", "city": "Hà Nội", "normalize": "de song hong chuong duong thuong tin ha noi", "streetNormalize": "de song hong chuong duong thuong tin ha noi", "wardNormalize": "chuong duong thuong tin ha noi", "districtNormalize": "thuong tin ha noi", "preWardNormalize": "xa chuong duong thuong tin ha noi", "lat": 20.8409492, "lon": 105.9106302, "geolocation": {"latitude": 20.8409492, "longitude": 105.9106302}}, {"district": "Thường Tín", "ward": "Dũng Tiến", "street": "Dũng Tiến", "city": "Hà Nội", "normalize": "dung tien dung tien thuong tin ha noi", "streetNormalize": "dung tien dung tien thuong tin ha noi", "wardNormalize": "dung tien thuong tin ha noi", "districtNormalize": "thuong tin ha noi", "preWardNormalize": "xa dung tien thuong tin ha noi", "lat": 20.8199298, "lon": 105.8511119, "geolocation": {"latitude": 20.8199298, "longitude": 105.8511119}}, {"district": "Thường Tín", "ward": "Duyên Thái", "street": "Pháp Vân Cầu Giẽ", "city": "Hà Nội", "normalize": "phap van cau gie duyen thai thuong tin ha noi", "streetNormalize": "phap van cau gie duyen thai thuong tin ha noi", "wardNormalize": "duyen thai thuong tin ha noi", "districtNormalize": "thuong tin ha noi", "preWardNormalize": "xa duyen thai thuong tin ha noi", "lat": 20.9009878, "lon": 105.8637303, "geolocation": {"latitude": 20.9009878, "longitude": 105.8637303}}, {"district": "Thường Tín", "ward": "Hà Hồi", "street": "Hòa Lương", "city": "Hà Nội", "normalize": "hoa luong ha hoi thuong tin ha noi", "streetNormalize": "hoa luong ha hoi thuong tin ha noi", "wardNormalize": "ha hoi thuong tin ha noi", "districtNormalize": "thuong tin ha noi", "preWardNormalize": "xa ha hoi thuong tin ha noi", "lat": 20.8613501, "lon": 105.8710035, "geolocation": {"latitude": 20.8613501, "longitude": 105.8710035}}, {"district": "Thường Tín", "ward": "Hà Hồi", "street": "Khê Hồi", "city": "Hà Nội", "normalize": "khe hoi ha hoi thuong tin ha noi", "streetNormalize": "khe hoi ha hoi thuong tin ha noi", "wardNormalize": "ha hoi thuong tin ha noi", "districtNormalize": "thuong tin ha noi", "preWardNormalize": "xa ha hoi thuong tin ha noi", "lat": 20.8693308, "lon": 105.8770693, "geolocation": {"latitude": 20.8693308, "longitude": 105.8770693}}, {"district": "Thường Tín", "ward": "Hà Hồi", "street": "Ngõ Nội Chùa La", "city": "Hà Nội", "normalize": "ngo noi chua la ha hoi thuong tin ha noi", "streetNormalize": "ngo noi chua la ha hoi thuong tin ha noi", "wardNormalize": "ha hoi thuong tin ha noi", "districtNormalize": "thuong tin ha noi", "preWardNormalize": "xa ha hoi thuong tin ha noi", "lat": 20.8604023, "lon": 105.8724369, "geolocation": {"latitude": 20.8604023, "longitude": 105.8724369}}, {"district": "Thường Tín", "ward": "Hà Hồi", "street": "Pháp Vân Cầu Giẽ", "city": "Hà Nội", "normalize": "phap van cau gie ha hoi thuong tin ha noi", "streetNormalize": "phap van cau gie ha hoi thuong tin ha noi", "wardNormalize": "ha hoi thuong tin ha noi", "districtNormalize": "thuong tin ha noi", "preWardNormalize": "xa ha hoi thuong tin ha noi", "lat": 20.8582262, "lon": 105.8814553, "geolocation": {"latitude": 20.8582262, "longitude": 105.8814553}}, {"district": "Thường Tín", "ward": "Hà Hồi", "street": "Phú Cốc", "city": "Hà Nội", "normalize": "phu coc ha hoi thuong tin ha noi", "streetNormalize": "phu coc ha hoi thuong tin ha noi", "wardNormalize": "ha hoi thuong tin ha noi", "districtNormalize": "thuong tin ha noi", "preWardNormalize": "xa ha hoi thuong tin ha noi", "lat": 20.8665838, "lon": 105.8768551, "geolocation": {"latitude": 20.8665838, "longitude": 105.8768551}}, {"district": "Thường Tín", "ward": "Hà Hồi", "street": "Phạm Hồng Thái", "city": "Hà Nội", "normalize": "pham hong thai ha hoi thuong tin ha noi", "streetNormalize": "pham hong thai ha hoi thuong tin ha noi", "wardNormalize": "ha hoi thuong tin ha noi", "districtNormalize": "thuong tin ha noi", "preWardNormalize": "xa ha hoi thuong tin ha noi", "lat": 20.8641857, "lon": 105.8702266, "geolocation": {"latitude": 20.8641857, "longitude": 105.8702266}}, {"district": "Thường Tín", "ward": "Hà Hồi", "street": "Quang Trung", "city": "Hà Nội", "normalize": "quang trung ha hoi thuong tin ha noi", "streetNormalize": "quang trung ha hoi thuong tin ha noi", "wardNormalize": "ha hoi thuong tin ha noi", "districtNormalize": "thuong tin ha noi", "preWardNormalize": "xa ha hoi thuong tin ha noi", "lat": 20.865471, "lon": 105.8766919, "geolocation": {"latitude": 20.865471, "longitude": 105.8766919}}, {"district": "Thường Tín", "ward": "Hà Hồi", "street": "Quang Trung Khu Mơ", "city": "Hà Nội", "normalize": "quang trung khu mo ha hoi thuong tin ha noi", "streetNormalize": "quang trung khu mo ha hoi thuong tin ha noi", "wardNormalize": "ha hoi thuong tin ha noi", "districtNormalize": "thuong tin ha noi", "preWardNormalize": "xa ha hoi thuong tin ha noi", "lat": 20.8649036, "lon": 105.8771457, "geolocation": {"latitude": 20.8649036, "longitude": 105.8771457}}, {"district": "Thường Tín", "ward": "Hà Hồi", "street": "Quốc Lộ 1a", "city": "Hà Nội", "normalize": "quoc lo 1a ha hoi thuong tin ha noi", "streetNormalize": "quoc lo 1a ha hoi thuong tin ha noi", "wardNormalize": "ha hoi thuong tin ha noi", "districtNormalize": "thuong tin ha noi", "preWardNormalize": "xa ha hoi thuong tin ha noi", "lat": 20.8606176, "lon": 105.868057, "geolocation": {"latitude": 20.8606176, "longitude": 105.868057}}, {"district": "Thường Tín", "ward": "Hà Hồi", "street": "Thiên Lý", "city": "Hà Nội", "normalize": "thien ly ha hoi thuong tin ha noi", "streetNormalize": "thien ly ha hoi thuong tin ha noi", "wardNormalize": "ha hoi thuong tin ha noi", "districtNormalize": "thuong tin ha noi", "preWardNormalize": "xa ha hoi thuong tin ha noi", "lat": 20.8627511, "lon": 105.8701634, "geolocation": {"latitude": 20.8627511, "longitude": 105.8701634}}, {"district": "Thường Tín", "ward": "Hà Hồi", "street": "Thượng Hiền", "city": "Hà Nội", "normalize": "thuong hien ha hoi thuong tin ha noi", "streetNormalize": "thuong hien ha hoi thuong tin ha noi", "wardNormalize": "ha hoi thuong tin ha noi", "districtNormalize": "thuong tin ha noi", "preWardNormalize": "xa ha hoi thuong tin ha noi", "lat": 20.8661856, "lon": 105.8730663, "geolocation": {"latitude": 20.8661856, "longitude": 105.8730663}}, {"district": "Thường Tín", "ward": "Hà Hồi", "street": "Xóm Chánh", "city": "Hà Nội", "normalize": "xom chanh ha hoi thuong tin ha noi", "streetNormalize": "xom chanh ha hoi thuong tin ha noi", "wardNormalize": "ha hoi thuong tin ha noi", "districtNormalize": "thuong tin ha noi", "preWardNormalize": "xa ha hoi thuong tin ha noi", "lat": 20.8694368, "lon": 105.8788121, "geolocation": {"latitude": 20.8694368, "longitude": 105.8788121}}, {"district": "Thường Tín", "ward": "Hà Hồi", "street": "Xóm Chùa", "city": "Hà Nội", "normalize": "xom chua ha hoi thuong tin ha noi", "streetNormalize": "xom chua ha hoi thuong tin ha noi", "wardNormalize": "ha hoi thuong tin ha noi", "districtNormalize": "thuong tin ha noi", "preWardNormalize": "xa ha hoi thuong tin ha noi", "lat": 20.86967, "lon": 105.877293, "geolocation": {"latitude": 20.86967, "longitude": 105.877293}}, {"district": "Thường Tín", "ward": "Hà Hồi", "street": "Xóm Phạm", "city": "Hà Nội", "normalize": "xom pham ha hoi thuong tin ha noi", "streetNormalize": "xom pham ha hoi thuong tin ha noi", "wardNormalize": "ha hoi thuong tin ha noi", "districtNormalize": "thuong tin ha noi", "preWardNormalize": "xa ha hoi thuong tin ha noi", "lat": 20.8679283, "lon": 105.8780579, "geolocation": {"latitude": 20.8679283, "longitude": 105.8780579}}, {"district": "Thường Tín", "ward": "Hà Hồi", "street": "Xóm Đông", "city": "Hà Nội", "normalize": "xom dong ha hoi thuong tin ha noi", "streetNormalize": "xom dong ha hoi thuong tin ha noi", "wardNormalize": "ha hoi thuong tin ha noi", "districtNormalize": "thuong tin ha noi", "preWardNormalize": "xa ha hoi thuong tin ha noi", "lat": 20.8683676, "lon": 105.8794976, "geolocation": {"latitude": 20.8683676, "longitude": 105.8794976}}, {"district": "Thường Tín", "ward": "Hà Hồi", "street": "Đinh Tiên Hoàng", "city": "Hà Nội", "normalize": "dinh tien hoang ha hoi thuong tin ha noi", "streetNormalize": "dinh tien hoang ha hoi thuong tin ha noi", "wardNormalize": "ha hoi thuong tin ha noi", "districtNormalize": "thuong tin ha noi", "preWardNormalize": "xa ha hoi thuong tin ha noi", "lat": 20.8649772, "lon": 105.8745672, "geolocation": {"latitude": 20.8649772, "longitude": 105.8745672}}, {"district": "Thường Tín", "ward": "Hà Hồi", "street": "Đt 427", "city": "Hà Nội", "normalize": "dt 427 ha hoi thuong tin ha noi", "streetNormalize": "dt 427 ha hoi thuong tin ha noi", "wardNormalize": "ha hoi thuong tin ha noi", "districtNormalize": "thuong tin ha noi", "preWardNormalize": "xa ha hoi thuong tin ha noi", "lat": 20.8706245, "lon": 105.8780068, "geolocation": {"latitude": 20.8706245, "longitude": 105.8780068}}, {"district": "Thường Tín", "ward": "Hiền Giang", "street": "Thăng Long", "city": "Hà Nội", "normalize": "thang long hien giang thuong tin ha noi", "streetNormalize": "thang long hien giang thuong tin ha noi", "wardNormalize": "hien giang thuong tin ha noi", "districtNormalize": "thuong tin ha noi", "preWardNormalize": "xa hien giang thuong tin ha noi", "lat": 20.868178, "lon": 105.83149, "geolocation": {"latitude": 20.868178, "longitude": 105.83149}}, {"district": "Thường Tín", "ward": "Hiền Giang", "street": "Trần Phú", "city": "Hà Nội", "normalize": "tran phu hien giang thuong tin ha noi", "streetNormalize": "tran phu hien giang thuong tin ha noi", "wardNormalize": "hien giang thuong tin ha noi", "districtNormalize": "thuong tin ha noi", "preWardNormalize": "xa hien giang thuong tin ha noi", "lat": 20.8685768, "lon": 105.8298781, "geolocation": {"latitude": 20.8685768, "longitude": 105.8298781}}, {"district": "Thường Tín", "ward": "Hòa Bình", "street": "Trần Phú", "city": "Hà Nội", "normalize": "tran phu hoa binh thuong tin ha noi", "streetNormalize": "tran phu hoa binh thuong tin ha noi", "wardNormalize": "hoa binh thuong tin ha noi", "districtNormalize": "thuong tin ha noi", "preWardNormalize": "xa hoa binh thuong tin ha noi", "lat": 20.8688686, "lon": 105.8398799, "geolocation": {"latitude": 20.8688686, "longitude": 105.8398799}}, {"district": "Thường Tín", "ward": "Hồng Vân", "street": "Nỏ Bạn", "city": "Hà Nội", "normalize": "no ban hong van thuong tin ha noi", "streetNormalize": "no ban hong van thuong tin ha noi", "wardNormalize": "hong van thuong tin ha noi", "districtNormalize": "thuong tin ha noi", "preWardNormalize": "xa hong van thuong tin ha noi", "lat": 20.8747597285466, "lon": 105.901867120042, "geolocation": {"latitude": 20.8747597285466, "longitude": 105.901867120042}}, {"district": "Thường Tín", "ward": "Hồng Vân", "street": "Đt 427", "city": "Hà Nội", "normalize": "dt 427 hong van thuong tin ha noi", "streetNormalize": "dt 427 hong van thuong tin ha noi", "wardNormalize": "hong van thuong tin ha noi", "districtNormalize": "thuong tin ha noi", "preWardNormalize": "xa hong van thuong tin ha noi", "lat": 20.8674143, "lon": 105.9106998, "geolocation": {"latitude": 20.8674143, "longitude": 105.9106998}}, {"district": "Thường Tín", "ward": "Hồng Vân", "street": "Đê Hữu Hồng", "city": "Hà Nội", "normalize": "de huu hong hong van thuong tin ha noi", "streetNormalize": "de huu hong hong van thuong tin ha noi", "wardNormalize": "hong van thuong tin ha noi", "districtNormalize": "thuong tin ha noi", "preWardNormalize": "xa hong van thuong tin ha noi", "lat": 20.8828596, "lon": 105.9068173, "geolocation": {"latitude": 20.8828596, "longitude": 105.9068173}}, {"district": "Thường Tín", "ward": "Hồng Vân", "street": "Đê Sông Hồng", "city": "Hà Nội", "normalize": "de song hong hong van thuong tin ha noi", "streetNormalize": "de song hong hong van thuong tin ha noi", "wardNormalize": "hong van thuong tin ha noi", "districtNormalize": "thuong tin ha noi", "preWardNormalize": "xa hong van thuong tin ha noi", "lat": 20.8738999, "lon": 105.9177782, "geolocation": {"latitude": 20.8738999, "longitude": 105.9177782}}, {"district": "Thường Tín", "ward": "Khánh Hà", "street": "Liễu Ngoại", "city": "Hà Nội", "normalize": "lieu ngoai khanh ha thuong tin ha noi", "streetNormalize": "lieu ngoai khanh ha thuong tin ha noi", "wardNormalize": "khanh ha thuong tin ha noi", "districtNormalize": "thuong tin ha noi", "preWardNormalize": "xa khanh ha thuong tin ha noi", "lat": 20.890001, "lon": 105.8215032, "geolocation": {"latitude": 20.890001, "longitude": 105.8215032}}, {"district": "Thường Tín", "ward": "Lê Lợi", "street": "Chương Dương Lê Lợi", "city": "Hà Nội", "normalize": "chuong duong le loi le loi thuong tin ha noi", "streetNormalize": "chuong duong le loi le loi thuong tin ha noi", "wardNormalize": "le loi thuong tin ha noi", "districtNormalize": "thuong tin ha noi", "preWardNormalize": "xa le loi thuong tin ha noi", "lat": 20.8359144, "lon": 105.8982067, "geolocation": {"latitude": 20.8359144, "longitude": 105.8982067}}, {"district": "Thường Tín", "ward": "Lê Lợi", "street": "Hà Vỹ", "city": "Hà Nội", "normalize": "ha vy le loi thuong tin ha noi", "streetNormalize": "ha vy le loi thuong tin ha noi", "wardNormalize": "le loi thuong tin ha noi", "districtNormalize": "thuong tin ha noi", "preWardNormalize": "xa le loi thuong tin ha noi", "lat": 20.8211283, "lon": 105.9010912, "geolocation": {"latitude": 20.8211283, "longitude": 105.9010912}}, {"district": "Thường Tín", "ward": "Lê Lợi", "street": "Từ Vân Lê Lợi", "city": "Hà Nội", "normalize": "tu van le loi le loi thuong tin ha noi", "streetNormalize": "tu van le loi le loi thuong tin ha noi", "wardNormalize": "le loi thuong tin ha noi", "districtNormalize": "thuong tin ha noi", "preWardNormalize": "xa le loi thuong tin ha noi", "lat": 20.8331852, "lon": 105.8972925, "geolocation": {"latitude": 20.8331852, "longitude": 105.8972925}}, {"district": "Thường Tín", "ward": "Lê Lợi", "street": "Đê Sông Hồng", "city": "Hà Nội", "normalize": "de song hong le loi thuong tin ha noi", "streetNormalize": "de song hong le loi thuong tin ha noi", "wardNormalize": "le loi thuong tin ha noi", "districtNormalize": "thuong tin ha noi", "preWardNormalize": "xa le loi thuong tin ha noi", "lat": 20.830197, "lon": 105.9088243, "geolocation": {"latitude": 20.830197, "longitude": 105.9088243}}, {"district": "Thường Tín", "ward": "Lê Lợi", "street": "Đường Cả Hà Vỹ", "city": "Hà Nội", "normalize": "duong ca ha vy le loi thuong tin ha noi", "streetNormalize": "duong ca ha vy le loi thuong tin ha noi", "wardNormalize": "le loi thuong tin ha noi", "districtNormalize": "thuong tin ha noi", "preWardNormalize": "xa le loi thuong tin ha noi", "lat": 20.8227365, "lon": 105.9077014, "geolocation": {"latitude": 20.8227365, "longitude": 105.9077014}}, {"district": "Thường Tín", "ward": "Lê Lợi", "street": "Đường Dài Hà Vỹ", "city": "Hà Nội", "normalize": "duong dai ha vy le loi thuong tin ha noi", "streetNormalize": "duong dai ha vy le loi thuong tin ha noi", "wardNormalize": "le loi thuong tin ha noi", "districtNormalize": "thuong tin ha noi", "preWardNormalize": "xa le loi thuong tin ha noi", "lat": 20.8210642, "lon": 105.9002375, "geolocation": {"latitude": 20.8210642, "longitude": 105.9002375}}, {"district": "Thường Tín", "ward": "Liên Phương", "street": "Pháp Vân Cầu Giẽ", "city": "Hà Nội", "normalize": "phap van cau gie lien phuong thuong tin ha noi", "streetNormalize": "phap van cau gie lien phuong thuong tin ha noi", "wardNormalize": "lien phuong thuong tin ha noi", "districtNormalize": "thuong tin ha noi", "preWardNormalize": "xa lien phuong thuong tin ha noi", "lat": 20.8729037, "lon": 105.8781433, "geolocation": {"latitude": 20.8729037, "longitude": 105.8781433}}, {"district": "Thường Tín", "ward": "Minh Cường", "street": "Cầu Chui Vạn Điểm", "city": "Hà Nội", "normalize": "cau chui van diem minh cuong thuong tin ha noi", "streetNormalize": "cau chui van diem minh cuong thuong tin ha noi", "wardNormalize": "minh cuong thuong tin ha noi", "districtNormalize": "thuong tin ha noi", "preWardNormalize": "xa minh cuong thuong tin ha noi", "lat": 20.770999, "lon": 105.9039954, "geolocation": {"latitude": 20.770999, "longitude": 105.9039954}}, {"district": "Thường Tín", "ward": "Minh Cường", "street": "Quốc Lộ 1a", "city": "Hà Nội", "normalize": "quoc lo 1a minh cuong thuong tin ha noi", "streetNormalize": "quoc lo 1a minh cuong thuong tin ha noi", "wardNormalize": "minh cuong thuong tin ha noi", "districtNormalize": "thuong tin ha noi", "preWardNormalize": "xa minh cuong thuong tin ha noi", "lat": 20.7678889, "lon": 105.9048496, "geolocation": {"latitude": 20.7678889, "longitude": 105.9048496}}, {"district": "Thường Tín", "ward": "Nghiêm Xuyên", "street": "Cống Xuyên", "city": "Hà Nội", "normalize": "cong xuyen nghiem xuyen thuong tin ha noi", "streetNormalize": "cong xuyen nghiem xuyen thuong tin ha noi", "wardNormalize": "nghiem xuyen thuong tin ha noi", "districtNormalize": "thuong tin ha noi", "preWardNormalize": "xa nghiem xuyen thuong tin ha noi", "lat": 20.807618, "lon": 105.8589884, "geolocation": {"latitude": 20.807618, "longitude": 105.8589884}}, {"district": "Thường Tín", "ward": "Nghiêm Xuyên", "street": "Dũng Tiến", "city": "Hà Nội", "normalize": "dung tien nghiem xuyen thuong tin ha noi", "streetNormalize": "dung tien nghiem xuyen thuong tin ha noi", "wardNormalize": "nghiem xuyen thuong tin ha noi", "districtNormalize": "thuong tin ha noi", "preWardNormalize": "xa nghiem xuyen thuong tin ha noi", "lat": 20.8119149, "lon": 105.8554806, "geolocation": {"latitude": 20.8119149, "longitude": 105.8554806}}, {"district": "Thường Tín", "ward": "Nghiêm Xuyên", "street": "Liễu Viên", "city": "Hà Nội", "normalize": "lieu vien nghiem xuyen thuong tin ha noi", "streetNormalize": "lieu vien nghiem xuyen thuong tin ha noi", "wardNormalize": "nghiem xuyen thuong tin ha noi", "districtNormalize": "thuong tin ha noi", "preWardNormalize": "xa nghiem xuyen thuong tin ha noi", "lat": 20.8053951, "lon": 105.8420612, "geolocation": {"latitude": 20.8053951, "longitude": 105.8420612}}, {"district": "Thường Tín", "ward": "Nghiêm Xuyên", "street": "Nghiêm Xuyên", "city": "Hà Nội", "normalize": "nghiem xuyen nghiem xuyen thuong tin ha noi", "streetNormalize": "nghiem xuyen nghiem xuyen thuong tin ha noi", "wardNormalize": "nghiem xuyen thuong tin ha noi", "districtNormalize": "thuong tin ha noi", "preWardNormalize": "xa nghiem xuyen thuong tin ha noi", "lat": 20.8044646, "lon": 105.8485602, "geolocation": {"latitude": 20.8044646, "longitude": 105.8485602}}, {"district": "Thường Tín", "ward": "Nghiêm Xuyên", "street": "Nghiêm Xá", "city": "Hà Nội", "normalize": "nghiem xa nghiem xuyen thuong tin ha noi", "streetNormalize": "nghiem xa nghiem xuyen thuong tin ha noi", "wardNormalize": "nghiem xuyen thuong tin ha noi", "districtNormalize": "thuong tin ha noi", "preWardNormalize": "xa nghiem xuyen thuong tin ha noi", "lat": 20.810753, "lon": 105.8511427, "geolocation": {"latitude": 20.810753, "longitude": 105.8511427}}, {"district": "Thường Tín", "ward": "Nghiêm Xuyên", "street": "Đt 429", "city": "Hà Nội", "normalize": "dt 429 nghiem xuyen thuong tin ha noi", "streetNormalize": "dt 429 nghiem xuyen thuong tin ha noi", "wardNormalize": "nghiem xuyen thuong tin ha noi", "districtNormalize": "thuong tin ha noi", "preWardNormalize": "xa nghiem xuyen thuong tin ha noi", "lat": 20.8014882, "lon": 105.8611504, "geolocation": {"latitude": 20.8014882, "longitude": 105.8611504}}, {"district": "Thường Tín", "ward": "Nguyễn Trãi", "street": "Dũng Tiến", "city": "Hà Nội", "normalize": "dung tien nguyen trai thuong tin ha noi", "streetNormalize": "dung tien nguyen trai thuong tin ha noi", "wardNormalize": "nguyen trai thuong tin ha noi", "districtNormalize": "thuong tin ha noi", "preWardNormalize": "xa nguyen trai thuong tin ha noi", "lat": 20.8312593, "lon": 105.8519755, "geolocation": {"latitude": 20.8312593, "longitude": 105.8519755}}, {"district": "Thường Tín", "ward": "Nguyễn Trãi", "street": "Sông Nhuệ", "city": "Hà Nội", "normalize": "song nhue nguyen trai thuong tin ha noi", "streetNormalize": "song nhue nguyen trai thuong tin ha noi", "wardNormalize": "nguyen trai thuong tin ha noi", "districtNormalize": "thuong tin ha noi", "preWardNormalize": "xa nguyen trai thuong tin ha noi", "lat": 20.8526748, "lon": 105.847058, "geolocation": {"latitude": 20.8526748, "longitude": 105.847058}}, {"district": "Thường Tín", "ward": "Nhị Khê", "street": "Quốc Lộ 1a", "city": "Hà Nội", "normalize": "quoc lo 1a nhi khe thuong tin ha noi", "streetNormalize": "quoc lo 1a nhi khe thuong tin ha noi", "wardNormalize": "nhi khe thuong tin ha noi", "districtNormalize": "thuong tin ha noi", "preWardNormalize": "xa nhi khe thuong tin ha noi", "lat": 20.8929374404716, "lon": 105.856329783619, "geolocation": {"latitude": 20.8929374404716, "longitude": 105.856329783619}}, {"district": "Thường Tín", "ward": "Nhị Khê", "street": "Xóm 3", "city": "Hà Nội", "normalize": "xom 3 nhi khe thuong tin ha noi", "streetNormalize": "xom 3 nhi khe thuong tin ha noi", "wardNormalize": "nhi khe thuong tin ha noi", "districtNormalize": "thuong tin ha noi", "preWardNormalize": "xa nhi khe thuong tin ha noi", "lat": 20.8956046, "lon": 105.8524056, "geolocation": {"latitude": 20.8956046, "longitude": 105.8524056}}, {"district": "Thường Tín", "ward": "Nhị Khê", "street": "Xóm 4", "city": "Hà Nội", "normalize": "xom 4 nhi khe thuong tin ha noi", "streetNormalize": "xom 4 nhi khe thuong tin ha noi", "wardNormalize": "nhi khe thuong tin ha noi", "districtNormalize": "thuong tin ha noi", "preWardNormalize": "xa nhi khe thuong tin ha noi", "lat": 20.8957497, "lon": 105.8518343, "geolocation": {"latitude": 20.8957497, "longitude": 105.8518343}}, {"district": "Thường Tín", "ward": "Ninh Sở", "street": "Đê Hữu Hồng", "city": "Hà Nội", "normalize": "de huu hong ninh so thuong tin ha noi", "streetNormalize": "de huu hong ninh so thuong tin ha noi", "wardNormalize": "ninh so thuong tin ha noi", "districtNormalize": "thuong tin ha noi", "preWardNormalize": "xa ninh so thuong tin ha noi", "lat": 20.9020259, "lon": 105.8908254, "geolocation": {"latitude": 20.9020259, "longitude": 105.8908254}}, {"district": "Thường Tín", "ward": "Quất Động", "street": "Pháp Vân Cầu Giẽ", "city": "Hà Nội", "normalize": "phap van cau gie quat dong thuong tin ha noi", "streetNormalize": "phap van cau gie quat dong thuong tin ha noi", "wardNormalize": "quat dong thuong tin ha noi", "districtNormalize": "thuong tin ha noi", "preWardNormalize": "xa quat dong thuong tin ha noi", "lat": 20.845844, "lon": 105.8858043, "geolocation": {"latitude": 20.845844, "longitude": 105.8858043}}, {"district": "Thường Tín", "ward": "Quất Động", "street": "Quất Động", "city": "Hà Nội", "normalize": "quat dong quat dong thuong tin ha noi", "streetNormalize": "quat dong quat dong thuong tin ha noi", "wardNormalize": "quat dong thuong tin ha noi", "districtNormalize": "thuong tin ha noi", "preWardNormalize": "xa quat dong thuong tin ha noi", "lat": 20.842652, "lon": 105.8783435, "geolocation": {"latitude": 20.842652, "longitude": 105.8783435}}, {"district": "Thường Tín", "ward": "Quất Động", "street": "Quốc Lộ 1a", "city": "Hà Nội", "normalize": "quoc lo 1a quat dong thuong tin ha noi", "streetNormalize": "quoc lo 1a quat dong thuong tin ha noi", "wardNormalize": "quat dong thuong tin ha noi", "districtNormalize": "thuong tin ha noi", "preWardNormalize": "xa quat dong thuong tin ha noi", "lat": 20.8427487, "lon": 105.8728168, "geolocation": {"latitude": 20.8427487, "longitude": 105.8728168}}, {"district": "Thường Tín", "ward": "Thắng Lợi", "street": "Hai Doan", "city": "Hà Nội", "normalize": "hai doan thang loi thuong tin ha noi", "streetNormalize": "hai doan thang loi thuong tin ha noi", "wardNormalize": "thang loi thuong tin ha noi", "districtNormalize": "thuong tin ha noi", "preWardNormalize": "xa thang loi thuong tin ha noi", "lat": 20.8291311, "lon": 105.8819283, "geolocation": {"latitude": 20.8291311, "longitude": 105.8819283}}, {"district": "Thường Tín", "ward": "Thắng Lợi", "street": "Pháp Vân Cầu Giẽ", "city": "Hà Nội", "normalize": "phap van cau gie thang loi thuong tin ha noi", "streetNormalize": "phap van cau gie thang loi thuong tin ha noi", "wardNormalize": "thang loi thuong tin ha noi", "districtNormalize": "thuong tin ha noi", "preWardNormalize": "xa thang loi thuong tin ha noi", "lat": 20.8292423, "lon": 105.8881125, "geolocation": {"latitude": 20.8292423, "longitude": 105.8881125}}, {"district": "Thường Tín", "ward": "Thắng Lợi", "street": "Quốc Lộ 1a", "city": "Hà Nội", "normalize": "quoc lo 1a thang loi thuong tin ha noi", "streetNormalize": "quoc lo 1a thang loi thuong tin ha noi", "wardNormalize": "thang loi thuong tin ha noi", "districtNormalize": "thuong tin ha noi", "preWardNormalize": "xa thang loi thuong tin ha noi", "lat": 20.8191407, "lon": 105.8836429, "geolocation": {"latitude": 20.8191407, "longitude": 105.8836429}}, {"district": "Thường Tín", "ward": "Thống Nhất", "street": "Bách Phúc", "city": "Hà Nội", "normalize": "bach phuc thong nhat thuong tin ha noi", "streetNormalize": "bach phuc thong nhat thuong tin ha noi", "wardNormalize": "thong nhat thuong tin ha noi", "districtNormalize": "thuong tin ha noi", "preWardNormalize": "xa thong nhat thuong tin ha noi", "lat": 20.7949708, "lon": 105.9043834, "geolocation": {"latitude": 20.7949708, "longitude": 105.9043834}}, {"district": "Thường Tín", "ward": "Thống Nhất", "street": "Bộ Đầu Vạn Điểm", "city": "Hà Nội", "normalize": "bo dau van diem thong nhat thuong tin ha noi", "streetNormalize": "bo dau van diem thong nhat thuong tin ha noi", "wardNormalize": "thong nhat thuong tin ha noi", "districtNormalize": "thuong tin ha noi", "preWardNormalize": "xa thong nhat thuong tin ha noi", "lat": 20.7925257, "lon": 105.9106025, "geolocation": {"latitude": 20.7925257, "longitude": 105.9106025}}, {"district": "Thường Tín", "ward": "Thống Nhất", "street": "Hà Vỹ", "city": "Hà Nội", "normalize": "ha vy thong nhat thuong tin ha noi", "streetNormalize": "ha vy thong nhat thuong tin ha noi", "wardNormalize": "thong nhat thuong tin ha noi", "districtNormalize": "thuong tin ha noi", "preWardNormalize": "xa thong nhat thuong tin ha noi", "lat": 20.8123746, "lon": 105.9056209, "geolocation": {"latitude": 20.8123746, "longitude": 105.9056209}}, {"district": "Thường Tín", "ward": "Thống Nhất", "street": "Phúc Lộc", "city": "Hà Nội", "normalize": "phuc loc thong nhat thuong tin ha noi", "streetNormalize": "phuc loc thong nhat thuong tin ha noi", "wardNormalize": "thong nhat thuong tin ha noi", "districtNormalize": "thuong tin ha noi", "preWardNormalize": "xa thong nhat thuong tin ha noi", "lat": 20.7954395, "lon": 105.9035761, "geolocation": {"latitude": 20.7954395, "longitude": 105.9035761}}, {"district": "Thường Tín", "ward": "Thống Nhất", "street": "Phúc Trạch", "city": "Hà Nội", "normalize": "phuc trach thong nhat thuong tin ha noi", "streetNormalize": "phuc trach thong nhat thuong tin ha noi", "wardNormalize": "thong nhat thuong tin ha noi", "districtNormalize": "thuong tin ha noi", "preWardNormalize": "xa thong nhat thuong tin ha noi", "lat": 20.7957202, "lon": 105.9045189, "geolocation": {"latitude": 20.7957202, "longitude": 105.9045189}}, {"district": "Thường Tín", "ward": "Thống Nhất", "street": "Vạn Phúc", "city": "Hà Nội", "normalize": "van phuc thong nhat thuong tin ha noi", "streetNormalize": "van phuc thong nhat thuong tin ha noi", "wardNormalize": "thong nhat thuong tin ha noi", "districtNormalize": "thuong tin ha noi", "preWardNormalize": "xa thong nhat thuong tin ha noi", "lat": 20.79885, "lon": 105.9020773, "geolocation": {"latitude": 20.79885, "longitude": 105.9020773}}, {"district": "Thường Tín", "ward": "Thống Nhất", "street": "Xóm Dưới", "city": "Hà Nội", "normalize": "xom duoi thong nhat thuong tin ha noi", "streetNormalize": "xom duoi thong nhat thuong tin ha noi", "wardNormalize": "thong nhat thuong tin ha noi", "districtNormalize": "thuong tin ha noi", "preWardNormalize": "xa thong nhat thuong tin ha noi", "lat": 20.7950448, "lon": 105.9041108, "geolocation": {"latitude": 20.7950448, "longitude": 105.9041108}}, {"district": "Thường Tín", "ward": "Thống Nhất", "street": "Đt 73", "city": "Hà Nội", "normalize": "dt 73 thong nhat thuong tin ha noi", "streetNormalize": "dt 73 thong nhat thuong tin ha noi", "wardNormalize": "thong nhat thuong tin ha noi", "districtNormalize": "thuong tin ha noi", "preWardNormalize": "xa thong nhat thuong tin ha noi", "lat": 20.8098222, "lon": 105.9042004, "geolocation": {"latitude": 20.8098222, "longitude": 105.9042004}}, {"district": "Thường Tín", "ward": "Thống Nhất", "street": "Đê Sông Hồng", "city": "Hà Nội", "normalize": "de song hong thong nhat thuong tin ha noi", "streetNormalize": "de song hong thong nhat thuong tin ha noi", "wardNormalize": "thong nhat thuong tin ha noi", "districtNormalize": "thuong tin ha noi", "preWardNormalize": "xa thong nhat thuong tin ha noi", "lat": 20.8021365, "lon": 105.911411, "geolocation": {"latitude": 20.8021365, "longitude": 105.911411}}, {"district": "Thường Tín", "ward": "Thư Phú", "street": "Chương Dương Thư Phú", "city": "Hà Nội", "normalize": "chuong duong thu phu thu phu thuong tin ha noi", "streetNormalize": "chuong duong thu phu thu phu thuong tin ha noi", "wardNormalize": "thu phu thuong tin ha noi", "districtNormalize": "thuong tin ha noi", "preWardNormalize": "xa thu phu thuong tin ha noi", "lat": 20.8614362, "lon": 105.9031349, "geolocation": {"latitude": 20.8614362, "longitude": 105.9031349}}, {"district": "Thường Tín", "ward": "Thư Phú", "street": "Vĩnh Lộc", "city": "Hà Nội", "normalize": "vinh loc thu phu thuong tin ha noi", "streetNormalize": "vinh loc thu phu thuong tin ha noi", "wardNormalize": "thu phu thuong tin ha noi", "districtNormalize": "thuong tin ha noi", "preWardNormalize": "xa thu phu thuong tin ha noi", "lat": 20.8647283, "lon": 105.9041126, "geolocation": {"latitude": 20.8647283, "longitude": 105.9041126}}, {"district": "Thường Tín", "ward": "Thư Phú", "street": "Đt 427", "city": "Hà Nội", "normalize": "dt 427 thu phu thuong tin ha noi", "streetNormalize": "dt 427 thu phu thuong tin ha noi", "wardNormalize": "thu phu thuong tin ha noi", "districtNormalize": "thuong tin ha noi", "preWardNormalize": "xa thu phu thuong tin ha noi", "lat": 20.8671056, "lon": 105.8957292, "geolocation": {"latitude": 20.8671056, "longitude": 105.8957292}}, {"district": "Thường Tín", "ward": "Thư Phú", "street": "Đê Sông Hồng", "city": "Hà Nội", "normalize": "de song hong thu phu thuong tin ha noi", "streetNormalize": "de song hong thu phu thuong tin ha noi", "wardNormalize": "thu phu thuong tin ha noi", "districtNormalize": "thuong tin ha noi", "preWardNormalize": "xa thu phu thuong tin ha noi", "lat": 20.8431337, "lon": 105.9133151, "geolocation": {"latitude": 20.8431337, "longitude": 105.9133151}}, {"district": "Thường Tín", "ward": "Thường Tín", "street": "Chợ Bằng", "city": "Hà Nội", "normalize": "cho bang thuong tin thuong tin ha noi", "streetNormalize": "cho bang thuong tin thuong tin ha noi", "wardNormalize": "thuong tin thuong tin ha noi", "districtNormalize": "thuong tin ha noi", "preWardNormalize": "thi tran thuong tin thuong tin ha noi", "lat": 20.8720888, "lon": 105.8655623, "geolocation": {"latitude": 20.8720888, "longitude": 105.8655623}}, {"district": "Thường Tín", "ward": "Thường Tín", "street": "Danh Hương", "city": "Hà Nội", "normalize": "danh huong thuong tin thuong tin ha noi", "streetNormalize": "danh huong thuong tin thuong tin ha noi", "wardNormalize": "thuong tin thuong tin ha noi", "districtNormalize": "thuong tin ha noi", "preWardNormalize": "thi tran thuong tin thuong tin ha noi", "lat": 20.8700935, "lon": 105.8641941, "geolocation": {"latitude": 20.8700935, "longitude": 105.8641941}}, {"district": "Thường Tín", "ward": "Thường Tín", "street": "Lý Công Bật", "city": "Hà Nội", "normalize": "ly cong bat thuong tin thuong tin ha noi", "streetNormalize": "ly cong bat thuong tin thuong tin ha noi", "wardNormalize": "thuong tin thuong tin ha noi", "districtNormalize": "thuong tin ha noi", "preWardNormalize": "thi tran thuong tin thuong tin ha noi", "lat": 20.8667083, "lon": 105.8670438, "geolocation": {"latitude": 20.8667083, "longitude": 105.8670438}}, {"district": "Thường Tín", "ward": "Thường Tín", "street": "Nguyễn Du", "city": "Hà Nội", "normalize": "nguyen du thuong tin thuong tin ha noi", "streetNormalize": "nguyen du thuong tin thuong tin ha noi", "wardNormalize": "thuong tin thuong tin ha noi", "districtNormalize": "thuong tin ha noi", "preWardNormalize": "thi tran thuong tin thuong tin ha noi", "lat": 20.8710141, "lon": 105.8615813, "geolocation": {"latitude": 20.8710141, "longitude": 105.8615813}}, {"district": "Thường Tín", "ward": "Thường Tín", "street": "Nguyễn Trãi", "city": "Hà Nội", "normalize": "nguyen trai thuong tin thuong tin ha noi", "streetNormalize": "nguyen trai thuong tin thuong tin ha noi", "wardNormalize": "thuong tin thuong tin ha noi", "districtNormalize": "thuong tin ha noi", "preWardNormalize": "thi tran thuong tin thuong tin ha noi", "lat": 20.8693217, "lon": 105.8601043, "geolocation": {"latitude": 20.8693217, "longitude": 105.8601043}}, {"district": "Thường Tín", "ward": "Thường Tín", "street": "Quốc Lộ 1a", "city": "Hà Nội", "normalize": "quoc lo 1a thuong tin thuong tin ha noi", "streetNormalize": "quoc lo 1a thuong tin thuong tin ha noi", "wardNormalize": "thuong tin thuong tin ha noi", "districtNormalize": "thuong tin ha noi", "preWardNormalize": "thi tran thuong tin thuong tin ha noi", "lat": 20.8737321, "lon": 105.8634314, "geolocation": {"latitude": 20.8737321, "longitude": 105.8634314}}, {"district": "Thường Tín", "ward": "Thường Tín", "street": "Thiên Lý", "city": "Hà Nội", "normalize": "thien ly thuong tin thuong tin ha noi", "streetNormalize": "thien ly thuong tin thuong tin ha noi", "wardNormalize": "thuong tin thuong tin ha noi", "districtNormalize": "thuong tin ha noi", "preWardNormalize": "thi tran thuong tin thuong tin ha noi", "lat": 20.8659477946217, "lon": 105.867666176118, "geolocation": {"latitude": 20.8659477946217, "longitude": 105.867666176118}}, {"district": "Thường Tín", "ward": "Thường Tín", "street": "Thượng Hiền", "city": "Hà Nội", "normalize": "thuong hien thuong tin thuong tin ha noi", "streetNormalize": "thuong hien thuong tin thuong tin ha noi", "wardNormalize": "thuong tin thuong tin ha noi", "districtNormalize": "thuong tin ha noi", "preWardNormalize": "thi tran thuong tin thuong tin ha noi", "lat": 20.8667539, "lon": 105.868618, "geolocation": {"latitude": 20.8667539, "longitude": 105.868618}}, {"district": "Thường Tín", "ward": "Thường Tín", "street": "Trần Phú", "city": "Hà Nội", "normalize": "tran phu thuong tin thuong tin ha noi", "streetNormalize": "tran phu thuong tin thuong tin ha noi", "wardNormalize": "thuong tin thuong tin ha noi", "districtNormalize": "thuong tin ha noi", "preWardNormalize": "thi tran thuong tin thuong tin ha noi", "lat": 20.8676413, "lon": 105.861479, "geolocation": {"latitude": 20.8676413, "longitude": 105.861479}}, {"district": "Thường Tín", "ward": "Thường Tín", "street": "Từ Bá Cơ", "city": "Hà Nội", "normalize": "tu ba co thuong tin thuong tin ha noi", "streetNormalize": "tu ba co thuong tin thuong tin ha noi", "wardNormalize": "thuong tin thuong tin ha noi", "districtNormalize": "thuong tin ha noi", "preWardNormalize": "thi tran thuong tin thuong tin ha noi", "lat": 20.8700864, "lon": 105.8619499, "geolocation": {"latitude": 20.8700864, "longitude": 105.8619499}}, {"district": "Thường Tín", "ward": "Thường Tín", "street": "Từ Giấy", "city": "Hà Nội", "normalize": "tu giay thuong tin thuong tin ha noi", "streetNormalize": "tu giay thuong tin thuong tin ha noi", "wardNormalize": "thuong tin thuong tin ha noi", "districtNormalize": "thuong tin ha noi", "preWardNormalize": "thi tran thuong tin thuong tin ha noi", "lat": 20.8699038, "lon": 105.8599034, "geolocation": {"latitude": 20.8699038, "longitude": 105.8599034}}, {"district": "Thường Tín", "ward": "Thường Tín", "street": "Vũ Đức Trinh", "city": "Hà Nội", "normalize": "vu duc trinh thuong tin thuong tin ha noi", "streetNormalize": "vu duc trinh thuong tin thuong tin ha noi", "wardNormalize": "thuong tin thuong tin ha noi", "districtNormalize": "thuong tin ha noi", "preWardNormalize": "thi tran thuong tin thuong tin ha noi", "lat": 20.8711444, "lon": 105.8603665, "geolocation": {"latitude": 20.8711444, "longitude": 105.8603665}}, {"district": "Thường Tín", "ward": "Thường Tín", "street": "Đt 427", "city": "Hà Nội", "normalize": "dt 427 thuong tin thuong tin ha noi", "streetNormalize": "dt 427 thuong tin thuong tin ha noi", "wardNormalize": "thuong tin thuong tin ha noi", "districtNormalize": "thuong tin ha noi", "preWardNormalize": "thi tran thuong tin thuong tin ha noi", "lat": 20.8718885, "lon": 105.8669408, "geolocation": {"latitude": 20.8718885, "longitude": 105.8669408}}, {"district": "Thường Tín", "ward": "Tiền Phong", "street": "Phố Mới", "city": "Hà Nội", "normalize": "pho moi tien phong thuong tin ha noi", "streetNormalize": "pho moi tien phong thuong tin ha noi", "wardNormalize": "tien phong thuong tin ha noi", "districtNormalize": "thuong tin ha noi", "preWardNormalize": "xa tien phong thuong tin ha noi", "lat": 20.8592601, "lon": 105.8319347, "geolocation": {"latitude": 20.8592601, "longitude": 105.8319347}}, {"district": "Thường Tín", "ward": "Tiền Phong", "street": "Thăng Long", "city": "Hà Nội", "normalize": "thang long tien phong thuong tin ha noi", "streetNormalize": "thang long tien phong thuong tin ha noi", "wardNormalize": "tien phong thuong tin ha noi", "districtNormalize": "thuong tin ha noi", "preWardNormalize": "xa tien phong thuong tin ha noi", "lat": 20.8592205, "lon": 105.8297799, "geolocation": {"latitude": 20.8592205, "longitude": 105.8297799}}, {"district": "Thường Tín", "ward": "Tiền Phong", "street": "Xóm Minh Ngọc", "city": "Hà Nội", "normalize": "xom minh ngoc tien phong thuong tin ha noi", "streetNormalize": "xom minh ngoc tien phong thuong tin ha noi", "wardNormalize": "tien phong thuong tin ha noi", "districtNormalize": "thuong tin ha noi", "preWardNormalize": "xa tien phong thuong tin ha noi", "lat": 20.8554271, "lon": 105.8371634, "geolocation": {"latitude": 20.8554271, "longitude": 105.8371634}}, {"district": "Thường Tín", "ward": "Tiền Phong", "street": "Xóm Đình", "city": "Hà Nội", "normalize": "xom dinh tien phong thuong tin ha noi", "streetNormalize": "xom dinh tien phong thuong tin ha noi", "wardNormalize": "tien phong thuong tin ha noi", "districtNormalize": "thuong tin ha noi", "preWardNormalize": "xa tien phong thuong tin ha noi", "lat": 20.854877, "lon": 105.8356524, "geolocation": {"latitude": 20.854877, "longitude": 105.8356524}}, {"district": "Thường Tín", "ward": "Tiền Phong", "street": "Xóm Đầm Sen", "city": "Hà Nội", "normalize": "xom dam sen tien phong thuong tin ha noi", "streetNormalize": "xom dam sen tien phong thuong tin ha noi", "wardNormalize": "tien phong thuong tin ha noi", "districtNormalize": "thuong tin ha noi", "preWardNormalize": "xa tien phong thuong tin ha noi", "lat": 20.8542118, "lon": 105.8372519, "geolocation": {"latitude": 20.8542118, "longitude": 105.8372519}}, {"district": "Thường Tín", "ward": "Tiền Phong", "street": "Đường Láng", "city": "Hà Nội", "normalize": "duong lang tien phong thuong tin ha noi", "streetNormalize": "duong lang tien phong thuong tin ha noi", "wardNormalize": "tien phong thuong tin ha noi", "districtNormalize": "thuong tin ha noi", "preWardNormalize": "xa tien phong thuong tin ha noi", "lat": 20.859971, "lon": 105.8299138, "geolocation": {"latitude": 20.859971, "longitude": 105.8299138}}, {"district": "Thường Tín", "ward": "Tô Hiệu", "street": "Pháp Vân Cầu Giẽ", "city": "Hà Nội", "normalize": "phap van cau gie to hieu thuong tin ha noi", "streetNormalize": "phap van cau gie to hieu thuong tin ha noi", "wardNormalize": "to hieu thuong tin ha noi", "districtNormalize": "thuong tin ha noi", "preWardNormalize": "xa to hieu thuong tin ha noi", "lat": 20.8042865, "lon": 105.8934586, "geolocation": {"latitude": 20.8042865, "longitude": 105.8934586}}, {"district": "Thường Tín", "ward": "Tô Hiệu", "street": "Phúc Trạch", "city": "Hà Nội", "normalize": "phuc trach to hieu thuong tin ha noi", "streetNormalize": "phuc trach to hieu thuong tin ha noi", "wardNormalize": "to hieu thuong tin ha noi", "districtNormalize": "thuong tin ha noi", "preWardNormalize": "xa to hieu thuong tin ha noi", "lat": 20.7966813602129, "lon": 105.899725234255, "geolocation": {"latitude": 20.7966813602129, "longitude": 105.899725234255}}, {"district": "Thường Tín", "ward": "Tô Hiệu", "street": "Quốc Lộ 1a", "city": "Hà Nội", "normalize": "quoc lo 1a to hieu thuong tin ha noi", "streetNormalize": "quoc lo 1a to hieu thuong tin ha noi", "wardNormalize": "to hieu thuong tin ha noi", "districtNormalize": "thuong tin ha noi", "preWardNormalize": "xa to hieu thuong tin ha noi", "lat": 20.8035583, "lon": 105.8839637, "geolocation": {"latitude": 20.8035583, "longitude": 105.8839637}}, {"district": "Thường Tín", "ward": "Tô Hiệu", "street": "Thôn An Định", "city": "Hà Nội", "normalize": "thon an dinh to hieu thuong tin ha noi", "streetNormalize": "thon an dinh to hieu thuong tin ha noi", "wardNormalize": "to hieu thuong tin ha noi", "districtNormalize": "thuong tin ha noi", "preWardNormalize": "xa to hieu thuong tin ha noi", "lat": 20.7969329704412, "lon": 105.887351555968, "geolocation": {"latitude": 20.7969329704412, "longitude": 105.887351555968}}, {"district": "Thường Tín", "ward": "Tô Hiệu", "street": "Tử Dương", "city": "Hà Nội", "normalize": "tu duong to hieu thuong tin ha noi", "streetNormalize": "tu duong to hieu thuong tin ha noi", "wardNormalize": "to hieu thuong tin ha noi", "districtNormalize": "thuong tin ha noi", "preWardNormalize": "xa to hieu thuong tin ha noi", "lat": 20.8055336, "lon": 105.880462, "geolocation": {"latitude": 20.8055336, "longitude": 105.880462}}, {"district": "Thường Tín", "ward": "Tô Hiệu", "street": "Đt 429", "city": "Hà Nội", "normalize": "dt 429 to hieu thuong tin ha noi", "streetNormalize": "dt 429 to hieu thuong tin ha noi", "wardNormalize": "to hieu thuong tin ha noi", "districtNormalize": "thuong tin ha noi", "preWardNormalize": "xa to hieu thuong tin ha noi", "lat": 20.8033469, "lon": 105.8785798, "geolocation": {"latitude": 20.8033469, "longitude": 105.8785798}}, {"district": "Thường Tín", "ward": "Tô Hiệu", "street": "Đt 73", "city": "Hà Nội", "normalize": "dt 73 to hieu thuong tin ha noi", "streetNormalize": "dt 73 to hieu thuong tin ha noi", "wardNormalize": "to hieu thuong tin ha noi", "districtNormalize": "thuong tin ha noi", "preWardNormalize": "xa to hieu thuong tin ha noi", "lat": 20.8063466, "lon": 105.8890262, "geolocation": {"latitude": 20.8063466, "longitude": 105.8890262}}, {"district": "Thường Tín", "ward": "Tự Nhiên", "street": "Đê Sông Hồng", "city": "Hà Nội", "normalize": "de song hong tu nhien thuong tin ha noi", "streetNormalize": "de song hong tu nhien thuong tin ha noi", "wardNormalize": "tu nhien thuong tin ha noi", "districtNormalize": "thuong tin ha noi", "preWardNormalize": "xa tu nhien thuong tin ha noi", "lat": 20.8431337, "lon": 105.9133151, "geolocation": {"latitude": 20.8431337, "longitude": 105.9133151}}, {"district": "Thường Tín", "ward": "Văn Bình", "street": "30/4", "city": "Hà Nội", "normalize": "30/4 van binh thuong tin ha noi", "streetNormalize": "30/4 van binh thuong tin ha noi", "wardNormalize": "van binh thuong tin ha noi", "districtNormalize": "thuong tin ha noi", "preWardNormalize": "xa van binh thuong tin ha noi", "lat": 20.8882383, "lon": 105.8604552, "geolocation": {"latitude": 20.8882383, "longitude": 105.8604552}}, {"district": "Thường Tín", "ward": "Văn Bình", "street": "Bạch Đằng", "city": "Hà Nội", "normalize": "bach dang van binh thuong tin ha noi", "streetNormalize": "bach dang van binh thuong tin ha noi", "wardNormalize": "van binh thuong tin ha noi", "districtNormalize": "thuong tin ha noi", "preWardNormalize": "xa van binh thuong tin ha noi", "lat": 20.8847207, "lon": 105.863728, "geolocation": {"latitude": 20.8847207, "longitude": 105.863728}}, {"district": "Thường Tín", "ward": "Văn Bình", "street": "Chợ Bằng", "city": "Hà Nội", "normalize": "cho bang van binh thuong tin ha noi", "streetNormalize": "cho bang van binh thuong tin ha noi", "wardNormalize": "van binh thuong tin ha noi", "districtNormalize": "thuong tin ha noi", "preWardNormalize": "xa van binh thuong tin ha noi", "lat": 20.8737651, "lon": 105.8650278, "geolocation": {"latitude": 20.8737651, "longitude": 105.8650278}}, {"district": "Thường Tín", "ward": "Văn Bình", "street": "Cộng Hòa", "city": "Hà Nội", "normalize": "cong hoa van binh thuong tin ha noi", "streetNormalize": "cong hoa van binh thuong tin ha noi", "wardNormalize": "van binh thuong tin ha noi", "districtNormalize": "thuong tin ha noi", "preWardNormalize": "xa van binh thuong tin ha noi", "lat": 20.8858712, "lon": 105.8588135, "geolocation": {"latitude": 20.8858712, "longitude": 105.8588135}}, {"district": "Thường Tín", "ward": "Văn Bình", "street": "Giáp Hội", "city": "Hà Nội", "normalize": "giap hoi van binh thuong tin ha noi", "streetNormalize": "giap hoi van binh thuong tin ha noi", "wardNormalize": "van binh thuong tin ha noi", "districtNormalize": "thuong tin ha noi", "preWardNormalize": "xa van binh thuong tin ha noi", "lat": 20.8871625, "lon": 105.8610639, "geolocation": {"latitude": 20.8871625, "longitude": 105.8610639}}, {"district": "Thường Tín", "ward": "Văn Bình", "street": "Giải Phóng", "city": "Hà Nội", "normalize": "giai phong van binh thuong tin ha noi", "streetNormalize": "giai phong van binh thuong tin ha noi", "wardNormalize": "van binh thuong tin ha noi", "districtNormalize": "thuong tin ha noi", "preWardNormalize": "xa van binh thuong tin ha noi", "lat": 20.8816746, "lon": 105.8615902, "geolocation": {"latitude": 20.8816746, "longitude": 105.8615902}}, {"district": "Thường Tín", "ward": "Văn Bình", "street": "Hòa Bình", "city": "Hà Nội", "normalize": "hoa binh van binh thuong tin ha noi", "streetNormalize": "hoa binh van binh thuong tin ha noi", "wardNormalize": "van binh thuong tin ha noi", "districtNormalize": "thuong tin ha noi", "preWardNormalize": "xa van binh thuong tin ha noi", "lat": 20.882827, "lon": 105.8602406, "geolocation": {"latitude": 20.882827, "longitude": 105.8602406}}, {"district": "Thường Tín", "ward": "Văn Bình", "street": "Nam Lang", "city": "Hà Nội", "normalize": "nam lang van binh thuong tin ha noi", "streetNormalize": "nam lang van binh thuong tin ha noi", "wardNormalize": "van binh thuong tin ha noi", "districtNormalize": "thuong tin ha noi", "preWardNormalize": "xa van binh thuong tin ha noi", "lat": 20.873673, "lon": 105.8690026, "geolocation": {"latitude": 20.873673, "longitude": 105.8690026}}, {"district": "Thường Tín", "ward": "Văn Bình", "street": "Pháp Vân Cầu Giẽ", "city": "Hà Nội", "normalize": "phap van cau gie van binh thuong tin ha noi", "streetNormalize": "phap van cau gie van binh thuong tin ha noi", "wardNormalize": "van binh thuong tin ha noi", "districtNormalize": "thuong tin ha noi", "preWardNormalize": "xa van binh thuong tin ha noi", "lat": 20.8831837, "lon": 105.8716093, "geolocation": {"latitude": 20.8831837, "longitude": 105.8716093}}, {"district": "Thường Tín", "ward": "Văn Bình", "street": "Quốc Lộ 1a", "city": "Hà Nội", "normalize": "quoc lo 1a van binh thuong tin ha noi", "streetNormalize": "quoc lo 1a van binh thuong tin ha noi", "wardNormalize": "van binh thuong tin ha noi", "districtNormalize": "thuong tin ha noi", "preWardNormalize": "xa van binh thuong tin ha noi", "lat": 20.8854056, "lon": 105.8586128, "geolocation": {"latitude": 20.8854056, "longitude": 105.8586128}}, {"district": "Thường Tín", "ward": "Văn Bình", "street": "Thanh Niên", "city": "Hà Nội", "normalize": "thanh nien van binh thuong tin ha noi", "streetNormalize": "thanh nien van binh thuong tin ha noi", "wardNormalize": "van binh thuong tin ha noi", "districtNormalize": "thuong tin ha noi", "preWardNormalize": "xa van binh thuong tin ha noi", "lat": 20.8857578, "lon": 105.8681211, "geolocation": {"latitude": 20.8857578, "longitude": 105.8681211}}, {"district": "Thường Tín", "ward": "Văn Bình", "street": "Thượng Hồng", "city": "Hà Nội", "normalize": "thuong hong van binh thuong tin ha noi", "streetNormalize": "thuong hong van binh thuong tin ha noi", "wardNormalize": "van binh thuong tin ha noi", "districtNormalize": "thuong tin ha noi", "preWardNormalize": "xa van binh thuong tin ha noi", "lat": 20.884679, "lon": 105.8605125, "geolocation": {"latitude": 20.884679, "longitude": 105.8605125}}, {"district": "Thường Tín", "ward": "Văn Bình", "street": "Trung Hòa", "city": "Hà Nội", "normalize": "trung hoa van binh thuong tin ha noi", "streetNormalize": "trung hoa van binh thuong tin ha noi", "wardNormalize": "van binh thuong tin ha noi", "districtNormalize": "thuong tin ha noi", "preWardNormalize": "xa van binh thuong tin ha noi", "lat": 20.8865433, "lon": 105.8597339, "geolocation": {"latitude": 20.8865433, "longitude": 105.8597339}}, {"district": "Thường Tín", "ward": "Văn Bình", "street": "Trần Hữu Nhưng", "city": "Hà Nội", "normalize": "tran huu nhung van binh thuong tin ha noi", "streetNormalize": "tran huu nhung van binh thuong tin ha noi", "wardNormalize": "van binh thuong tin ha noi", "districtNormalize": "thuong tin ha noi", "preWardNormalize": "xa van binh thuong tin ha noi", "lat": 20.8807413, "lon": 105.8606965, "geolocation": {"latitude": 20.8807413, "longitude": 105.8606965}}, {"district": "Thường Tín", "ward": "Văn Bình", "street": "Trần Trọng Liêu", "city": "Hà Nội", "normalize": "tran trong lieu van binh thuong tin ha noi", "streetNormalize": "tran trong lieu van binh thuong tin ha noi", "wardNormalize": "van binh thuong tin ha noi", "districtNormalize": "thuong tin ha noi", "preWardNormalize": "xa van binh thuong tin ha noi", "lat": 20.885749, "lon": 105.8675333, "geolocation": {"latitude": 20.885749, "longitude": 105.8675333}}, {"district": "Thường Tín", "ward": "Văn Bình", "street": "Tôn Đức Thắng", "city": "Hà Nội", "normalize": "ton duc thang van binh thuong tin ha noi", "streetNormalize": "ton duc thang van binh thuong tin ha noi", "wardNormalize": "van binh thuong tin ha noi", "districtNormalize": "thuong tin ha noi", "preWardNormalize": "xa van binh thuong tin ha noi", "lat": 20.8822232, "lon": 105.8601106, "geolocation": {"latitude": 20.8822232, "longitude": 105.8601106}}, {"district": "Thường Tín", "ward": "Văn Bình", "street": "Đoàn Kết", "city": "Hà Nội", "normalize": "doan ket van binh thuong tin ha noi", "streetNormalize": "doan ket van binh thuong tin ha noi", "wardNormalize": "van binh thuong tin ha noi", "districtNormalize": "thuong tin ha noi", "preWardNormalize": "xa van binh thuong tin ha noi", "lat": 20.8852916, "lon": 105.8596049, "geolocation": {"latitude": 20.8852916, "longitude": 105.8596049}}, {"district": "Thường Tín", "ward": "Văn Bình", "street": "Đt 427", "city": "Hà Nội", "normalize": "dt 427 van binh thuong tin ha noi", "streetNormalize": "dt 427 van binh thuong tin ha noi", "wardNormalize": "van binh thuong tin ha noi", "districtNormalize": "thuong tin ha noi", "preWardNormalize": "xa van binh thuong tin ha noi", "lat": 20.8717607, "lon": 105.8686641, "geolocation": {"latitude": 20.8717607, "longitude": 105.8686641}}, {"district": "Thường Tín", "ward": "Văn Bình", "street": "Đường Đình", "city": "Hà Nội", "normalize": "duong dinh van binh thuong tin ha noi", "streetNormalize": "duong dinh van binh thuong tin ha noi", "wardNormalize": "van binh thuong tin ha noi", "districtNormalize": "thuong tin ha noi", "preWardNormalize": "xa van binh thuong tin ha noi", "lat": 20.8860037, "lon": 105.8655778, "geolocation": {"latitude": 20.8860037, "longitude": 105.8655778}}, {"district": "Thường Tín", "ward": "Vạn Điểm", "street": "Bộ Đầu Vạn Điểm", "city": "Hà Nội", "normalize": "bo dau van diem van diem thuong tin ha noi", "streetNormalize": "bo dau van diem van diem thuong tin ha noi", "wardNormalize": "van diem thuong tin ha noi", "districtNormalize": "thuong tin ha noi", "preWardNormalize": "xa van diem thuong tin ha noi", "lat": 20.7869107, "lon": 105.9101351, "geolocation": {"latitude": 20.7869107, "longitude": 105.9101351}}, {"district": "Thường Tín", "ward": "Vạn Điểm", "street": "Cầu Gạo", "city": "Hà Nội", "normalize": "cau gao van diem thuong tin ha noi", "streetNormalize": "cau gao van diem thuong tin ha noi", "wardNormalize": "van diem thuong tin ha noi", "districtNormalize": "thuong tin ha noi", "preWardNormalize": "xa van diem thuong tin ha noi", "lat": 20.7812911, "lon": 105.9109109, "geolocation": {"latitude": 20.7812911, "longitude": 105.9109109}}, {"district": "Thường Tín", "ward": "Vạn Điểm", "street": "Pháp Vân Cầu Giẽ", "city": "Hà Nội", "normalize": "phap van cau gie van diem thuong tin ha noi", "streetNormalize": "phap van cau gie van diem thuong tin ha noi", "wardNormalize": "van diem thuong tin ha noi", "districtNormalize": "thuong tin ha noi", "preWardNormalize": "xa van diem thuong tin ha noi", "lat": 20.7805366, "lon": 105.903213, "geolocation": {"latitude": 20.7805366, "longitude": 105.903213}}, {"district": "Thường Tín", "ward": "Vạn Điểm", "street": "Phú Thịnh", "city": "Hà Nội", "normalize": "phu thinh van diem thuong tin ha noi", "streetNormalize": "phu thinh van diem thuong tin ha noi", "wardNormalize": "van diem thuong tin ha noi", "districtNormalize": "thuong tin ha noi", "preWardNormalize": "xa van diem thuong tin ha noi", "lat": 20.7854854, "lon": 105.9115957, "geolocation": {"latitude": 20.7854854, "longitude": 105.9115957}}, {"district": "Thường Tín", "ward": "Vạn Điểm", "street": "Phố Chợ", "city": "Hà Nội", "normalize": "pho cho van diem thuong tin ha noi", "streetNormalize": "pho cho van diem thuong tin ha noi", "wardNormalize": "van diem thuong tin ha noi", "districtNormalize": "thuong tin ha noi", "preWardNormalize": "xa van diem thuong tin ha noi", "lat": 20.7732656, "lon": 105.90131, "geolocation": {"latitude": 20.7732656, "longitude": 105.90131}}, {"district": "Thường Tín", "ward": "Vạn Điểm", "street": "Quốc Lộ 1a", "city": "Hà Nội", "normalize": "quoc lo 1a van diem thuong tin ha noi", "streetNormalize": "quoc lo 1a van diem thuong tin ha noi", "wardNormalize": "van diem thuong tin ha noi", "districtNormalize": "thuong tin ha noi", "preWardNormalize": "xa van diem thuong tin ha noi", "lat": 20.7724328, "lon": 105.8999452, "geolocation": {"latitude": 20.7724328, "longitude": 105.8999452}}, {"district": "Thường Tín", "ward": "Vạn Điểm", "street": "Rạng Đông", "city": "Hà Nội", "normalize": "rang dong van diem thuong tin ha noi", "streetNormalize": "rang dong van diem thuong tin ha noi", "wardNormalize": "van diem thuong tin ha noi", "districtNormalize": "thuong tin ha noi", "preWardNormalize": "xa van diem thuong tin ha noi", "lat": 20.7858984, "lon": 105.9127775, "geolocation": {"latitude": 20.7858984, "longitude": 105.9127775}}, {"district": "Thường Tín", "ward": "Vạn Điểm", "street": "Thôn Đặng Xá", "city": "Hà Nội", "normalize": "thon dang xa van diem thuong tin ha noi", "streetNormalize": "thon dang xa van diem thuong tin ha noi", "wardNormalize": "van diem thuong tin ha noi", "districtNormalize": "thuong tin ha noi", "preWardNormalize": "xa van diem thuong tin ha noi", "lat": 20.7822937061251, "lon": 105.912502738569, "geolocation": {"latitude": 20.7822937061251, "longitude": 105.912502738569}}, {"district": "Thường Tín", "ward": "Vạn Điểm", "street": "Thống Nhất", "city": "Hà Nội", "normalize": "thong nhat van diem thuong tin ha noi", "streetNormalize": "thong nhat van diem thuong tin ha noi", "wardNormalize": "van diem thuong tin ha noi", "districtNormalize": "thuong tin ha noi", "preWardNormalize": "xa van diem thuong tin ha noi", "lat": 20.7745453, "lon": 105.9077882, "geolocation": {"latitude": 20.7745453, "longitude": 105.9077882}}, {"district": "Thường Tín", "ward": "Vạn Điểm", "street": "Vạn Long", "city": "Hà Nội", "normalize": "van long van diem thuong tin ha noi", "streetNormalize": "van long van diem thuong tin ha noi", "wardNormalize": "van diem thuong tin ha noi", "districtNormalize": "thuong tin ha noi", "preWardNormalize": "xa van diem thuong tin ha noi", "lat": 20.7750003, "lon": 105.9074762, "geolocation": {"latitude": 20.7750003, "longitude": 105.9074762}}, {"district": "Thường Tín", "ward": "Vạn Điểm", "street": "Vạn Lộc", "city": "Hà Nội", "normalize": "van loc van diem thuong tin ha noi", "streetNormalize": "van loc van diem thuong tin ha noi", "wardNormalize": "van diem thuong tin ha noi", "districtNormalize": "thuong tin ha noi", "preWardNormalize": "xa van diem thuong tin ha noi", "lat": 20.7735873, "lon": 105.908415, "geolocation": {"latitude": 20.7735873, "longitude": 105.908415}}, {"district": "Thường Tín", "ward": "Vạn Điểm", "street": "Vạn Lợi", "city": "Hà Nội", "normalize": "van loi van diem thuong tin ha noi", "streetNormalize": "van loi van diem thuong tin ha noi", "wardNormalize": "van diem thuong tin ha noi", "districtNormalize": "thuong tin ha noi", "preWardNormalize": "xa van diem thuong tin ha noi", "lat": 20.7740126, "lon": 105.9081377, "geolocation": {"latitude": 20.7740126, "longitude": 105.9081377}}, {"district": "Thường Tín", "ward": "Vạn Điểm", "street": "Vạn Minh", "city": "Hà Nội", "normalize": "van minh van diem thuong tin ha noi", "streetNormalize": "van minh van diem thuong tin ha noi", "wardNormalize": "van diem thuong tin ha noi", "districtNormalize": "thuong tin ha noi", "preWardNormalize": "xa van diem thuong tin ha noi", "lat": 20.7755366, "lon": 105.9071342, "geolocation": {"latitude": 20.7755366, "longitude": 105.9071342}}, {"district": "Thường Tín", "ward": "Vạn Điểm", "street": "Xóm Cộng Hòa", "city": "Hà Nội", "normalize": "xom cong hoa van diem thuong tin ha noi", "streetNormalize": "xom cong hoa van diem thuong tin ha noi", "wardNormalize": "van diem thuong tin ha noi", "districtNormalize": "thuong tin ha noi", "preWardNormalize": "xa van diem thuong tin ha noi", "lat": 20.7802147, "lon": 105.9095971, "geolocation": {"latitude": 20.7802147, "longitude": 105.9095971}}, {"district": "Thường Tín", "ward": "Vạn Điểm", "street": "Xóm Nam Phong", "city": "Hà Nội", "normalize": "xom nam phong van diem thuong tin ha noi", "streetNormalize": "xom nam phong van diem thuong tin ha noi", "wardNormalize": "van diem thuong tin ha noi", "districtNormalize": "thuong tin ha noi", "preWardNormalize": "xa van diem thuong tin ha noi", "lat": 20.7791555, "lon": 105.9109854, "geolocation": {"latitude": 20.7791555, "longitude": 105.9109854}}, {"district": "Thường Tín", "ward": "Vạn Điểm", "street": "Xóm Thanh Bình", "city": "Hà Nội", "normalize": "xom thanh binh van diem thuong tin ha noi", "streetNormalize": "xom thanh binh van diem thuong tin ha noi", "wardNormalize": "van diem thuong tin ha noi", "districtNormalize": "thuong tin ha noi", "preWardNormalize": "xa van diem thuong tin ha noi", "lat": 20.7800451, "lon": 105.9101566, "geolocation": {"latitude": 20.7800451, "longitude": 105.9101566}}, {"district": "Thường Tín", "ward": "Vạn Điểm", "street": "Xóm Đông Bình", "city": "Hà Nội", "normalize": "xom dong binh van diem thuong tin ha noi", "streetNormalize": "xom dong binh van diem thuong tin ha noi", "wardNormalize": "van diem thuong tin ha noi", "districtNormalize": "thuong tin ha noi", "preWardNormalize": "xa van diem thuong tin ha noi", "lat": 20.780468, "lon": 105.9122185, "geolocation": {"latitude": 20.780468, "longitude": 105.9122185}}, {"district": "Thường Tín", "ward": "Vạn Điểm", "street": "Xóm Đồng Tiến", "city": "Hà Nội", "normalize": "xom dong tien van diem thuong tin ha noi", "streetNormalize": "xom dong tien van diem thuong tin ha noi", "wardNormalize": "van diem thuong tin ha noi", "districtNormalize": "thuong tin ha noi", "preWardNormalize": "xa van diem thuong tin ha noi", "lat": 20.7803154, "lon": 105.9091704, "geolocation": {"latitude": 20.7803154, "longitude": 105.9091704}}, {"district": "Thường Tín", "ward": "Vạn Điểm", "street": "Xóm Độc Lập", "city": "Hà Nội", "normalize": "xom doc lap van diem thuong tin ha noi", "streetNormalize": "xom doc lap van diem thuong tin ha noi", "wardNormalize": "van diem thuong tin ha noi", "districtNormalize": "thuong tin ha noi", "preWardNormalize": "xa van diem thuong tin ha noi", "lat": 20.7847282, "lon": 105.9111212, "geolocation": {"latitude": 20.7847282, "longitude": 105.9111212}}, {"district": "Thường Tín", "ward": "Vạn Điểm", "street": "Đê Sông Hồng", "city": "Hà Nội", "normalize": "de song hong van diem thuong tin ha noi", "streetNormalize": "de song hong van diem thuong tin ha noi", "wardNormalize": "van diem thuong tin ha noi", "districtNormalize": "thuong tin ha noi", "preWardNormalize": "xa van diem thuong tin ha noi", "lat": 20.7903816, "lon": 105.9171206, "geolocation": {"latitude": 20.7903816, "longitude": 105.9171206}}, {"district": "Thường Tín", "ward": "Vạn Điểm", "street": "Đê Vạn Thành", "city": "Hà Nội", "normalize": "de van thanh van diem thuong tin ha noi", "streetNormalize": "de van thanh van diem thuong tin ha noi", "wardNormalize": "van diem thuong tin ha noi", "districtNormalize": "thuong tin ha noi", "preWardNormalize": "xa van diem thuong tin ha noi", "lat": 20.7744841, "lon": 105.9109972, "geolocation": {"latitude": 20.7744841, "longitude": 105.9109972}}, {"district": "Thường Tín", "ward": "Vạn Điểm", "street": "Đường Gòong", "city": "Hà Nội", "normalize": "duong goong van diem thuong tin ha noi", "streetNormalize": "duong goong van diem thuong tin ha noi", "wardNormalize": "van diem thuong tin ha noi", "districtNormalize": "thuong tin ha noi", "preWardNormalize": "xa van diem thuong tin ha noi", "lat": 20.7744189, "lon": 105.9078672, "geolocation": {"latitude": 20.7744189, "longitude": 105.9078672}}, {"district": "Thường Tín", "ward": "Vạn Điểm", "street": "Đường Kho 6", "city": "Hà Nội", "normalize": "duong kho 6 van diem thuong tin ha noi", "streetNormalize": "duong kho 6 van diem thuong tin ha noi", "wardNormalize": "van diem thuong tin ha noi", "districtNormalize": "thuong tin ha noi", "preWardNormalize": "xa van diem thuong tin ha noi", "lat": 20.7760413, "lon": 105.9088159, "geolocation": {"latitude": 20.7760413, "longitude": 105.9088159}}, {"district": "Thường Tín", "ward": "Vạn Điểm", "street": "Đồng Tâm", "city": "Hà Nội", "normalize": "dong tam van diem thuong tin ha noi", "streetNormalize": "dong tam van diem thuong tin ha noi", "wardNormalize": "van diem thuong tin ha noi", "districtNormalize": "thuong tin ha noi", "preWardNormalize": "xa van diem thuong tin ha noi", "lat": 20.7857252, "lon": 105.9107096, "geolocation": {"latitude": 20.7857252, "longitude": 105.9107096}}, {"district": "Thường Tín", "ward": "Văn Phú", "street": "Trần Phú", "city": "Hà Nội", "normalize": "tran phu van phu thuong tin ha noi", "streetNormalize": "tran phu van phu thuong tin ha noi", "wardNormalize": "van phu thuong tin ha noi", "districtNormalize": "thuong tin ha noi", "preWardNormalize": "xa van phu thuong tin ha noi", "lat": 20.8675903, "lon": 105.8530446, "geolocation": {"latitude": 20.8675903, "longitude": 105.8530446}}, {"district": "Thường Tín", "ward": "Văn Phú", "street": "Đình Yên Phú", "city": "Hà Nội", "normalize": "dinh yen phu van phu thuong tin ha noi", "streetNormalize": "dinh yen phu van phu thuong tin ha noi", "wardNormalize": "van phu thuong tin ha noi", "districtNormalize": "thuong tin ha noi", "preWardNormalize": "xa van phu thuong tin ha noi", "lat": 20.864248, "lon": 105.8531184, "geolocation": {"latitude": 20.864248, "longitude": 105.8531184}}, {"district": "Thường Tín", "ward": "Vân Tảo", "street": "Nỏ Bạn", "city": "Hà Nội", "normalize": "no ban van tao thuong tin ha noi", "streetNormalize": "no ban van tao thuong tin ha noi", "wardNormalize": "van tao thuong tin ha noi", "districtNormalize": "thuong tin ha noi", "preWardNormalize": "xa van tao thuong tin ha noi", "lat": 20.871835, "lon": 105.8970137, "geolocation": {"latitude": 20.871835, "longitude": 105.8970137}}, {"district": "Thường Tín", "ward": "Vân Tảo", "street": "Đt 427", "city": "Hà Nội", "normalize": "dt 427 van tao thuong tin ha noi", "streetNormalize": "dt 427 van tao thuong tin ha noi", "wardNormalize": "van tao thuong tin ha noi", "districtNormalize": "thuong tin ha noi", "preWardNormalize": "xa van tao thuong tin ha noi", "lat": 20.8671489, "lon": 105.8975913, "geolocation": {"latitude": 20.8671489, "longitude": 105.8975913}}, {"district": "Thường Tín", "ward": "Vân Tảo", "street": "Đông Vân", "city": "Hà Nội", "normalize": "dong van van tao thuong tin ha noi", "streetNormalize": "dong van van tao thuong tin ha noi", "wardNormalize": "van tao thuong tin ha noi", "districtNormalize": "thuong tin ha noi", "preWardNormalize": "xa van tao thuong tin ha noi", "lat": 20.8619636, "lon": 105.8964215, "geolocation": {"latitude": 20.8619636, "longitude": 105.8964215}}, {"district": "Thường Tín", "ward": "Văn Tự", "street": "Ba Đình", "city": "Hà Nội", "normalize": "ba dinh van tu thuong tin ha noi", "streetNormalize": "ba dinh van tu thuong tin ha noi", "wardNormalize": "van tu thuong tin ha noi", "districtNormalize": "thuong tin ha noi", "preWardNormalize": "xa van tu thuong tin ha noi", "lat": 20.78703, "lon": 105.8945931, "geolocation": {"latitude": 20.78703, "longitude": 105.8945931}}, {"district": "Thường Tín", "ward": "Văn Tự", "street": "Liên Thôn", "city": "Hà Nội", "normalize": "lien thon van tu thuong tin ha noi", "streetNormalize": "lien thon van tu thuong tin ha noi", "wardNormalize": "van tu thuong tin ha noi", "districtNormalize": "thuong tin ha noi", "preWardNormalize": "xa van tu thuong tin ha noi", "lat": 20.7843801, "lon": 105.8873591, "geolocation": {"latitude": 20.7843801, "longitude": 105.8873591}}, {"district": "Thường Tín", "ward": "Văn Tự", "street": "Pháp Vân Cầu Giẽ", "city": "Hà Nội", "normalize": "phap van cau gie van tu thuong tin ha noi", "streetNormalize": "phap van cau gie van tu thuong tin ha noi", "wardNormalize": "van tu thuong tin ha noi", "districtNormalize": "thuong tin ha noi", "preWardNormalize": "xa van tu thuong tin ha noi", "lat": 20.7886353, "lon": 105.8993489, "geolocation": {"latitude": 20.7886353, "longitude": 105.8993489}}, {"district": "Thường Tín", "ward": "Văn Tự", "street": "Quốc Lộ 1a", "city": "Hà Nội", "normalize": "quoc lo 1a van tu thuong tin ha noi", "streetNormalize": "quoc lo 1a van tu thuong tin ha noi", "wardNormalize": "van tu thuong tin ha noi", "districtNormalize": "thuong tin ha noi", "preWardNormalize": "xa van tu thuong tin ha noi", "lat": 20.7879197, "lon": 105.8912836, "geolocation": {"latitude": 20.7879197, "longitude": 105.8912836}}, {"district": "Thường Tín", "ward": "Văn Tự", "street": "Sau Nghè", "city": "Hà Nội", "normalize": "sau nghe van tu thuong tin ha noi", "streetNormalize": "sau nghe van tu thuong tin ha noi", "wardNormalize": "van tu thuong tin ha noi", "districtNormalize": "thuong tin ha noi", "preWardNormalize": "xa van tu thuong tin ha noi", "lat": 20.7838308, "lon": 105.8929413, "geolocation": {"latitude": 20.7838308, "longitude": 105.8929413}}, {"district": "Thường Tín", "ward": "Văn Tự", "street": "Thôn An Định", "city": "Hà Nội", "normalize": "thon an dinh van tu thuong tin ha noi", "streetNormalize": "thon an dinh van tu thuong tin ha noi", "wardNormalize": "van tu thuong tin ha noi", "districtNormalize": "thuong tin ha noi", "preWardNormalize": "xa van tu thuong tin ha noi", "lat": 20.796751, "lon": 105.8868611, "geolocation": {"latitude": 20.796751, "longitude": 105.8868611}}, {"district": "Thường Tín", "ward": "Văn Tự", "street": "Văn Tự", "city": "Hà Nội", "normalize": "van tu van tu thuong tin ha noi", "streetNormalize": "van tu van tu thuong tin ha noi", "wardNormalize": "van tu thuong tin ha noi", "districtNormalize": "thuong tin ha noi", "preWardNormalize": "xa van tu thuong tin ha noi", "lat": 20.7924024, "lon": 105.879313, "geolocation": {"latitude": 20.7924024, "longitude": 105.879313}}]}