{"data": [{"district": "Đan Phượng", "ward": "Đan Phượng", "street": "Hòa Bình", "city": "Hà Nội", "normalize": "hoa binh dan phuong dan phuong ha noi", "streetNormalize": "hoa binh dan phuong dan phuong ha noi", "wardNormalize": "dan phuong dan phuong ha noi", "districtNormalize": "dan phuong ha noi", "preWardNormalize": "xa dan phuong dan phuong ha noi", "lat": 21.0909363, "lon": 105.664562, "geolocation": {"latitude": 21.0909363, "longitude": 105.664562}}, {"district": "Đan Phượng", "ward": "Đan Phượng", "street": "Phượng Trì", "city": "Hà Nội", "normalize": "phuong tri dan phuong dan phuong ha noi", "streetNormalize": "phuong tri dan phuong dan phuong ha noi", "wardNormalize": "dan phuong dan phuong ha noi", "districtNormalize": "dan phuong ha noi", "preWardNormalize": "xa dan phuong dan phuong ha noi", "lat": 21.0896086, "lon": 105.6618126, "geolocation": {"latitude": 21.0896086, "longitude": 105.6618126}}, {"district": "Đan Phượng", "ward": "Đan Phượng", "street": "Thượng Mỗ", "city": "Hà Nội", "normalize": "thuong mo dan phuong dan phuong ha noi", "streetNormalize": "thuong mo dan phuong dan phuong ha noi", "wardNormalize": "dan phuong dan phuong ha noi", "districtNormalize": "dan phuong ha noi", "preWardNormalize": "xa dan phuong dan phuong ha noi", "lat": 21.0996895, "lon": 105.6728571, "geolocation": {"latitude": 21.0996895, "longitude": 105.6728571}}, {"district": "Đan Phượng", "ward": "Đan Phượng", "street": "Thắng Lợi", "city": "Hà Nội", "normalize": "thang loi dan phuong dan phuong ha noi", "streetNormalize": "thang loi dan phuong dan phuong ha noi", "wardNormalize": "dan phuong dan phuong ha noi", "districtNormalize": "dan phuong ha noi", "preWardNormalize": "xa dan phuong dan phuong ha noi", "lat": 21.0917325, "lon": 105.6629769, "geolocation": {"latitude": 21.0917325, "longitude": 105.6629769}}, {"district": "Đan Phượng", "ward": "Đan Phượng", "street": "Đoài Khê", "city": "Hà Nội", "normalize": "doai khe dan phuong dan phuong ha noi", "streetNormalize": "doai khe dan phuong dan phuong ha noi", "wardNormalize": "dan phuong dan phuong ha noi", "districtNormalize": "dan phuong ha noi", "preWardNormalize": "xa dan phuong dan phuong ha noi", "lat": 21.0918618, "lon": 105.6655491, "geolocation": {"latitude": 21.0918618, "longitude": 105.6655491}}, {"district": "Đan Phượng", "ward": "Đan Phượng", "street": "Đt 417", "city": "Hà Nội", "normalize": "dt 417 dan phuong dan phuong ha noi", "streetNormalize": "dt 417 dan phuong dan phuong ha noi", "wardNormalize": "dan phuong dan phuong ha noi", "districtNormalize": "dan phuong ha noi", "preWardNormalize": "xa dan phuong dan phuong ha noi", "lat": 21.0950671, "lon": 105.6570215, "geolocation": {"latitude": 21.0950671, "longitude": 105.6570215}}, {"district": "Đan Phượng", "ward": "Đan Phượng", "street": "Đông Bắc", "city": "Hà Nội", "normalize": "dong bac dan phuong dan phuong ha noi", "streetNormalize": "dong bac dan phuong dan phuong ha noi", "wardNormalize": "dan phuong dan phuong ha noi", "districtNormalize": "dan phuong ha noi", "preWardNormalize": "xa dan phuong dan phuong ha noi", "lat": 21.0888189, "lon": 105.6689541, "geolocation": {"latitude": 21.0888189, "longitude": 105.6689541}}, {"district": "Đan Phượng", "ward": "Đan Phượng", "street": "Đông Khê", "city": "Hà Nội", "normalize": "dong khe dan phuong dan phuong ha noi", "streetNormalize": "dong khe dan phuong dan phuong ha noi", "wardNormalize": "dan phuong dan phuong ha noi", "districtNormalize": "dan phuong ha noi", "preWardNormalize": "xa dan phuong dan phuong ha noi", "lat": 21.0893194, "lon": 105.6662611, "geolocation": {"latitude": 21.0893194, "longitude": 105.6662611}}, {"district": "Đan Phượng", "ward": "Đan Phượng", "street": "Đường Hùng", "city": "Hà Nội", "normalize": "duong hung dan phuong dan phuong ha noi", "streetNormalize": "duong hung dan phuong dan phuong ha noi", "wardNormalize": "dan phuong dan phuong ha noi", "districtNormalize": "dan phuong ha noi", "preWardNormalize": "xa dan phuong dan phuong ha noi", "lat": 21.0914051, "lon": 105.6668246, "geolocation": {"latitude": 21.0914051, "longitude": 105.6668246}}, {"district": "Đan Phượng", "ward": "Đan Phượng", "street": "Đường Đê", "city": "Hà Nội", "normalize": "duong de dan phuong dan phuong ha noi", "streetNormalize": "duong de dan phuong dan phuong ha noi", "wardNormalize": "dan phuong dan phuong ha noi", "districtNormalize": "dan phuong ha noi", "preWardNormalize": "xa dan phuong dan phuong ha noi", "lat": 21.1035442, "lon": 105.6617208, "geolocation": {"latitude": 21.1035442, "longitude": 105.6617208}}, {"district": "Đan Phượng", "ward": "Đan Phượng", "street": "Đại Phùng 1", "city": "Hà Nội", "normalize": "dai phung 1 dan phuong dan phuong ha noi", "streetNormalize": "dai phung 1 dan phuong dan phuong ha noi", "wardNormalize": "dan phuong dan phuong ha noi", "districtNormalize": "dan phuong ha noi", "preWardNormalize": "xa dan phuong dan phuong ha noi", "lat": 21.0905052, "lon": 105.6632137, "geolocation": {"latitude": 21.0905052, "longitude": 105.6632137}}, {"district": "Đan Phượng", "ward": "Đan Phượng", "street": "Đại Phùng 2", "city": "Hà Nội", "normalize": "dai phung 2 dan phuong dan phuong ha noi", "streetNormalize": "dai phung 2 dan phuong dan phuong ha noi", "wardNormalize": "dan phuong dan phuong ha noi", "districtNormalize": "dan phuong ha noi", "preWardNormalize": "xa dan phuong dan phuong ha noi", "lat": 21.0876677, "lon": 105.6659393, "geolocation": {"latitude": 21.0876677, "longitude": 105.6659393}}, {"district": "Đan Phượng", "ward": "Đan Phượng", "street": "Đồng Ông", "city": "Hà Nội", "normalize": "dong ong dan phuong dan phuong ha noi", "streetNormalize": "dong ong dan phuong dan phuong ha noi", "wardNormalize": "dan phuong dan phuong ha noi", "districtNormalize": "dan phuong ha noi", "preWardNormalize": "xa dan phuong dan phuong ha noi", "lat": 21.0966815, "lon": 105.6793791, "geolocation": {"latitude": 21.0966815, "longitude": 105.6793791}}, {"district": "Đan Phượng", "ward": "Đồng Tháp", "street": "Bãi Tháp", "city": "Hà Nội", "normalize": "bai thap dong thap dan phuong ha noi", "streetNormalize": "bai thap dong thap dan phuong ha noi", "wardNormalize": "dong thap dan phuong ha noi", "districtNormalize": "dan phuong ha noi", "preWardNormalize": "xa dong thap dan phuong ha noi", "lat": 21.0790627, "lon": 105.6517248, "geolocation": {"latitude": 21.0790627, "longitude": 105.6517248}}, {"district": "Đan Phượng", "ward": "Đồng Tháp", "street": "Nguyễn Thái Học", "city": "Hà Nội", "normalize": "nguyen thai hoc dong thap dan phuong ha noi", "streetNormalize": "nguyen thai hoc dong thap dan phuong ha noi", "wardNormalize": "dong thap dan phuong ha noi", "districtNormalize": "dan phuong ha noi", "preWardNormalize": "xa dong thap dan phuong ha noi", "lat": 21.0877905, "lon": 105.6485969, "geolocation": {"latitude": 21.0877905, "longitude": 105.6485969}}, {"district": "Đan Phượng", "ward": "Đồng Tháp", "street": "Phan Đình Phùng", "city": "Hà Nội", "normalize": "phan dinh phung dong thap dan phuong ha noi", "streetNormalize": "phan dinh phung dong thap dan phuong ha noi", "wardNormalize": "dong thap dan phuong ha noi", "districtNormalize": "dan phuong ha noi", "preWardNormalize": "xa dong thap dan phuong ha noi", "lat": 21.0856335, "lon": 105.6537667, "geolocation": {"latitude": 21.0856335, "longitude": 105.6537667}}, {"district": "Đan Phượng", "ward": "Đồng Tháp", "street": "Quốc Lộ 32", "city": "Hà Nội", "normalize": "quoc lo 32 dong thap dan phuong ha noi", "streetNormalize": "quoc lo 32 dong thap dan phuong ha noi", "wardNormalize": "dong thap dan phuong ha noi", "districtNormalize": "dan phuong ha noi", "preWardNormalize": "xa dong thap dan phuong ha noi", "lat": 21.0872594, "lon": 105.6482189, "geolocation": {"latitude": 21.0872594, "longitude": 105.6482189}}, {"district": "Đan Phượng", "ward": "Đồng Tháp", "street": "Đường Số 1 Bãi Thụy", "city": "Hà Nội", "normalize": "duong so 1 bai thuy dong thap dan phuong ha noi", "streetNormalize": "duong so 1 bai thuy dong thap dan phuong ha noi", "wardNormalize": "dong thap dan phuong ha noi", "districtNormalize": "dan phuong ha noi", "preWardNormalize": "xa dong thap dan phuong ha noi", "lat": 21.0808301, "lon": 105.650143, "geolocation": {"latitude": 21.0808301, "longitude": 105.650143}}, {"district": "Đan Phượng", "ward": "Đồng Tháp", "street": "Đường Số 2 Bãi Thụy", "city": "Hà Nội", "normalize": "duong so 2 bai thuy dong thap dan phuong ha noi", "streetNormalize": "duong so 2 bai thuy dong thap dan phuong ha noi", "wardNormalize": "dong thap dan phuong ha noi", "districtNormalize": "dan phuong ha noi", "preWardNormalize": "xa dong thap dan phuong ha noi", "lat": 21.0822498, "lon": 105.6493894, "geolocation": {"latitude": 21.0822498, "longitude": 105.6493894}}, {"district": "Đan Phượng", "ward": "Đồng Tháp", "street": "Đường Đê", "city": "Hà Nội", "normalize": "duong de dong thap dan phuong ha noi", "streetNormalize": "duong de dong thap dan phuong ha noi", "wardNormalize": "dong thap dan phuong ha noi", "districtNormalize": "dan phuong ha noi", "preWardNormalize": "xa dong thap dan phuong ha noi", "lat": 21.0850993, "lon": 105.6471649, "geolocation": {"latitude": 21.0850993, "longitude": 105.6471649}}, {"district": "Đan Phượng", "ward": "Hạ Mỗ", "street": "Liên Hồng", "city": "Hà Nội", "normalize": "lien hong ha mo dan phuong ha noi", "streetNormalize": "lien hong ha mo dan phuong ha noi", "wardNormalize": "ha mo dan phuong ha noi", "districtNormalize": "dan phuong ha noi", "preWardNormalize": "xa ha mo dan phuong ha noi", "lat": 21.111929, "lon": 105.7004083, "geolocation": {"latitude": 21.111929, "longitude": 105.7004083}}, {"district": "Đan Phượng", "ward": "Hạ Mỗ", "street": "Ngõ Ngoài", "city": "Hà Nội", "normalize": "ngo ngoai ha mo dan phuong ha noi", "streetNormalize": "ngo ngoai ha mo dan phuong ha noi", "wardNormalize": "ha mo dan phuong ha noi", "districtNormalize": "dan phuong ha noi", "preWardNormalize": "xa ha mo dan phuong ha noi", "lat": 21.1092683, "lon": 105.6862533, "geolocation": {"latitude": 21.1092683, "longitude": 105.6862533}}, {"district": "Đan Phượng", "ward": "Hạ Mỗ", "street": "Vạn Xuân", "city": "Hà Nội", "normalize": "van xuan ha mo dan phuong ha noi", "streetNormalize": "van xuan ha mo dan phuong ha noi", "wardNormalize": "ha mo dan phuong ha noi", "districtNormalize": "dan phuong ha noi", "preWardNormalize": "xa ha mo dan phuong ha noi", "lat": 21.1101839, "lon": 105.6894159, "geolocation": {"latitude": 21.1101839, "longitude": 105.6894159}}, {"district": "Đan Phượng", "ward": "Hạ Mỗ", "street": "Ô Diên", "city": "Hà Nội", "normalize": "o dien ha mo dan phuong ha noi", "streetNormalize": "o dien ha mo dan phuong ha noi", "wardNormalize": "ha mo dan phuong ha noi", "districtNormalize": "dan phuong ha noi", "preWardNormalize": "xa ha mo dan phuong ha noi", "lat": 21.1221122, "lon": 105.6750553, "geolocation": {"latitude": 21.1221122, "longitude": 105.6750553}}, {"district": "Đan Phượng", "ward": "Hạ Mỗ", "street": "Đường Đê", "city": "Hà Nội", "normalize": "duong de ha mo dan phuong ha noi", "streetNormalize": "duong de ha mo dan phuong ha noi", "wardNormalize": "ha mo dan phuong ha noi", "districtNormalize": "dan phuong ha noi", "preWardNormalize": "xa ha mo dan phuong ha noi", "lat": 21.115298, "lon": 105.6834152, "geolocation": {"latitude": 21.115298, "longitude": 105.6834152}}, {"district": "Đan Phượng", "ward": "Hồng Hà", "street": "Bãi Tiên Tân", "city": "Hà Nội", "normalize": "bai tien tan hong ha dan phuong ha noi", "streetNormalize": "bai tien tan hong ha dan phuong ha noi", "wardNormalize": "hong ha dan phuong ha noi", "districtNormalize": "dan phuong ha noi", "preWardNormalize": "xa hong ha dan phuong ha noi", "lat": 21.1253683, "lon": 105.6778755, "geolocation": {"latitude": 21.1253683, "longitude": 105.6778755}}, {"district": "Đan Phượng", "ward": "Hồng Hà", "street": "Cơ Đê", "city": "Hà Nội", "normalize": "co de hong ha dan phuong ha noi", "streetNormalize": "co de hong ha dan phuong ha noi", "wardNormalize": "hong ha dan phuong ha noi", "districtNormalize": "dan phuong ha noi", "preWardNormalize": "xa hong ha dan phuong ha noi", "lat": 21.1351743, "lon": 105.6857787, "geolocation": {"latitude": 21.1351743, "longitude": 105.6857787}}, {"district": "Đan Phượng", "ward": "Hồng Hà", "street": "Cổng Đông", "city": "Hà Nội", "normalize": "cong dong hong ha dan phuong ha noi", "streetNormalize": "cong dong hong ha dan phuong ha noi", "wardNormalize": "hong ha dan phuong ha noi", "districtNormalize": "dan phuong ha noi", "preWardNormalize": "xa hong ha dan phuong ha noi", "lat": 21.1254226, "lon": 105.6833285, "geolocation": {"latitude": 21.1254226, "longitude": 105.6833285}}, {"district": "Đan Phượng", "ward": "Hồng Hà", "street": "Hồng Hà", "city": "Hà Nội", "normalize": "hong ha hong ha dan phuong ha noi", "streetNormalize": "hong ha hong ha dan phuong ha noi", "wardNormalize": "hong ha dan phuong ha noi", "districtNormalize": "dan phuong ha noi", "preWardNormalize": "xa hong ha dan phuong ha noi", "lat": 21.1352536, "lon": 105.6859265, "geolocation": {"latitude": 21.1352536, "longitude": 105.6859265}}, {"district": "Đan Phượng", "ward": "Hồng Hà", "street": "Lãnh Nguyệt Hàn", "city": "Hà Nội", "normalize": "lanh nguyet han hong ha dan phuong ha noi", "streetNormalize": "lanh nguyet han hong ha dan phuong ha noi", "wardNormalize": "hong ha dan phuong ha noi", "districtNormalize": "dan phuong ha noi", "preWardNormalize": "xa hong ha dan phuong ha noi", "lat": 21.1345183, "lon": 105.6883645, "geolocation": {"latitude": 21.1345183, "longitude": 105.6883645}}, {"district": "Đan Phượng", "ward": "Hồng Hà", "street": "Nam Sông Hồng", "city": "Hà Nội", "normalize": "nam song hong hong ha dan phuong ha noi", "streetNormalize": "nam song hong hong ha dan phuong ha noi", "wardNormalize": "hong ha dan phuong ha noi", "districtNormalize": "dan phuong ha noi", "preWardNormalize": "xa hong ha dan phuong ha noi", "lat": 21.1258885, "lon": 105.6762257, "geolocation": {"latitude": 21.1258885, "longitude": 105.6762257}}, {"district": "Đan Phượng", "ward": "Hồng Hà", "street": "Đường Kè", "city": "Hà Nội", "normalize": "duong ke hong ha dan phuong ha noi", "streetNormalize": "duong ke hong ha dan phuong ha noi", "wardNormalize": "hong ha dan phuong ha noi", "districtNormalize": "dan phuong ha noi", "preWardNormalize": "xa hong ha dan phuong ha noi", "lat": 21.1338074, "lon": 105.680208, "geolocation": {"latitude": 21.1338074, "longitude": 105.680208}}, {"district": "Đan Phượng", "ward": "Hồng Hà", "street": "Đường Đê", "city": "Hà Nội", "normalize": "duong de hong ha dan phuong ha noi", "streetNormalize": "duong de hong ha dan phuong ha noi", "wardNormalize": "hong ha dan phuong ha noi", "districtNormalize": "dan phuong ha noi", "preWardNormalize": "xa hong ha dan phuong ha noi", "lat": 21.1236043, "lon": 105.6827374, "geolocation": {"latitude": 21.1236043, "longitude": 105.6827374}}, {"district": "Đan Phượng", "ward": "Liên Hà", "street": "Liên Hà", "city": "Hà Nội", "normalize": "lien ha lien ha dan phuong ha noi", "streetNormalize": "lien ha lien ha dan phuong ha noi", "wardNormalize": "lien ha dan phuong ha noi", "districtNormalize": "dan phuong ha noi", "preWardNormalize": "xa lien ha dan phuong ha noi", "lat": 21.1055477, "lon": 105.7151765, "geolocation": {"latitude": 21.1055477, "longitude": 105.7151765}}, {"district": "Đan Phượng", "ward": "Liên Hà", "street": "Liên Hồng", "city": "Hà Nội", "normalize": "lien hong lien ha dan phuong ha noi", "streetNormalize": "lien hong lien ha dan phuong ha noi", "wardNormalize": "lien ha dan phuong ha noi", "districtNormalize": "dan phuong ha noi", "preWardNormalize": "xa lien ha dan phuong ha noi", "lat": 21.1167716, "lon": 105.7156046, "geolocation": {"latitude": 21.1167716, "longitude": 105.7156046}}, {"district": "Đan Phượng", "ward": "Liên Hà", "street": "Làng Quý", "city": "Hà Nội", "normalize": "lang quy lien ha dan phuong ha noi", "streetNormalize": "lang quy lien ha dan phuong ha noi", "wardNormalize": "lien ha dan phuong ha noi", "districtNormalize": "dan phuong ha noi", "preWardNormalize": "xa lien ha dan phuong ha noi", "lat": 21.1090722, "lon": 105.7191465, "geolocation": {"latitude": 21.1090722, "longitude": 105.7191465}}, {"district": "Đan Phượng", "ward": "Liên Hà", "street": "Làng Đoài", "city": "Hà Nội", "normalize": "lang doai lien ha dan phuong ha noi", "streetNormalize": "lang doai lien ha dan phuong ha noi", "wardNormalize": "lien ha dan phuong ha noi", "districtNormalize": "dan phuong ha noi", "preWardNormalize": "xa lien ha dan phuong ha noi", "lat": 21.1105929, "lon": 105.7175416, "geolocation": {"latitude": 21.1105929, "longitude": 105.7175416}}, {"district": "Đan Phượng", "ward": "Liên Hà", "street": "Thành Công", "city": "Hà Nội", "normalize": "thanh cong lien ha dan phuong ha noi", "streetNormalize": "thanh cong lien ha dan phuong ha noi", "wardNormalize": "lien ha dan phuong ha noi", "districtNormalize": "dan phuong ha noi", "preWardNormalize": "xa lien ha dan phuong ha noi", "lat": 21.109802, "lon": 105.7085495, "geolocation": {"latitude": 21.109802, "longitude": 105.7085495}}, {"district": "Đan Phượng", "ward": "Liên Hồng", "street": "Cơ Đê", "city": "Hà Nội", "normalize": "co de lien hong dan phuong ha noi", "streetNormalize": "co de lien hong dan phuong ha noi", "wardNormalize": "lien hong dan phuong ha noi", "districtNormalize": "dan phuong ha noi", "preWardNormalize": "xa lien hong dan phuong ha noi", "lat": 21.125842, "lon": 105.6990021, "geolocation": {"latitude": 21.125842, "longitude": 105.6990021}}, {"district": "Đan Phượng", "ward": "Liên Hồng", "street": "Liên Hồng", "city": "Hà Nội", "normalize": "lien hong lien hong dan phuong ha noi", "streetNormalize": "lien hong lien hong dan phuong ha noi", "wardNormalize": "lien hong dan phuong ha noi", "districtNormalize": "dan phuong ha noi", "preWardNormalize": "xa lien hong dan phuong ha noi", "lat": 21.1202707, "lon": 105.7066077, "geolocation": {"latitude": 21.1202707, "longitude": 105.7066077}}, {"district": "Đan Phượng", "ward": "Liên Hồng", "street": "Làng Tổ", "city": "Hà Nội", "normalize": "lang to lien hong dan phuong ha noi", "streetNormalize": "lang to lien hong dan phuong ha noi", "wardNormalize": "lien hong dan phuong ha noi", "districtNormalize": "dan phuong ha noi", "preWardNormalize": "xa lien hong dan phuong ha noi", "lat": 21.1218524, "lon": 105.7049454, "geolocation": {"latitude": 21.1218524, "longitude": 105.7049454}}, {"district": "Đan Phượng", "ward": "Liên Hồng", "street": "Đông Lai", "city": "Hà Nội", "normalize": "dong lai lien hong dan phuong ha noi", "streetNormalize": "dong lai lien hong dan phuong ha noi", "wardNormalize": "lien hong dan phuong ha noi", "districtNormalize": "dan phuong ha noi", "preWardNormalize": "xa lien hong dan phuong ha noi", "lat": 21.1233898, "lon": 105.701257, "geolocation": {"latitude": 21.1233898, "longitude": 105.701257}}, {"district": "Đan Phượng", "ward": "Liên Trung", "street": "Kim Ngọc", "city": "Hà Nội", "normalize": "kim ngoc lien trung dan phuong ha noi", "streetNormalize": "kim ngoc lien trung dan phuong ha noi", "wardNormalize": "lien trung dan phuong ha noi", "districtNormalize": "dan phuong ha noi", "preWardNormalize": "xa lien trung dan phuong ha noi", "lat": 21.0999728, "lon": 105.7211686, "geolocation": {"latitude": 21.0999728, "longitude": 105.7211686}}, {"district": "Đan Phượng", "ward": "Liên Trung", "street": "Liên Hà", "city": "Hà Nội", "normalize": "lien ha lien trung dan phuong ha noi", "streetNormalize": "lien ha lien trung dan phuong ha noi", "wardNormalize": "lien trung dan phuong ha noi", "districtNormalize": "dan phuong ha noi", "preWardNormalize": "xa lien trung dan phuong ha noi", "lat": 21.1081476, "lon": 105.7173149, "geolocation": {"latitude": 21.1081476, "longitude": 105.7173149}}, {"district": "Đan Phượng", "ward": "Liên Trung", "street": "Liên Thôn 1", "city": "Hà Nội", "normalize": "lien thon 1 lien trung dan phuong ha noi", "streetNormalize": "lien thon 1 lien trung dan phuong ha noi", "wardNormalize": "lien trung dan phuong ha noi", "districtNormalize": "dan phuong ha noi", "preWardNormalize": "xa lien trung dan phuong ha noi", "lat": 21.1026707, "lon": 105.72609, "geolocation": {"latitude": 21.1026707, "longitude": 105.72609}}, {"district": "Đan Phượng", "ward": "Liên Trung", "street": "Liên Thôn 2", "city": "Hà Nội", "normalize": "lien thon 2 lien trung dan phuong ha noi", "streetNormalize": "lien thon 2 lien trung dan phuong ha noi", "wardNormalize": "lien trung dan phuong ha noi", "districtNormalize": "dan phuong ha noi", "preWardNormalize": "xa lien trung dan phuong ha noi", "lat": 21.1049665, "lon": 105.7249022, "geolocation": {"latitude": 21.1049665, "longitude": 105.7249022}}, {"district": "Đan Phượng", "ward": "Liên Trung", "street": "Đường Số 1 Thôn Trung", "city": "Hà Nội", "normalize": "duong so 1 thon trung lien trung dan phuong ha noi", "streetNormalize": "duong so 1 thon trung lien trung dan phuong ha noi", "wardNormalize": "lien trung dan phuong ha noi", "districtNormalize": "dan phuong ha noi", "preWardNormalize": "xa lien trung dan phuong ha noi", "lat": 21.1083204, "lon": 105.7230209, "geolocation": {"latitude": 21.1083204, "longitude": 105.7230209}}, {"district": "Đan Phượng", "ward": "Liên Trung", "street": "Đường Số 2 Thôn Trung", "city": "Hà Nội", "normalize": "duong so 2 thon trung lien trung dan phuong ha noi", "streetNormalize": "duong so 2 thon trung lien trung dan phuong ha noi", "wardNormalize": "lien trung dan phuong ha noi", "districtNormalize": "dan phuong ha noi", "preWardNormalize": "xa lien trung dan phuong ha noi", "lat": 21.106727, "lon": 105.7247762, "geolocation": {"latitude": 21.106727, "longitude": 105.7247762}}, {"district": "Đan Phượng", "ward": "Phương Đình", "street": "Phạm Bạch Hổ", "city": "Hà Nội", "normalize": "pham bach ho phuong dinh dan phuong ha noi", "streetNormalize": "pham bach ho phuong dinh dan phuong ha noi", "wardNormalize": "phuong dinh dan phuong ha noi", "districtNormalize": "dan phuong ha noi", "preWardNormalize": "xa phuong dinh dan phuong ha noi", "lat": 21.0969183, "lon": 105.6488371, "geolocation": {"latitude": 21.0969183, "longitude": 105.6488371}}, {"district": "Đan Phượng", "ward": "Phương Đình", "street": "Đt 417", "city": "Hà Nội", "normalize": "dt 417 phuong dinh dan phuong ha noi", "streetNormalize": "dt 417 phuong dinh dan phuong ha noi", "wardNormalize": "phuong dinh dan phuong ha noi", "districtNormalize": "dan phuong ha noi", "preWardNormalize": "xa phuong dinh dan phuong ha noi", "lat": 21.1107113, "lon": 105.6566581, "geolocation": {"latitude": 21.1107113, "longitude": 105.6566581}}, {"district": "Đan Phượng", "ward": "Phương Đình", "street": "Đường Đê", "city": "Hà Nội", "normalize": "duong de phuong dinh dan phuong ha noi", "streetNormalize": "duong de phuong dinh dan phuong ha noi", "wardNormalize": "phuong dinh dan phuong ha noi", "districtNormalize": "dan phuong ha noi", "preWardNormalize": "xa phuong dinh dan phuong ha noi", "lat": 21.1035442, "lon": 105.6617208, "geolocation": {"latitude": 21.1035442, "longitude": 105.6617208}}, {"district": "Đan Phượng", "ward": "Phương Đình", "street": "Đạc 10", "city": "Hà Nội", "normalize": "dac 10 phuong dinh dan phuong ha noi", "streetNormalize": "dac 10 phuong dinh dan phuong ha noi", "wardNormalize": "phuong dinh dan phuong ha noi", "districtNormalize": "dan phuong ha noi", "preWardNormalize": "xa phuong dinh dan phuong ha noi", "lat": 21.1148815, "lon": 105.6621295, "geolocation": {"latitude": 21.1148815, "longitude": 105.6621295}}, {"district": "Đan Phượng", "ward": "Phương Đình", "street": "Đạc 9", "city": "Hà Nội", "normalize": "dac 9 phuong dinh dan phuong ha noi", "streetNormalize": "dac 9 phuong dinh dan phuong ha noi", "wardNormalize": "phuong dinh dan phuong ha noi", "districtNormalize": "dan phuong ha noi", "preWardNormalize": "xa phuong dinh dan phuong ha noi", "lat": 21.1132978, "lon": 105.6613218, "geolocation": {"latitude": 21.1132978, "longitude": 105.6613218}}, {"district": "Đan Phượng", "ward": "Song Phượng", "street": "Khu Đìa Đừng", "city": "Hà Nội", "normalize": "khu dia dung song phuong dan phuong ha noi", "streetNormalize": "khu dia dung song phuong dan phuong ha noi", "wardNormalize": "song phuong dan phuong ha noi", "districtNormalize": "dan phuong ha noi", "preWardNormalize": "xa song phuong dan phuong ha noi", "lat": 21.0832405, "lon": 105.6694916, "geolocation": {"latitude": 21.0832405, "longitude": 105.6694916}}, {"district": "Đan Phượng", "ward": "Song Phượng", "street": "Tháp Thụy", "city": "Hà Nội", "normalize": "thap thuy song phuong dan phuong ha noi", "streetNormalize": "thap thuy song phuong dan phuong ha noi", "wardNormalize": "song phuong dan phuong ha noi", "districtNormalize": "dan phuong ha noi", "preWardNormalize": "xa song phuong dan phuong ha noi", "lat": 21.083223, "lon": 105.6640387, "geolocation": {"latitude": 21.083223, "longitude": 105.6640387}}, {"district": "Đan Phượng", "ward": "Song Phượng", "street": "Thụy Ứng", "city": "Hà Nội", "normalize": "thuy ung song phuong dan phuong ha noi", "streetNormalize": "thuy ung song phuong dan phuong ha noi", "wardNormalize": "song phuong dan phuong ha noi", "districtNormalize": "dan phuong ha noi", "preWardNormalize": "xa song phuong dan phuong ha noi", "lat": 21.0841972, "lon": 105.6649884, "geolocation": {"latitude": 21.0841972, "longitude": 105.6649884}}, {"district": "Đan Phượng", "ward": "Song Phượng", "street": "Vườn Thị", "city": "Hà Nội", "normalize": "vuon thi song phuong dan phuong ha noi", "streetNormalize": "vuon thi song phuong dan phuong ha noi", "wardNormalize": "song phuong dan phuong ha noi", "districtNormalize": "dan phuong ha noi", "preWardNormalize": "xa song phuong dan phuong ha noi", "lat": 21.0831464, "lon": 105.663599, "geolocation": {"latitude": 21.0831464, "longitude": 105.663599}}, {"district": "Đan Phượng", "ward": "Tân Hội", "street": "Liên Hà", "city": "Hà Nội", "normalize": "lien ha tan hoi dan phuong ha noi", "streetNormalize": "lien ha tan hoi dan phuong ha noi", "wardNormalize": "tan hoi dan phuong ha noi", "districtNormalize": "dan phuong ha noi", "preWardNormalize": "xa tan hoi dan phuong ha noi", "lat": 21.0996896, "lon": 105.7097091, "geolocation": {"latitude": 21.0996896, "longitude": 105.7097091}}, {"district": "Đan Phượng", "ward": "Tân Hội", "street": "NH Kỳ", "city": "Hà Nội", "normalize": "nh ky tan hoi dan phuong ha noi", "streetNormalize": "nh ky tan hoi dan phuong ha noi", "wardNormalize": "tan hoi dan phuong ha noi", "districtNormalize": "dan phuong ha noi", "preWardNormalize": "xa tan hoi dan phuong ha noi", "lat": 21.095591, "lon": 105.700405, "geolocation": {"latitude": 21.095591, "longitude": 105.700405}}, {"district": "Đan Phượng", "ward": "Tân Hội", "street": "Nhuệ Giang", "city": "Hà Nội", "normalize": "nhue giang tan hoi dan phuong ha noi", "streetNormalize": "nhue giang tan hoi dan phuong ha noi", "wardNormalize": "tan hoi dan phuong ha noi", "districtNormalize": "dan phuong ha noi", "preWardNormalize": "xa tan hoi dan phuong ha noi", "lat": 21.0947811, "lon": 105.7024253, "geolocation": {"latitude": 21.0947811, "longitude": 105.7024253}}, {"district": "Đan Phượng", "ward": "Tân Hội", "street": "Phan Long", "city": "Hà Nội", "normalize": "phan long tan hoi dan phuong ha noi", "streetNormalize": "phan long tan hoi dan phuong ha noi", "wardNormalize": "tan hoi dan phuong ha noi", "districtNormalize": "dan phuong ha noi", "preWardNormalize": "xa tan hoi dan phuong ha noi", "lat": 21.0908767, "lon": 105.7032495, "geolocation": {"latitude": 21.0908767, "longitude": 105.7032495}}, {"district": "Đan Phượng", "ward": "Tân Hội", "street": "Thúy Hội", "city": "Hà Nội", "normalize": "thuy hoi tan hoi dan phuong ha noi", "streetNormalize": "thuy hoi tan hoi dan phuong ha noi", "wardNormalize": "tan hoi dan phuong ha noi", "districtNormalize": "dan phuong ha noi", "preWardNormalize": "xa tan hoi dan phuong ha noi", "lat": 21.0980819, "lon": 105.7017355, "geolocation": {"latitude": 21.0980819, "longitude": 105.7017355}}, {"district": "Đan Phượng", "ward": "Tân Hội", "street": "Thượng Hội", "city": "Hà Nội", "normalize": "thuong hoi tan hoi dan phuong ha noi", "streetNormalize": "thuong hoi tan hoi dan phuong ha noi", "wardNormalize": "tan hoi dan phuong ha noi", "districtNormalize": "dan phuong ha noi", "preWardNormalize": "xa tan hoi dan phuong ha noi", "lat": 21.0911988, "lon": 105.7057796, "geolocation": {"latitude": 21.0911988, "longitude": 105.7057796}}, {"district": "Đan Phượng", "ward": "Tân Hội", "street": "Vĩnh K", "city": "Hà Nội", "normalize": "vinh k tan hoi dan phuong ha noi", "streetNormalize": "vinh k tan hoi dan phuong ha noi", "wardNormalize": "tan hoi dan phuong ha noi", "districtNormalize": "dan phuong ha noi", "preWardNormalize": "xa tan hoi dan phuong ha noi", "lat": 21.09543, "lon": 105.7006535, "geolocation": {"latitude": 21.09543, "longitude": 105.7006535}}, {"district": "Đan Phượng", "ward": "Tân Hội", "street": "Vĩnh Kỳ", "city": "Hà Nội", "normalize": "vinh ky tan hoi dan phuong ha noi", "streetNormalize": "vinh ky tan hoi dan phuong ha noi", "wardNormalize": "tan hoi dan phuong ha noi", "districtNormalize": "dan phuong ha noi", "preWardNormalize": "xa tan hoi dan phuong ha noi", "lat": 21.097709, "lon": 105.6991205, "geolocation": {"latitude": 21.097709, "longitude": 105.6991205}}, {"district": "Đan Phượng", "ward": "Tân Hội", "street": "Đt 422", "city": "Hà Nội", "normalize": "dt 422 tan hoi dan phuong ha noi", "streetNormalize": "dt 422 tan hoi dan phuong ha noi", "wardNormalize": "tan hoi dan phuong ha noi", "districtNormalize": "dan phuong ha noi", "preWardNormalize": "xa tan hoi dan phuong ha noi", "lat": 21.0836131, "lon": 105.7091341, "geolocation": {"latitude": 21.0836131, "longitude": 105.7091341}}, {"district": "Đan Phượng", "ward": "Tân Hội", "street": "Đường Nhánh 422", "city": "Hà Nội", "normalize": "duong nhanh 422 tan hoi dan phuong ha noi", "streetNormalize": "duong nhanh 422 tan hoi dan phuong ha noi", "wardNormalize": "tan hoi dan phuong ha noi", "districtNormalize": "dan phuong ha noi", "preWardNormalize": "xa tan hoi dan phuong ha noi", "lat": 21.0898718, "lon": 105.7112907, "geolocation": {"latitude": 21.0898718, "longitude": 105.7112907}}, {"district": "Đan Phượng", "ward": "Tân Hội", "street": "Đỗ Bá Lược", "city": "Hà Nội", "normalize": "do ba luoc tan hoi dan phuong ha noi", "streetNormalize": "do ba luoc tan hoi dan phuong ha noi", "wardNormalize": "tan hoi dan phuong ha noi", "districtNormalize": "dan phuong ha noi", "preWardNormalize": "xa tan hoi dan phuong ha noi", "lat": 21.0961625, "lon": 105.6980788, "geolocation": {"latitude": 21.0961625, "longitude": 105.6980788}}, {"district": "Đan Phượng", "ward": "Tân Lập", "street": "Bát Phúc", "city": "Hà Nội", "normalize": "bat phuc tan lap dan phuong ha noi", "streetNormalize": "bat phuc tan lap dan phuong ha noi", "wardNormalize": "tan lap dan phuong ha noi", "districtNormalize": "dan phuong ha noi", "preWardNormalize": "xa tan lap dan phuong ha noi", "lat": 21.0783783, "lon": 105.7053523, "geolocation": {"latitude": 21.0783783, "longitude": 105.7053523}}, {"district": "Đan Phượng", "ward": "Tân Lập", "street": "Bình Minh", "city": "Hà Nội", "normalize": "binh minh tan lap dan phuong ha noi", "streetNormalize": "binh minh tan lap dan phuong ha noi", "wardNormalize": "tan lap dan phuong ha noi", "districtNormalize": "dan phuong ha noi", "preWardNormalize": "xa tan lap dan phuong ha noi", "lat": 21.0816208, "lon": 105.7178814, "geolocation": {"latitude": 21.0816208, "longitude": 105.7178814}}, {"district": "Đan Phượng", "ward": "Tân Lập", "street": "Cầu Khoát", "city": "Hà Nội", "normalize": "cau khoat tan lap dan phuong ha noi", "streetNormalize": "cau khoat tan lap dan phuong ha noi", "wardNormalize": "tan lap dan phuong ha noi", "districtNormalize": "dan phuong ha noi", "preWardNormalize": "xa tan lap dan phuong ha noi", "lat": 21.0791092, "lon": 105.7211664, "geolocation": {"latitude": 21.0791092, "longitude": 105.7211664}}, {"district": "Đan Phượng", "ward": "Tân Lập", "street": "Cầu Kênh", "city": "Hà Nội", "normalize": "cau kenh tan lap dan phuong ha noi", "streetNormalize": "cau kenh tan lap dan phuong ha noi", "wardNormalize": "tan lap dan phuong ha noi", "districtNormalize": "dan phuong ha noi", "preWardNormalize": "xa tan lap dan phuong ha noi", "lat": 21.0860761, "lon": 105.7116976, "geolocation": {"latitude": 21.0860761, "longitude": 105.7116976}}, {"district": "Đan Phượng", "ward": "Tân Lập", "street": "Cụm Trường", "city": "Hà Nội", "normalize": "cum truong tan lap dan phuong ha noi", "streetNormalize": "cum truong tan lap dan phuong ha noi", "wardNormalize": "tan lap dan phuong ha noi", "districtNormalize": "dan phuong ha noi", "preWardNormalize": "xa tan lap dan phuong ha noi", "lat": 21.0869791, "lon": 105.7161266, "geolocation": {"latitude": 21.0869791, "longitude": 105.7161266}}, {"district": "Đan Phượng", "ward": "Tân Lập", "street": "Hạ Hồi", "city": "Hà Nội", "normalize": "ha hoi tan lap dan phuong ha noi", "streetNormalize": "ha hoi tan lap dan phuong ha noi", "wardNormalize": "tan lap dan phuong ha noi", "districtNormalize": "dan phuong ha noi", "preWardNormalize": "xa tan lap dan phuong ha noi", "lat": 21.0836333, "lon": 105.713795, "geolocation": {"latitude": 21.0836333, "longitude": 105.713795}}, {"district": "Đan Phượng", "ward": "Tân Lập", "street": "Hạnh Đàn", "city": "Hà Nội", "normalize": "hanh dan tan lap dan phuong ha noi", "streetNormalize": "hanh dan tan lap dan phuong ha noi", "wardNormalize": "tan lap dan phuong ha noi", "districtNormalize": "dan phuong ha noi", "preWardNormalize": "xa tan lap dan phuong ha noi", "lat": 21.0788634, "lon": 105.7081854, "geolocation": {"latitude": 21.0788634, "longitude": 105.7081854}}, {"district": "Đan Phượng", "ward": "Tân Lập", "street": "Kim Ngọc", "city": "Hà Nội", "normalize": "kim ngoc tan lap dan phuong ha noi", "streetNormalize": "kim ngoc tan lap dan phuong ha noi", "wardNormalize": "tan lap dan phuong ha noi", "districtNormalize": "dan phuong ha noi", "preWardNormalize": "xa tan lap dan phuong ha noi", "lat": 21.0966701, "lon": 105.7201373, "geolocation": {"latitude": 21.0966701, "longitude": 105.7201373}}, {"district": "Đan Phượng", "ward": "Tân Lập", "street": "Ngọc Kiệu", "city": "Hà Nội", "normalize": "ngoc kieu tan lap dan phuong ha noi", "streetNormalize": "ngoc kieu tan lap dan phuong ha noi", "wardNormalize": "tan lap dan phuong ha noi", "districtNormalize": "dan phuong ha noi", "preWardNormalize": "xa tan lap dan phuong ha noi", "lat": 21.0839405, "lon": 105.7105078, "geolocation": {"latitude": 21.0839405, "longitude": 105.7105078}}, {"district": "Đan Phượng", "ward": "Tân Lập", "street": "Sông Nhuệ", "city": "Hà Nội", "normalize": "song nhue tan lap dan phuong ha noi", "streetNormalize": "song nhue tan lap dan phuong ha noi", "wardNormalize": "tan lap dan phuong ha noi", "districtNormalize": "dan phuong ha noi", "preWardNormalize": "xa tan lap dan phuong ha noi", "lat": 21.084872, "lon": 105.712409, "geolocation": {"latitude": 21.084872, "longitude": 105.712409}}, {"district": "Đan Phượng", "ward": "Tân Lập", "street": "Thượng Hội", "city": "Hà Nội", "normalize": "thuong hoi tan lap dan phuong ha noi", "streetNormalize": "thuong hoi tan lap dan phuong ha noi", "wardNormalize": "tan lap dan phuong ha noi", "districtNormalize": "dan phuong ha noi", "preWardNormalize": "xa tan lap dan phuong ha noi", "lat": 21.0876729, "lon": 105.7090271, "geolocation": {"latitude": 21.0876729, "longitude": 105.7090271}}, {"district": "Đan Phượng", "ward": "Tân Lập", "street": "Đan Hội", "city": "Hà Nội", "normalize": "dan hoi tan lap dan phuong ha noi", "streetNormalize": "dan hoi tan lap dan phuong ha noi", "wardNormalize": "tan lap dan phuong ha noi", "districtNormalize": "dan phuong ha noi", "preWardNormalize": "xa tan lap dan phuong ha noi", "lat": 21.0823971, "lon": 105.7076751, "geolocation": {"latitude": 21.0823971, "longitude": 105.7076751}}, {"district": "Đan Phượng", "ward": "Tân Lập", "street": "Đt 422", "city": "Hà Nội", "normalize": "dt 422 tan lap dan phuong ha noi", "streetNormalize": "dt 422 tan lap dan phuong ha noi", "wardNormalize": "tan lap dan phuong ha noi", "districtNormalize": "dan phuong ha noi", "preWardNormalize": "xa tan lap dan phuong ha noi", "lat": 21.0836131, "lon": 105.7091341, "geolocation": {"latitude": 21.0836131, "longitude": 105.7091341}}, {"district": "Đan Phượng", "ward": "Tân Lập", "street": "Đường Nhánh 422", "city": "Hà Nội", "normalize": "duong nhanh 422 tan lap dan phuong ha noi", "streetNormalize": "duong nhanh 422 tan lap dan phuong ha noi", "wardNormalize": "tan lap dan phuong ha noi", "districtNormalize": "dan phuong ha noi", "preWardNormalize": "xa tan lap dan phuong ha noi", "lat": 21.0886681, "lon": 105.7129306, "geolocation": {"latitude": 21.0886681, "longitude": 105.7129306}}, {"district": "Đan Phượng", "ward": "Thị Trấn Phùng", "street": "Khu Đìa Đừng", "city": "Hà Nội", "normalize": "khu dia dung thi tran phung dan phuong ha noi", "streetNormalize": "khu dia dung thi tran phung dan phuong ha noi", "wardNormalize": "thi tran phung dan phuong ha noi", "districtNormalize": "dan phuong ha noi", "preWardNormalize": "thi tran phung dan phuong ha noi", "lat": 21.0832405, "lon": 105.6694916, "geolocation": {"latitude": 21.0832405, "longitude": 105.6694916}}, {"district": "Đan Phượng", "ward": "Thị Trấn Phùng", "street": "Nguyễn Thái Học", "city": "Hà Nội", "normalize": "nguyen thai hoc thi tran phung dan phuong ha noi", "streetNormalize": "nguyen thai hoc thi tran phung dan phuong ha noi", "wardNormalize": "thi tran phung dan phuong ha noi", "districtNormalize": "dan phuong ha noi", "preWardNormalize": "thi tran phung dan phuong ha noi", "lat": 21.0886987, "lon": 105.6594273, "geolocation": {"latitude": 21.0886987, "longitude": 105.6594273}}, {"district": "Đan Phượng", "ward": "Thị Trấn Phùng", "street": "Phan Đình Phùng", "city": "Hà Nội", "normalize": "phan dinh phung thi tran phung dan phuong ha noi", "streetNormalize": "phan dinh phung thi tran phung dan phuong ha noi", "wardNormalize": "thi tran phung dan phuong ha noi", "districtNormalize": "dan phuong ha noi", "preWardNormalize": "thi tran phung dan phuong ha noi", "lat": 21.0856335, "lon": 105.6537667, "geolocation": {"latitude": 21.0856335, "longitude": 105.6537667}}, {"district": "Đan Phượng", "ward": "Thị Trấn Phùng", "street": "Phùng Hưng", "city": "Hà Nội", "normalize": "phung hung thi tran phung dan phuong ha noi", "streetNormalize": "phung hung thi tran phung dan phuong ha noi", "wardNormalize": "thi tran phung dan phuong ha noi", "districtNormalize": "dan phuong ha noi", "preWardNormalize": "thi tran phung dan phuong ha noi", "lat": 21.0880435, "lon": 105.659231, "geolocation": {"latitude": 21.0880435, "longitude": 105.659231}}, {"district": "Đan Phượng", "ward": "Thị Trấn Phùng", "street": "Phượng Trì", "city": "Hà Nội", "normalize": "phuong tri thi tran phung dan phuong ha noi", "streetNormalize": "phuong tri thi tran phung dan phuong ha noi", "wardNormalize": "thi tran phung dan phuong ha noi", "districtNormalize": "dan phuong ha noi", "preWardNormalize": "thi tran phung dan phuong ha noi", "lat": 21.089608, "lon": 105.6616409, "geolocation": {"latitude": 21.089608, "longitude": 105.6616409}}, {"district": "Đan Phượng", "ward": "Thị Trấn Phùng", "street": "Quốc Lộ 32", "city": "Hà Nội", "normalize": "quoc lo 32 thi tran phung dan phuong ha noi", "streetNormalize": "quoc lo 32 thi tran phung dan phuong ha noi", "wardNormalize": "thi tran phung dan phuong ha noi", "districtNormalize": "dan phuong ha noi", "preWardNormalize": "thi tran phung dan phuong ha noi", "lat": 21.086477, "lon": 105.6642356, "geolocation": {"latitude": 21.086477, "longitude": 105.6642356}}, {"district": "Đan Phượng", "ward": "Thị Trấn Phùng", "street": "Thụy Ứng", "city": "Hà Nội", "normalize": "thuy ung thi tran phung dan phuong ha noi", "streetNormalize": "thuy ung thi tran phung dan phuong ha noi", "wardNormalize": "thi tran phung dan phuong ha noi", "districtNormalize": "dan phuong ha noi", "preWardNormalize": "thi tran phung dan phuong ha noi", "lat": 21.0841972, "lon": 105.6649884, "geolocation": {"latitude": 21.0841972, "longitude": 105.6649884}}, {"district": "Đan Phượng", "ward": "Thị Trấn Phùng", "street": "Đt 417", "city": "Hà Nội", "normalize": "dt 417 thi tran phung dan phuong ha noi", "streetNormalize": "dt 417 thi tran phung dan phuong ha noi", "wardNormalize": "thi tran phung dan phuong ha noi", "districtNormalize": "dan phuong ha noi", "preWardNormalize": "thi tran phung dan phuong ha noi", "lat": 21.1107113, "lon": 105.6566581, "geolocation": {"latitude": 21.1107113, "longitude": 105.6566581}}, {"district": "Đan Phượng", "ward": "Thị Trấn Phùng", "street": "Đông Khê", "city": "Hà Nội", "normalize": "dong khe thi tran phung dan phuong ha noi", "streetNormalize": "dong khe thi tran phung dan phuong ha noi", "wardNormalize": "thi tran phung dan phuong ha noi", "districtNormalize": "dan phuong ha noi", "preWardNormalize": "thi tran phung dan phuong ha noi", "lat": 21.0885186, "lon": 105.6669907, "geolocation": {"latitude": 21.0885186, "longitude": 105.6669907}}, {"district": "Đan Phượng", "ward": "Thị Trấn Phùng", "street": "Đường Đê", "city": "Hà Nội", "normalize": "duong de thi tran phung dan phuong ha noi", "streetNormalize": "duong de thi tran phung dan phuong ha noi", "wardNormalize": "thi tran phung dan phuong ha noi", "districtNormalize": "dan phuong ha noi", "preWardNormalize": "thi tran phung dan phuong ha noi", "lat": 21.1035442, "lon": 105.6617208, "geolocation": {"latitude": 21.1035442, "longitude": 105.6617208}}, {"district": "Đan Phượng", "ward": "Thị Trấn Phùng", "street": "Đại Phùng 2", "city": "Hà Nội", "normalize": "dai phung 2 thi tran phung dan phuong ha noi", "streetNormalize": "dai phung 2 thi tran phung dan phuong ha noi", "wardNormalize": "thi tran phung dan phuong ha noi", "districtNormalize": "dan phuong ha noi", "preWardNormalize": "thi tran phung dan phuong ha noi", "lat": 21.0876677, "lon": 105.6659393, "geolocation": {"latitude": 21.0876677, "longitude": 105.6659393}}, {"district": "Đan Phượng", "ward": "Thọ An", "street": "An Thịnh", "city": "Hà Nội", "normalize": "an thinh tho an dan phuong ha noi", "streetNormalize": "an thinh tho an dan phuong ha noi", "wardNormalize": "tho an dan phuong ha noi", "districtNormalize": "dan phuong ha noi", "preWardNormalize": "xa tho an dan phuong ha noi", "lat": 21.1348839, "lon": 105.6466149, "geolocation": {"latitude": 21.1348839, "longitude": 105.6466149}}, {"district": "Đan Phượng", "ward": "Thọ An", "street": "Cụm 2", "city": "Hà Nội", "normalize": "cum 2 tho an dan phuong ha noi", "streetNormalize": "cum 2 tho an dan phuong ha noi", "wardNormalize": "tho an dan phuong ha noi", "districtNormalize": "dan phuong ha noi", "preWardNormalize": "xa tho an dan phuong ha noi", "lat": 21.1243549, "lon": 105.6425974, "geolocation": {"latitude": 21.1243549, "longitude": 105.6425974}}, {"district": "Đan Phượng", "ward": "Thọ An", "street": "Hoàng Chân", "city": "Hà Nội", "normalize": "hoang chan tho an dan phuong ha noi", "streetNormalize": "hoang chan tho an dan phuong ha noi", "wardNormalize": "tho an dan phuong ha noi", "districtNormalize": "dan phuong ha noi", "preWardNormalize": "xa tho an dan phuong ha noi", "lat": 21.1219002, "lon": 105.6402694, "geolocation": {"latitude": 21.1219002, "longitude": 105.6402694}}, {"district": "Đan Phượng", "ward": "Thọ An", "street": "Miếu Đinh Nguyên", "city": "Hà Nội", "normalize": "mieu dinh nguyen tho an dan phuong ha noi", "streetNormalize": "mieu dinh nguyen tho an dan phuong ha noi", "wardNormalize": "tho an dan phuong ha noi", "districtNormalize": "dan phuong ha noi", "preWardNormalize": "xa tho an dan phuong ha noi", "lat": 21.1242419, "lon": 105.6357139, "geolocation": {"latitude": 21.1242419, "longitude": 105.6357139}}, {"district": "Đan Phượng", "ward": "Thọ An", "street": "Mới An", "city": "Hà Nội", "normalize": "moi an tho an dan phuong ha noi", "streetNormalize": "moi an tho an dan phuong ha noi", "wardNormalize": "tho an dan phuong ha noi", "districtNormalize": "dan phuong ha noi", "preWardNormalize": "xa tho an dan phuong ha noi", "lat": 21.1274687, "lon": 105.6419874, "geolocation": {"latitude": 21.1274687, "longitude": 105.6419874}}, {"district": "Đan Phượng", "ward": "Thọ An", "street": "Phúc Lâm", "city": "Hà Nội", "normalize": "phuc lam tho an dan phuong ha noi", "streetNormalize": "phuc lam tho an dan phuong ha noi", "wardNormalize": "tho an dan phuong ha noi", "districtNormalize": "dan phuong ha noi", "preWardNormalize": "xa tho an dan phuong ha noi", "lat": 21.1203827, "lon": 105.6415726, "geolocation": {"latitude": 21.1203827, "longitude": 105.6415726}}, {"district": "Đan Phượng", "ward": "Thọ An", "street": "Phố Cầu", "city": "Hà Nội", "normalize": "pho cau tho an dan phuong ha noi", "streetNormalize": "pho cau tho an dan phuong ha noi", "wardNormalize": "tho an dan phuong ha noi", "districtNormalize": "dan phuong ha noi", "preWardNormalize": "xa tho an dan phuong ha noi", "lat": 21.1253706, "lon": 105.6403023, "geolocation": {"latitude": 21.1253706, "longitude": 105.6403023}}, {"district": "Đan Phượng", "ward": "Thọ An", "street": "Phố Nguyễn", "city": "Hà Nội", "normalize": "pho nguyen tho an dan phuong ha noi", "streetNormalize": "pho nguyen tho an dan phuong ha noi", "wardNormalize": "tho an dan phuong ha noi", "districtNormalize": "dan phuong ha noi", "preWardNormalize": "xa tho an dan phuong ha noi", "lat": 21.1220632, "lon": 105.6421739, "geolocation": {"latitude": 21.1220632, "longitude": 105.6421739}}, {"district": "Đan Phượng", "ward": "Thọ An", "street": "Tam Đạc 1", "city": "Hà Nội", "normalize": "tam dac 1 tho an dan phuong ha noi", "streetNormalize": "tam dac 1 tho an dan phuong ha noi", "wardNormalize": "tho an dan phuong ha noi", "districtNormalize": "dan phuong ha noi", "preWardNormalize": "xa tho an dan phuong ha noi", "lat": 21.1228216, "lon": 105.63884, "geolocation": {"latitude": 21.1228216, "longitude": 105.63884}}, {"district": "Đan Phượng", "ward": "Thọ An", "street": "Tam Đạc 2", "city": "Hà Nội", "normalize": "tam dac 2 tho an dan phuong ha noi", "streetNormalize": "tam dac 2 tho an dan phuong ha noi", "wardNormalize": "tho an dan phuong ha noi", "districtNormalize": "dan phuong ha noi", "preWardNormalize": "xa tho an dan phuong ha noi", "lat": 21.1246268, "lon": 105.6368232, "geolocation": {"latitude": 21.1246268, "longitude": 105.6368232}}, {"district": "Đan Phượng", "ward": "Thọ An", "street": "Thanh Hải", "city": "Hà Nội", "normalize": "thanh hai tho an dan phuong ha noi", "streetNormalize": "thanh hai tho an dan phuong ha noi", "wardNormalize": "tho an dan phuong ha noi", "districtNormalize": "dan phuong ha noi", "preWardNormalize": "xa tho an dan phuong ha noi", "lat": 21.1220599, "lon": 105.6421677, "geolocation": {"latitude": 21.1220599, "longitude": 105.6421677}}, {"district": "Đan Phượng", "ward": "Thọ An", "street": "Thanh Xuân", "city": "Hà Nội", "normalize": "thanh xuan tho an dan phuong ha noi", "streetNormalize": "thanh xuan tho an dan phuong ha noi", "wardNormalize": "tho an dan phuong ha noi", "districtNormalize": "dan phuong ha noi", "preWardNormalize": "xa tho an dan phuong ha noi", "lat": 21.1214929, "lon": 105.6349084, "geolocation": {"latitude": 21.1214929, "longitude": 105.6349084}}, {"district": "Đan Phượng", "ward": "Thọ An", "street": "Thọ Vực", "city": "Hà Nội", "normalize": "tho vuc tho an dan phuong ha noi", "streetNormalize": "tho vuc tho an dan phuong ha noi", "wardNormalize": "tho an dan phuong ha noi", "districtNormalize": "dan phuong ha noi", "preWardNormalize": "xa tho an dan phuong ha noi", "lat": 21.1279787, "lon": 105.6360236, "geolocation": {"latitude": 21.1279787, "longitude": 105.6360236}}, {"district": "Đan Phượng", "ward": "Thọ An", "street": "Trung Dương Đông", "city": "Hà Nội", "normalize": "trung duong dong tho an dan phuong ha noi", "streetNormalize": "trung duong dong tho an dan phuong ha noi", "wardNormalize": "tho an dan phuong ha noi", "districtNormalize": "dan phuong ha noi", "preWardNormalize": "xa tho an dan phuong ha noi", "lat": 21.1315431, "lon": 105.6387468, "geolocation": {"latitude": 21.1315431, "longitude": 105.6387468}}, {"district": "Đan Phượng", "ward": "Thọ An", "street": "Tây Sơn", "city": "Hà Nội", "normalize": "tay son tho an dan phuong ha noi", "streetNormalize": "tay son tho an dan phuong ha noi", "wardNormalize": "tho an dan phuong ha noi", "districtNormalize": "dan phuong ha noi", "preWardNormalize": "xa tho an dan phuong ha noi", "lat": 21.1233285, "lon": 105.6364081, "geolocation": {"latitude": 21.1233285, "longitude": 105.6364081}}, {"district": "Đan Phượng", "ward": "Thọ An", "street": "Tây Đạc 3", "city": "Hà Nội", "normalize": "tay dac 3 tho an dan phuong ha noi", "streetNormalize": "tay dac 3 tho an dan phuong ha noi", "wardNormalize": "tho an dan phuong ha noi", "districtNormalize": "dan phuong ha noi", "preWardNormalize": "xa tho an dan phuong ha noi", "lat": 21.1236381015158, "lon": 105.643530287461, "geolocation": {"latitude": 21.1236381015158, "longitude": 105.643530287461}}, {"district": "Đan Phượng", "ward": "Thọ An", "street": "Xóm Chùa", "city": "Hà Nội", "normalize": "xom chua tho an dan phuong ha noi", "streetNormalize": "xom chua tho an dan phuong ha noi", "wardNormalize": "tho an dan phuong ha noi", "districtNormalize": "dan phuong ha noi", "preWardNormalize": "xa tho an dan phuong ha noi", "lat": 21.119758, "lon": 105.641449, "geolocation": {"latitude": 21.119758, "longitude": 105.641449}}, {"district": "Đan Phượng", "ward": "Thọ An", "street": "Đt 417", "city": "Hà Nội", "normalize": "dt 417 tho an dan phuong ha noi", "streetNormalize": "dt 417 tho an dan phuong ha noi", "wardNormalize": "tho an dan phuong ha noi", "districtNormalize": "dan phuong ha noi", "preWardNormalize": "xa tho an dan phuong ha noi", "lat": 21.1336427, "lon": 105.6499795, "geolocation": {"latitude": 21.1336427, "longitude": 105.6499795}}, {"district": "Đan Phượng", "ward": "Thọ An", "street": "Đình Thọ Lão", "city": "Hà Nội", "normalize": "dinh tho lao tho an dan phuong ha noi", "streetNormalize": "dinh tho lao tho an dan phuong ha noi", "wardNormalize": "tho an dan phuong ha noi", "districtNormalize": "dan phuong ha noi", "preWardNormalize": "xa tho an dan phuong ha noi", "lat": 21.1245461, "lon": 105.6430337, "geolocation": {"latitude": 21.1245461, "longitude": 105.6430337}}, {"district": "Đan Phượng", "ward": "Thọ An", "street": "Đông Hải", "city": "Hà Nội", "normalize": "dong hai tho an dan phuong ha noi", "streetNormalize": "dong hai tho an dan phuong ha noi", "wardNormalize": "tho an dan phuong ha noi", "districtNormalize": "dan phuong ha noi", "preWardNormalize": "xa tho an dan phuong ha noi", "lat": 21.1197795, "lon": 105.6406055, "geolocation": {"latitude": 21.1197795, "longitude": 105.6406055}}, {"district": "Đan Phượng", "ward": "Thọ An", "street": "Đông Thanh Hải", "city": "Hà Nội", "normalize": "dong thanh hai tho an dan phuong ha noi", "streetNormalize": "dong thanh hai tho an dan phuong ha noi", "wardNormalize": "tho an dan phuong ha noi", "districtNormalize": "dan phuong ha noi", "preWardNormalize": "xa tho an dan phuong ha noi", "lat": 21.1254303, "lon": 105.6404687, "geolocation": {"latitude": 21.1254303, "longitude": 105.6404687}}, {"district": "Đan Phượng", "ward": "Thọ An", "street": "Đường Trung Tâm", "city": "Hà Nội", "normalize": "duong trung tam tho an dan phuong ha noi", "streetNormalize": "duong trung tam tho an dan phuong ha noi", "wardNormalize": "tho an dan phuong ha noi", "districtNormalize": "dan phuong ha noi", "preWardNormalize": "xa tho an dan phuong ha noi", "lat": 21.1273649, "lon": 105.6378094, "geolocation": {"latitude": 21.1273649, "longitude": 105.6378094}}, {"district": "Đan Phượng", "ward": "Thọ An", "street": "Đạc 2", "city": "Hà Nội", "normalize": "dac 2 tho an dan phuong ha noi", "streetNormalize": "dac 2 tho an dan phuong ha noi", "wardNormalize": "tho an dan phuong ha noi", "districtNormalize": "dan phuong ha noi", "preWardNormalize": "xa tho an dan phuong ha noi", "lat": 21.1215777, "lon": 105.6432435, "geolocation": {"latitude": 21.1215777, "longitude": 105.6432435}}, {"district": "Đan Phượng", "ward": "Thọ An", "street": "Đạc 2 Đạo", "city": "Hà Nội", "normalize": "dac 2 dao tho an dan phuong ha noi", "streetNormalize": "dac 2 dao tho an dan phuong ha noi", "wardNormalize": "tho an dan phuong ha noi", "districtNormalize": "dan phuong ha noi", "preWardNormalize": "xa tho an dan phuong ha noi", "lat": 21.1265353, "lon": 105.642361, "geolocation": {"latitude": 21.1265353, "longitude": 105.642361}}, {"district": "Đan Phượng", "ward": "Thọ An", "street": "Đạc Nhất 1", "city": "Hà Nội", "normalize": "dac nhat 1 tho an dan phuong ha noi", "streetNormalize": "dac nhat 1 tho an dan phuong ha noi", "wardNormalize": "tho an dan phuong ha noi", "districtNormalize": "dan phuong ha noi", "preWardNormalize": "xa tho an dan phuong ha noi", "lat": 21.1258902, "lon": 105.6397603, "geolocation": {"latitude": 21.1258902, "longitude": 105.6397603}}, {"district": "Đan Phượng", "ward": "Thọ An", "street": "Đạc Nhất 2", "city": "Hà Nội", "normalize": "dac nhat 2 tho an dan phuong ha noi", "streetNormalize": "dac nhat 2 tho an dan phuong ha noi", "wardNormalize": "tho an dan phuong ha noi", "districtNormalize": "dan phuong ha noi", "preWardNormalize": "xa tho an dan phuong ha noi", "lat": 21.1246252, "lon": 105.6399109, "geolocation": {"latitude": 21.1246252, "longitude": 105.6399109}}, {"district": "Đan Phượng", "ward": "Thọ An", "street": "Đạc Nhất 3", "city": "Hà Nội", "normalize": "dac nhat 3 tho an dan phuong ha noi", "streetNormalize": "dac nhat 3 tho an dan phuong ha noi", "wardNormalize": "tho an dan phuong ha noi", "districtNormalize": "dan phuong ha noi", "preWardNormalize": "xa tho an dan phuong ha noi", "lat": 21.1246223, "lon": 105.6399028, "geolocation": {"latitude": 21.1246223, "longitude": 105.6399028}}, {"district": "Đan Phượng", "ward": "Thọ An", "street": "Đạc Nhất 4", "city": "Hà Nội", "normalize": "dac nhat 4 tho an dan phuong ha noi", "streetNormalize": "dac nhat 4 tho an dan phuong ha noi", "wardNormalize": "tho an dan phuong ha noi", "districtNormalize": "dan phuong ha noi", "preWardNormalize": "xa tho an dan phuong ha noi", "lat": 21.123921, "lon": 105.6401163, "geolocation": {"latitude": 21.123921, "longitude": 105.6401163}}, {"district": "Đan Phượng", "ward": "Thọ An", "street": "Đạc Nhất 5", "city": "Hà Nội", "normalize": "dac nhat 5 tho an dan phuong ha noi", "streetNormalize": "dac nhat 5 tho an dan phuong ha noi", "wardNormalize": "tho an dan phuong ha noi", "districtNormalize": "dan phuong ha noi", "preWardNormalize": "xa tho an dan phuong ha noi", "lat": 21.121411, "lon": 105.6402589, "geolocation": {"latitude": 21.121411, "longitude": 105.6402589}}, {"district": "Đan Phượng", "ward": "Thọ An", "street": "Đạc Nhất 6", "city": "Hà Nội", "normalize": "dac nhat 6 tho an dan phuong ha noi", "streetNormalize": "dac nhat 6 tho an dan phuong ha noi", "wardNormalize": "tho an dan phuong ha noi", "districtNormalize": "dan phuong ha noi", "preWardNormalize": "xa tho an dan phuong ha noi", "lat": 21.1203545, "lon": 105.6398879, "geolocation": {"latitude": 21.1203545, "longitude": 105.6398879}}, {"district": "Đan Phượng", "ward": "Thọ Xuân", "street": "Bắc Hòa Bình", "city": "Hà Nội", "normalize": "bac hoa binh tho xuan dan phuong ha noi", "streetNormalize": "bac hoa binh tho xuan dan phuong ha noi", "wardNormalize": "tho xuan dan phuong ha noi", "districtNormalize": "dan phuong ha noi", "preWardNormalize": "xa tho xuan dan phuong ha noi", "lat": 21.1273808, "lon": 105.6463318, "geolocation": {"latitude": 21.1273808, "longitude": 105.6463318}}, {"district": "Đan Phượng", "ward": "Thọ Xuân", "street": "Bắc Thống Nhất", "city": "Hà Nội", "normalize": "bac thong nhat tho xuan dan phuong ha noi", "streetNormalize": "bac thong nhat tho xuan dan phuong ha noi", "wardNormalize": "tho xuan dan phuong ha noi", "districtNormalize": "dan phuong ha noi", "preWardNormalize": "xa tho xuan dan phuong ha noi", "lat": 21.1223669, "lon": 105.6494652, "geolocation": {"latitude": 21.1223669, "longitude": 105.6494652}}, {"district": "Đan Phượng", "ward": "Thọ Xuân", "street": "Cổ Bồng", "city": "Hà Nội", "normalize": "co bong tho xuan dan phuong ha noi", "streetNormalize": "co bong tho xuan dan phuong ha noi", "wardNormalize": "tho xuan dan phuong ha noi", "districtNormalize": "dan phuong ha noi", "preWardNormalize": "xa tho xuan dan phuong ha noi", "lat": 21.1214032, "lon": 105.6589004, "geolocation": {"latitude": 21.1214032, "longitude": 105.6589004}}, {"district": "Đan Phượng", "ward": "Thọ Xuân", "street": "Cực Nam", "city": "Hà Nội", "normalize": "cuc nam tho xuan dan phuong ha noi", "streetNormalize": "cuc nam tho xuan dan phuong ha noi", "wardNormalize": "tho xuan dan phuong ha noi", "districtNormalize": "dan phuong ha noi", "preWardNormalize": "xa tho xuan dan phuong ha noi", "lat": 21.1149628, "lon": 105.6404319, "geolocation": {"latitude": 21.1149628, "longitude": 105.6404319}}, {"district": "Đan Phượng", "ward": "Thọ Xuân", "street": "Mới An", "city": "Hà Nội", "normalize": "moi an tho xuan dan phuong ha noi", "streetNormalize": "moi an tho xuan dan phuong ha noi", "wardNormalize": "tho xuan dan phuong ha noi", "districtNormalize": "dan phuong ha noi", "preWardNormalize": "xa tho xuan dan phuong ha noi", "lat": 21.127435, "lon": 105.6448729, "geolocation": {"latitude": 21.127435, "longitude": 105.6448729}}, {"district": "Đan Phượng", "ward": "Thọ Xuân", "street": "Phương Vinh", "city": "Hà Nội", "normalize": "phuong vinh tho xuan dan phuong ha noi", "streetNormalize": "phuong vinh tho xuan dan phuong ha noi", "wardNormalize": "tho xuan dan phuong ha noi", "districtNormalize": "dan phuong ha noi", "preWardNormalize": "xa tho xuan dan phuong ha noi", "lat": 21.1186247, "lon": 105.6570152, "geolocation": {"latitude": 21.1186247, "longitude": 105.6570152}}, {"district": "Đan Phượng", "ward": "Thọ Xuân", "street": "Thọ Xuân", "city": "Hà Nội", "normalize": "tho xuan tho xuan dan phuong ha noi", "streetNormalize": "tho xuan tho xuan dan phuong ha noi", "wardNormalize": "tho xuan dan phuong ha noi", "districtNormalize": "dan phuong ha noi", "preWardNormalize": "xa tho xuan dan phuong ha noi", "lat": 21.1229914, "lon": 105.6521025, "geolocation": {"latitude": 21.1229914, "longitude": 105.6521025}}, {"district": "Đan Phượng", "ward": "Thọ Xuân", "street": "Thống Nhất", "city": "Hà Nội", "normalize": "thong nhat tho xuan dan phuong ha noi", "streetNormalize": "thong nhat tho xuan dan phuong ha noi", "wardNormalize": "tho xuan dan phuong ha noi", "districtNormalize": "dan phuong ha noi", "preWardNormalize": "xa tho xuan dan phuong ha noi", "lat": 21.1200852, "lon": 105.6507882, "geolocation": {"latitude": 21.1200852, "longitude": 105.6507882}}, {"district": "Đan Phượng", "ward": "Thọ Xuân", "street": "Tiến Bộ", "city": "Hà Nội", "normalize": "tien bo tho xuan dan phuong ha noi", "streetNormalize": "tien bo tho xuan dan phuong ha noi", "wardNormalize": "tho xuan dan phuong ha noi", "districtNormalize": "dan phuong ha noi", "preWardNormalize": "xa tho xuan dan phuong ha noi", "lat": 21.1215479, "lon": 105.6459024, "geolocation": {"latitude": 21.1215479, "longitude": 105.6459024}}, {"district": "Đan Phượng", "ward": "Thọ Xuân", "street": "Trung Hà Trại", "city": "Hà Nội", "normalize": "trung ha trai tho xuan dan phuong ha noi", "streetNormalize": "trung ha trai tho xuan dan phuong ha noi", "wardNormalize": "tho xuan dan phuong ha noi", "districtNormalize": "dan phuong ha noi", "preWardNormalize": "xa tho xuan dan phuong ha noi", "lat": 21.1226946, "lon": 105.6552127, "geolocation": {"latitude": 21.1226946, "longitude": 105.6552127}}, {"district": "Đan Phượng", "ward": "Thọ Xuân", "street": "Tây Đạc 3", "city": "Hà Nội", "normalize": "tay dac 3 tho xuan dan phuong ha noi", "streetNormalize": "tay dac 3 tho xuan dan phuong ha noi", "wardNormalize": "tho xuan dan phuong ha noi", "districtNormalize": "dan phuong ha noi", "preWardNormalize": "xa tho xuan dan phuong ha noi", "lat": 21.1225324, "lon": 105.6436321, "geolocation": {"latitude": 21.1225324, "longitude": 105.6436321}}, {"district": "Đan Phượng", "ward": "Thọ Xuân", "street": "Tây Đạc Tư Đình", "city": "Hà Nội", "normalize": "tay dac tu dinh tho xuan dan phuong ha noi", "streetNormalize": "tay dac tu dinh tho xuan dan phuong ha noi", "wardNormalize": "tho xuan dan phuong ha noi", "districtNormalize": "dan phuong ha noi", "preWardNormalize": "xa tho xuan dan phuong ha noi", "lat": 21.1246651, "lon": 105.6441992, "geolocation": {"latitude": 21.1246651, "longitude": 105.6441992}}, {"district": "Đan Phượng", "ward": "Thọ Xuân", "street": "Đt 417", "city": "Hà Nội", "normalize": "dt 417 tho xuan dan phuong ha noi", "streetNormalize": "dt 417 tho xuan dan phuong ha noi", "wardNormalize": "tho xuan dan phuong ha noi", "districtNormalize": "dan phuong ha noi", "preWardNormalize": "xa tho xuan dan phuong ha noi", "lat": 21.1107113, "lon": 105.6566581, "geolocation": {"latitude": 21.1107113, "longitude": 105.6566581}}, {"district": "Đan Phượng", "ward": "Thọ Xuân", "street": "Đình Thọ Lão", "city": "Hà Nội", "normalize": "dinh tho lao tho xuan dan phuong ha noi", "streetNormalize": "dinh tho lao tho xuan dan phuong ha noi", "wardNormalize": "tho xuan dan phuong ha noi", "districtNormalize": "dan phuong ha noi", "preWardNormalize": "xa tho xuan dan phuong ha noi", "lat": 21.1236503, "lon": 105.6447182, "geolocation": {"latitude": 21.1236503, "longitude": 105.6447182}}, {"district": "Đan Phượng", "ward": "Thọ Xuân", "street": "Đạc 10", "city": "Hà Nội", "normalize": "dac 10 tho xuan dan phuong ha noi", "streetNormalize": "dac 10 tho xuan dan phuong ha noi", "wardNormalize": "tho xuan dan phuong ha noi", "districtNormalize": "dan phuong ha noi", "preWardNormalize": "xa tho xuan dan phuong ha noi", "lat": 21.1190345, "lon": 105.6596799, "geolocation": {"latitude": 21.1190345, "longitude": 105.6596799}}, {"district": "Đan Phượng", "ward": "Thọ Xuân", "street": "Đạc 6 Nội", "city": "Hà Nội", "normalize": "dac 6 noi tho xuan dan phuong ha noi", "streetNormalize": "dac 6 noi tho xuan dan phuong ha noi", "wardNormalize": "tho xuan dan phuong ha noi", "districtNormalize": "dan phuong ha noi", "preWardNormalize": "xa tho xuan dan phuong ha noi", "lat": 21.1261639, "lon": 105.6470799, "geolocation": {"latitude": 21.1261639, "longitude": 105.6470799}}, {"district": "Đan Phượng", "ward": "Thọ Xuân", "street": "Đạc 9", "city": "Hà Nội", "normalize": "dac 9 tho xuan dan phuong ha noi", "streetNormalize": "dac 9 tho xuan dan phuong ha noi", "wardNormalize": "tho xuan dan phuong ha noi", "districtNormalize": "dan phuong ha noi", "preWardNormalize": "xa tho xuan dan phuong ha noi", "lat": 21.1189713, "lon": 105.6578609, "geolocation": {"latitude": 21.1189713, "longitude": 105.6578609}}, {"district": "Đan Phượng", "ward": "Thọ Xuân", "street": "Đạc Tư Đình", "city": "Hà Nội", "normalize": "dac tu dinh tho xuan dan phuong ha noi", "streetNormalize": "dac tu dinh tho xuan dan phuong ha noi", "wardNormalize": "tho xuan dan phuong ha noi", "districtNormalize": "dan phuong ha noi", "preWardNormalize": "xa tho xuan dan phuong ha noi", "lat": 21.1251298, "lon": 105.6449668, "geolocation": {"latitude": 21.1251298, "longitude": 105.6449668}}, {"district": "Đan Phượng", "ward": "Thượng Mỗ", "street": "An Bài", "city": "Hà Nội", "normalize": "an bai thuong mo dan phuong ha noi", "streetNormalize": "an bai thuong mo dan phuong ha noi", "wardNormalize": "thuong mo dan phuong ha noi", "districtNormalize": "dan phuong ha noi", "preWardNormalize": "xa thuong mo dan phuong ha noi", "lat": 21.1050454, "lon": 105.6801631, "geolocation": {"latitude": 21.1050454, "longitude": 105.6801631}}, {"district": "Đan Phượng", "ward": "Thượng Mỗ", "street": "Hạ Mỗ", "city": "Hà Nội", "normalize": "ha mo thuong mo dan phuong ha noi", "streetNormalize": "ha mo thuong mo dan phuong ha noi", "wardNormalize": "thuong mo dan phuong ha noi", "districtNormalize": "dan phuong ha noi", "preWardNormalize": "xa thuong mo dan phuong ha noi", "lat": 21.1080168, "lon": 105.6801224, "geolocation": {"latitude": 21.1080168, "longitude": 105.6801224}}, {"district": "Đan Phượng", "ward": "Thượng Mỗ", "street": "Ngõ Ngoài", "city": "Hà Nội", "normalize": "ngo ngoai thuong mo dan phuong ha noi", "streetNormalize": "ngo ngoai thuong mo dan phuong ha noi", "wardNormalize": "thuong mo dan phuong ha noi", "districtNormalize": "dan phuong ha noi", "preWardNormalize": "xa thuong mo dan phuong ha noi", "lat": 21.1090658, "lon": 105.6854566, "geolocation": {"latitude": 21.1090658, "longitude": 105.6854566}}, {"district": "Đan Phượng", "ward": "Thượng Mỗ", "street": "Thượng Mỗ", "city": "Hà Nội", "normalize": "thuong mo thuong mo dan phuong ha noi", "streetNormalize": "thuong mo thuong mo dan phuong ha noi", "wardNormalize": "thuong mo dan phuong ha noi", "districtNormalize": "dan phuong ha noi", "preWardNormalize": "xa thuong mo dan phuong ha noi", "lat": 21.0996895, "lon": 105.6728571, "geolocation": {"latitude": 21.0996895, "longitude": 105.6728571}}, {"district": "Đan Phượng", "ward": "Thượng Mỗ", "street": "Trung Thành", "city": "Hà Nội", "normalize": "trung thanh thuong mo dan phuong ha noi", "streetNormalize": "trung thanh thuong mo dan phuong ha noi", "wardNormalize": "thuong mo dan phuong ha noi", "districtNormalize": "dan phuong ha noi", "preWardNormalize": "xa thuong mo dan phuong ha noi", "lat": 21.1132883, "lon": 105.6673748, "geolocation": {"latitude": 21.1132883, "longitude": 105.6673748}}, {"district": "Đan Phượng", "ward": "Thượng Mỗ", "street": "Tân Thành", "city": "Hà Nội", "normalize": "tan thanh thuong mo dan phuong ha noi", "streetNormalize": "tan thanh thuong mo dan phuong ha noi", "wardNormalize": "thuong mo dan phuong ha noi", "districtNormalize": "dan phuong ha noi", "preWardNormalize": "xa thuong mo dan phuong ha noi", "lat": 21.1121275, "lon": 105.6765197, "geolocation": {"latitude": 21.1121275, "longitude": 105.6765197}}, {"district": "Đan Phượng", "ward": "Thượng Mỗ", "street": "Đường Đê", "city": "Hà Nội", "normalize": "duong de thuong mo dan phuong ha noi", "streetNormalize": "duong de thuong mo dan phuong ha noi", "wardNormalize": "thuong mo dan phuong ha noi", "districtNormalize": "dan phuong ha noi", "preWardNormalize": "xa thuong mo dan phuong ha noi", "lat": 21.1067703, "lon": 105.6752379, "geolocation": {"latitude": 21.1067703, "longitude": 105.6752379}}, {"district": "Đan Phượng", "ward": "Thượng Mỗ", "street": "Đại Phú", "city": "Hà Nội", "normalize": "dai phu thuong mo dan phuong ha noi", "streetNormalize": "dai phu thuong mo dan phuong ha noi", "wardNormalize": "thuong mo dan phuong ha noi", "districtNormalize": "dan phuong ha noi", "preWardNormalize": "xa thuong mo dan phuong ha noi", "lat": 21.105811, "lon": 105.6806745, "geolocation": {"latitude": 21.105811, "longitude": 105.6806745}}]}