{"data": [{"district": "Đống Đa", "ward": "Cát Linh", "street": "An Trạch", "city": "Hà Nội", "normalize": "an trach cat linh dong da ha noi", "streetNormalize": "an trach cat linh dong da ha noi", "wardNormalize": "cat linh dong da ha noi", "districtNormalize": "dong da ha noi", "preWardNormalize": "phuong cat linh dong da ha noi", "lat": 21.027651, "lon": 105.830193, "geolocation": {"latitude": 21.027651, "longitude": 105.830193}}, {"district": "Đống Đa", "ward": "Cát Linh", "street": "Cát Linh", "city": "Hà Nội", "normalize": "cat linh cat linh dong da ha noi", "streetNormalize": "cat linh cat linh dong da ha noi", "wardNormalize": "cat linh dong da ha noi", "districtNormalize": "dong da ha noi", "preWardNormalize": "phuong cat linh dong da ha noi", "lat": 21.0291072, "lon": 105.8298273, "geolocation": {"latitude": 21.0291072, "longitude": 105.8298273}}, {"district": "Đống Đa", "ward": "Cát Linh", "street": "Giảng Võ", "city": "Hà Nội", "normalize": "giang vo cat linh dong da ha noi", "streetNormalize": "giang vo cat linh dong da ha noi", "wardNormalize": "cat linh dong da ha noi", "districtNormalize": "dong da ha noi", "preWardNormalize": "phuong cat linh dong da ha noi", "lat": 21.030448, "lon": 105.828554, "geolocation": {"latitude": 21.030448, "longitude": 105.828554}}, {"district": "Đống Đa", "ward": "Cát Linh", "street": "Hàng Bột", "city": "Hà Nội", "normalize": "hang bot cat linh dong da ha noi", "streetNormalize": "hang bot cat linh dong da ha noi", "wardNormalize": "cat linh dong da ha noi", "districtNormalize": "dong da ha noi", "preWardNormalize": "phuong cat linh dong da ha noi", "lat": 21.029153, "lon": 105.8343161, "geolocation": {"latitude": 21.029153, "longitude": 105.8343161}}, {"district": "Đống Đa", "ward": "Cát Linh", "street": "Hàng Cháo", "city": "Hà Nội", "normalize": "hang chao cat linh dong da ha noi", "streetNormalize": "hang chao cat linh dong da ha noi", "wardNormalize": "cat linh dong da ha noi", "districtNormalize": "dong da ha noi", "preWardNormalize": "phuong cat linh dong da ha noi", "lat": 21.030248, "lon": 105.834472, "geolocation": {"latitude": 21.030248, "longitude": 105.834472}}, {"district": "Đống Đa", "ward": "Cát Linh", "street": "Hào Nam", "city": "Hà Nội", "normalize": "hao nam cat linh dong da ha noi", "streetNormalize": "hao nam cat linh dong da ha noi", "wardNormalize": "cat linh dong da ha noi", "districtNormalize": "dong da ha noi", "preWardNormalize": "phuong cat linh dong da ha noi", "lat": 21.0290681, "lon": 105.8274677, "geolocation": {"latitude": 21.0290681, "longitude": 105.8274677}}, {"district": "Đống Đa", "ward": "Cát Linh", "street": "Phan Phu Tiên", "city": "Hà Nội", "normalize": "phan phu tien cat linh dong da ha noi", "streetNormalize": "phan phu tien cat linh dong da ha noi", "wardNormalize": "cat linh dong da ha noi", "districtNormalize": "dong da ha noi", "preWardNormalize": "phuong cat linh dong da ha noi", "lat": 21.0287833, "lon": 105.8340836, "geolocation": {"latitude": 21.0287833, "longitude": 105.8340836}}, {"district": "Đống Đa", "ward": "Cát Linh", "street": "Trịnh Hoài Đức", "city": "Hà Nội", "normalize": "trinh hoai duc cat linh dong da ha noi", "streetNormalize": "trinh hoai duc cat linh dong da ha noi", "wardNormalize": "cat linh dong da ha noi", "districtNormalize": "dong da ha noi", "preWardNormalize": "phuong cat linh dong da ha noi", "lat": 21.02873, "lon": 105.831793, "geolocation": {"latitude": 21.02873, "longitude": 105.831793}}, {"district": "Đống Đa", "ward": "Cát Linh", "street": "Tôn Đức Thắng", "city": "Hà Nội", "normalize": "ton duc thang cat linh dong da ha noi", "streetNormalize": "ton duc thang cat linh dong da ha noi", "wardNormalize": "cat linh dong da ha noi", "districtNormalize": "dong da ha noi", "preWardNormalize": "phuong cat linh dong da ha noi", "lat": 21.0278725729096, "lon": 105.834185896017, "geolocation": {"latitude": 21.0278725729096, "longitude": 105.834185896017}}, {"district": "Đống Đa", "ward": "Cát Linh", "street": "Vũ Thạnh", "city": "Hà Nội", "normalize": "vu thanh cat linh dong da ha noi", "streetNormalize": "vu thanh cat linh dong da ha noi", "wardNormalize": "cat linh dong da ha noi", "districtNormalize": "dong da ha noi", "preWardNormalize": "phuong cat linh dong da ha noi", "lat": 21.02735, "lon": 105.825092, "geolocation": {"latitude": 21.02735, "longitude": 105.825092}}, {"district": "Đống Đa", "ward": "Hàng Bột", "street": "Cẩm Văn", "city": "Hà Nội", "normalize": "cam van hang bot dong da ha noi", "streetNormalize": "cam van hang bot dong da ha noi", "wardNormalize": "hang bot dong da ha noi", "districtNormalize": "dong da ha noi", "preWardNormalize": "phuong hang bot dong da ha noi", "lat": 21.0211212, "lon": 105.8290109, "geolocation": {"latitude": 21.0211212, "longitude": 105.8290109}}, {"district": "Đống Đa", "ward": "Hàng Bột", "street": "Hồ Văn Chương", "city": "Hà Nội", "normalize": "ho van chuong hang bot dong da ha noi", "streetNormalize": "ho van chuong hang bot dong da ha noi", "wardNormalize": "hang bot dong da ha noi", "districtNormalize": "dong da ha noi", "preWardNormalize": "phuong hang bot dong da ha noi", "lat": 21.0213112, "lon": 105.8331457, "geolocation": {"latitude": 21.0213112, "longitude": 105.8331457}}, {"district": "Đống Đa", "ward": "Hàng Bột", "street": "Phan Văn Trị", "city": "Hà Nội", "normalize": "phan van tri hang bot dong da ha noi", "streetNormalize": "phan van tri hang bot dong da ha noi", "wardNormalize": "hang bot dong da ha noi", "districtNormalize": "dong da ha noi", "preWardNormalize": "phuong hang bot dong da ha noi", "lat": 21.025725, "lon": 105.831962, "geolocation": {"latitude": 21.025725, "longitude": 105.831962}}, {"district": "Đống Đa", "ward": "Hàng Bột", "street": "Quan Thổ 1", "city": "Hà Nội", "normalize": "quan tho 1 hang bot dong da ha noi", "streetNormalize": "quan tho 1 hang bot dong da ha noi", "wardNormalize": "hang bot dong da ha noi", "districtNormalize": "dong da ha noi", "preWardNormalize": "phuong hang bot dong da ha noi", "lat": 21.0237182, "lon": 105.8292014, "geolocation": {"latitude": 21.0237182, "longitude": 105.8292014}}, {"district": "Đống Đa", "ward": "Hàng Bột", "street": "Thịnh Hào 1", "city": "Hà Nội", "normalize": "thinh hao 1 hang bot dong da ha noi", "streetNormalize": "thinh hao 1 hang bot dong da ha noi", "wardNormalize": "hang bot dong da ha noi", "districtNormalize": "dong da ha noi", "preWardNormalize": "phuong hang bot dong da ha noi", "lat": 21.0240076, "lon": 105.8305696, "geolocation": {"latitude": 21.0240076, "longitude": 105.8305696}}, {"district": "Đống Đa", "ward": "Hàng Bột", "street": "Thịnh Hào 3", "city": "Hà Nội", "normalize": "thinh hao 3 hang bot dong da ha noi", "streetNormalize": "thinh hao 3 hang bot dong da ha noi", "wardNormalize": "hang bot dong da ha noi", "districtNormalize": "dong da ha noi", "preWardNormalize": "phuong hang bot dong da ha noi", "lat": 21.0222772, "lon": 105.8314056, "geolocation": {"latitude": 21.0222772, "longitude": 105.8314056}}, {"district": "Đống Đa", "ward": "Hàng Bột", "street": "Tôn Đức Thắng", "city": "Hà Nội", "normalize": "ton duc thang hang bot dong da ha noi", "streetNormalize": "ton duc thang hang bot dong da ha noi", "wardNormalize": "hang bot dong da ha noi", "districtNormalize": "dong da ha noi", "preWardNormalize": "phuong hang bot dong da ha noi", "lat": 21.023378, "lon": 105.832225, "geolocation": {"latitude": 21.023378, "longitude": 105.832225}}, {"district": "Đống Đa", "ward": "Hàng Bột", "street": "Văn Hương", "city": "Hà Nội", "normalize": "van huong hang bot dong da ha noi", "streetNormalize": "van huong hang bot dong da ha noi", "wardNormalize": "hang bot dong da ha noi", "districtNormalize": "dong da ha noi", "preWardNormalize": "phuong hang bot dong da ha noi", "lat": 21.024341, "lon": 105.834088, "geolocation": {"latitude": 21.024341, "longitude": 105.834088}}, {"district": "Đống Đa", "ward": "Khâm Thiên", "street": "Khâm Thiên", "city": "Hà Nội", "normalize": "kham thien kham thien dong da ha noi", "streetNormalize": "kham thien kham thien dong da ha noi", "wardNormalize": "kham thien dong da ha noi", "districtNormalize": "dong da ha noi", "preWardNormalize": "phuong kham thien dong da ha noi", "lat": 21.0194252, "lon": 105.8318137, "geolocation": {"latitude": 21.0194252, "longitude": 105.8318137}}, {"district": "Đống Đa", "ward": "Khâm Thiên", "street": "Lê Duẩn", "city": "Hà Nội", "normalize": "le duan kham thien dong da ha noi", "streetNormalize": "le duan kham thien dong da ha noi", "wardNormalize": "kham thien dong da ha noi", "districtNormalize": "dong da ha noi", "preWardNormalize": "phuong kham thien dong da ha noi", "lat": 21.015319, "lon": 105.841422, "geolocation": {"latitude": 21.015319, "longitude": 105.841422}}, {"district": "Đống Đa", "ward": "Khâm Thiên", "street": "Trung Tiền", "city": "Hà Nội", "normalize": "trung tien kham thien dong da ha noi", "streetNormalize": "trung tien kham thien dong da ha noi", "wardNormalize": "kham thien dong da ha noi", "districtNormalize": "dong da ha noi", "preWardNormalize": "phuong kham thien dong da ha noi", "lat": 21.0200046, "lon": 105.8380308, "geolocation": {"latitude": 21.0200046, "longitude": 105.8380308}}, {"district": "Đống Đa", "ward": "Khương Thượng", "street": "Khương Thượng", "city": "Hà Nội", "normalize": "khuong thuong khuong thuong dong da ha noi", "streetNormalize": "khuong thuong khuong thuong dong da ha noi", "wardNormalize": "khuong thuong dong da ha noi", "districtNormalize": "dong da ha noi", "preWardNormalize": "phuong khuong thuong dong da ha noi", "lat": 21.0031997, "lon": 105.8243757, "geolocation": {"latitude": 21.0031997, "longitude": 105.8243757}}, {"district": "Đống Đa", "ward": "Khương Thượng", "street": "Tam Khương", "city": "Hà Nội", "normalize": "tam khuong khuong thuong dong da ha noi", "streetNormalize": "tam khuong khuong thuong dong da ha noi", "wardNormalize": "khuong thuong dong da ha noi", "districtNormalize": "dong da ha noi", "preWardNormalize": "phuong khuong thuong dong da ha noi", "lat": 21.004494, "lon": 105.828306, "geolocation": {"latitude": 21.004494, "longitude": 105.828306}}, {"district": "Đống Đa", "ward": "Khương Thượng", "street": "Trường Chinh", "city": "Hà Nội", "normalize": "truong chinh khuong thuong dong da ha noi", "streetNormalize": "truong chinh khuong thuong dong da ha noi", "wardNormalize": "khuong thuong dong da ha noi", "districtNormalize": "dong da ha noi", "preWardNormalize": "phuong khuong thuong dong da ha noi", "lat": 21.000282, "lon": 105.830805, "geolocation": {"latitude": 21.000282, "longitude": 105.830805}}, {"district": "Đống Đa", "ward": "Khương Thượng", "street": "Tôn Thất Tùng", "city": "Hà Nội", "normalize": "ton that tung khuong thuong dong da ha noi", "streetNormalize": "ton that tung khuong thuong dong da ha noi", "wardNormalize": "khuong thuong dong da ha noi", "districtNormalize": "dong da ha noi", "preWardNormalize": "phuong khuong thuong dong da ha noi", "lat": 21.0025101, "lon": 105.8298183, "geolocation": {"latitude": 21.0025101, "longitude": 105.8298183}}, {"district": "Đống Đa", "ward": "Khương Thượng", "street": "Đại La", "city": "Hà Nội", "normalize": "dai la khuong thuong dong da ha noi", "streetNormalize": "dai la khuong thuong dong da ha noi", "wardNormalize": "khuong thuong dong da ha noi", "districtNormalize": "dong da ha noi", "preWardNormalize": "phuong khuong thuong dong da ha noi", "lat": 21.0012137, "lon": 105.8275948, "geolocation": {"latitude": 21.0012137, "longitude": 105.8275948}}, {"district": "Đống Đa", "ward": "Kim Liên", "street": "Hoàng Tích Trí", "city": "Hà Nội", "normalize": "hoang tich tri kim lien dong da ha noi", "streetNormalize": "hoang tich tri kim lien dong da ha noi", "wardNormalize": "kim lien dong da ha noi", "districtNormalize": "dong da ha noi", "preWardNormalize": "phuong kim lien dong da ha noi", "lat": 21.008374, "lon": 105.83625, "geolocation": {"latitude": 21.008374, "longitude": 105.83625}}, {"district": "Đống Đa", "ward": "Kim Liên", "street": "Trung Tự", "city": "Hà Nội", "normalize": "trung tu kim lien dong da ha noi", "streetNormalize": "trung tu kim lien dong da ha noi", "wardNormalize": "kim lien dong da ha noi", "districtNormalize": "dong da ha noi", "preWardNormalize": "phuong kim lien dong da ha noi", "lat": 21.0043888, "lon": 105.8340211, "geolocation": {"latitude": 21.0043888, "longitude": 105.8340211}}, {"district": "Đống Đa", "ward": "Kim Liên", "street": "Đào Duy Anh", "city": "Hà Nội", "normalize": "dao duy anh kim lien dong da ha noi", "streetNormalize": "dao duy anh kim lien dong da ha noi", "wardNormalize": "kim lien dong da ha noi", "districtNormalize": "dong da ha noi", "preWardNormalize": "phuong kim lien dong da ha noi", "lat": 21.0088531549914, "lon": 105.838142638271, "geolocation": {"latitude": 21.0088531549914, "longitude": 105.838142638271}}, {"district": "Đống Đa", "ward": "Kim Liên", "street": "Đông Tác", "city": "Hà Nội", "normalize": "dong tac kim lien dong da ha noi", "streetNormalize": "dong tac kim lien dong da ha noi", "wardNormalize": "kim lien dong da ha noi", "districtNormalize": "dong da ha noi", "preWardNormalize": "phuong kim lien dong da ha noi", "lat": 21.005864, "lon": 105.833785, "geolocation": {"latitude": 21.005864, "longitude": 105.833785}}, {"district": "Đống Đa", "ward": "Láng Hạ", "street": "Hoàng Ngọc Phách", "city": "Hà Nội", "normalize": "hoang ngoc phach lang ha dong da ha noi", "streetNormalize": "hoang ngoc phach lang ha dong da ha noi", "wardNormalize": "lang ha dong da ha noi", "districtNormalize": "dong da ha noi", "preWardNormalize": "phuong lang ha dong da ha noi", "lat": 21.015572, "lon": 105.812568, "geolocation": {"latitude": 21.015572, "longitude": 105.812568}}, {"district": "Đống Đa", "ward": "Láng Hạ", "street": "Huỳnh Thúc Kháng", "city": "Hà Nội", "normalize": "huynh thuc khang lang ha dong da ha noi", "streetNormalize": "huynh thuc khang lang ha dong da ha noi", "wardNormalize": "lang ha dong da ha noi", "districtNormalize": "dong da ha noi", "preWardNormalize": "phuong lang ha dong da ha noi", "lat": 21.019038, "lon": 105.80995, "geolocation": {"latitude": 21.019038, "longitude": 105.80995}}, {"district": "Đống Đa", "ward": "Láng Hạ", "street": "Láng Hạ", "city": "Hà Nội", "normalize": "lang ha lang ha dong da ha noi", "streetNormalize": "lang ha lang ha dong da ha noi", "wardNormalize": "lang ha dong da ha noi", "districtNormalize": "dong da ha noi", "preWardNormalize": "phuong lang ha dong da ha noi", "lat": 21.0161086, "lon": 105.8146779, "geolocation": {"latitude": 21.0161086, "longitude": 105.8146779}}, {"district": "Đống Đa", "ward": "Láng Hạ", "street": "Láng Trung", "city": "Hà Nội", "normalize": "lang trung lang ha dong da ha noi", "streetNormalize": "lang trung lang ha dong da ha noi", "wardNormalize": "lang ha dong da ha noi", "districtNormalize": "dong da ha noi", "preWardNormalize": "phuong lang ha dong da ha noi", "lat": 21.014892, "lon": 105.80725, "geolocation": {"latitude": 21.014892, "longitude": 105.80725}}, {"district": "Đống Đa", "ward": "Láng Hạ", "street": "Nguyên Hồng", "city": "Hà Nội", "normalize": "nguyen hong lang ha dong da ha noi", "streetNormalize": "nguyen hong lang ha dong da ha noi", "wardNormalize": "lang ha dong da ha noi", "districtNormalize": "dong da ha noi", "preWardNormalize": "phuong lang ha dong da ha noi", "lat": 21.018124, "lon": 105.81179, "geolocation": {"latitude": 21.018124, "longitude": 105.81179}}, {"district": "Đống Đa", "ward": "Láng Hạ", "street": "Nguyễn Văn Tuyết", "city": "Hà Nội", "normalize": "nguyen van tuyet lang ha dong da ha noi", "streetNormalize": "nguyen van tuyet lang ha dong da ha noi", "wardNormalize": "lang ha dong da ha noi", "districtNormalize": "dong da ha noi", "preWardNormalize": "phuong lang ha dong da ha noi", "lat": 21.0122411637035, "lon": 105.81784449283, "geolocation": {"latitude": 21.0122411637035, "longitude": 105.81784449283}}, {"district": "Đống Đa", "ward": "Láng Hạ", "street": "Thái Hà", "city": "Hà Nội", "normalize": "thai ha lang ha dong da ha noi", "streetNormalize": "thai ha lang ha dong da ha noi", "wardNormalize": "lang ha dong da ha noi", "districtNormalize": "dong da ha noi", "preWardNormalize": "phuong lang ha dong da ha noi", "lat": 21.015176, "lon": 105.81703, "geolocation": {"latitude": 21.015176, "longitude": 105.81703}}, {"district": "Đống Đa", "ward": "Láng Hạ", "street": "Thái Thịnh", "city": "Hà Nội", "normalize": "thai thinh lang ha dong da ha noi", "streetNormalize": "thai thinh lang ha dong da ha noi", "wardNormalize": "lang ha dong da ha noi", "districtNormalize": "dong da ha noi", "preWardNormalize": "phuong lang ha dong da ha noi", "lat": 21.010484, "lon": 105.818445, "geolocation": {"latitude": 21.010484, "longitude": 105.818445}}, {"district": "Đống Đa", "ward": "Láng Hạ", "street": "Trúc Khê", "city": "Hà Nội", "normalize": "truc khe lang ha dong da ha noi", "streetNormalize": "truc khe lang ha dong da ha noi", "wardNormalize": "lang ha dong da ha noi", "districtNormalize": "dong da ha noi", "preWardNormalize": "phuong lang ha dong da ha noi", "lat": 21.016197, "lon": 105.808227, "geolocation": {"latitude": 21.016197, "longitude": 105.808227}}, {"district": "Đống Đa", "ward": "Láng Hạ", "street": "Vũ Ngọc Phan", "city": "Hà Nội", "normalize": "vu ngoc phan lang ha dong da ha noi", "streetNormalize": "vu ngoc phan lang ha dong da ha noi", "wardNormalize": "lang ha dong da ha noi", "districtNormalize": "dong da ha noi", "preWardNormalize": "phuong lang ha dong da ha noi", "lat": 21.014174, "lon": 105.810768, "geolocation": {"latitude": 21.014174, "longitude": 105.810768}}, {"district": "Đống Đa", "ward": "Láng Hạ", "street": "Yên Lãng", "city": "Hà Nội", "normalize": "yen lang lang ha dong da ha noi", "streetNormalize": "yen lang lang ha dong da ha noi", "wardNormalize": "lang ha dong da ha noi", "districtNormalize": "dong da ha noi", "preWardNormalize": "phuong lang ha dong da ha noi", "lat": 21.0125461, "lon": 105.8176944, "geolocation": {"latitude": 21.0125461, "longitude": 105.8176944}}, {"district": "Đống Đa", "ward": "Láng Hạ", "street": "Đường Láng", "city": "Hà Nội", "normalize": "duong lang lang ha dong da ha noi", "streetNormalize": "duong lang lang ha dong da ha noi", "wardNormalize": "lang ha dong da ha noi", "districtNormalize": "dong da ha noi", "preWardNormalize": "phuong lang ha dong da ha noi", "lat": 21.014209, "lon": 105.806528, "geolocation": {"latitude": 21.014209, "longitude": 105.806528}}, {"district": "Đống Đa", "ward": "Láng Thượng", "street": "Chùa Láng", "city": "Hà Nội", "normalize": "chua lang lang thuong dong da ha noi", "streetNormalize": "chua lang lang thuong dong da ha noi", "wardNormalize": "lang thuong dong da ha noi", "districtNormalize": "dong da ha noi", "preWardNormalize": "phuong lang thuong dong da ha noi", "lat": 21.023569, "lon": 105.805173, "geolocation": {"latitude": 21.023569, "longitude": 105.805173}}, {"district": "Đống Đa", "ward": "Láng Thượng", "street": "Nguyễn Chí Thanh", "city": "Hà Nội", "normalize": "nguyen chi thanh lang thuong dong da ha noi", "streetNormalize": "nguyen chi thanh lang thuong dong da ha noi", "wardNormalize": "lang thuong dong da ha noi", "districtNormalize": "dong da ha noi", "preWardNormalize": "phuong lang thuong dong da ha noi", "lat": 21.019435, "lon": 105.807856, "geolocation": {"latitude": 21.019435, "longitude": 105.807856}}, {"district": "Đống Đa", "ward": "Láng Thượng", "street": "Pháo Đài Láng", "city": "Hà Nội", "normalize": "phao dai lang lang thuong dong da ha noi", "streetNormalize": "phao dai lang lang thuong dong da ha noi", "wardNormalize": "lang thuong dong da ha noi", "districtNormalize": "dong da ha noi", "preWardNormalize": "phuong lang thuong dong da ha noi", "lat": 21.019403, "lon": 105.805488, "geolocation": {"latitude": 21.019403, "longitude": 105.805488}}, {"district": "Đống Đa", "ward": "Láng Thượng", "street": "Đường Láng", "city": "Hà Nội", "normalize": "duong lang lang thuong dong da ha noi", "streetNormalize": "duong lang lang thuong dong da ha noi", "wardNormalize": "lang thuong dong da ha noi", "districtNormalize": "dong da ha noi", "preWardNormalize": "phuong lang thuong dong da ha noi", "lat": 21.02024, "lon": 105.801836, "geolocation": {"latitude": 21.02024, "longitude": 105.801836}}, {"district": "Đống Đa", "ward": "Nam Đồng", "street": "Hồ Đắc Di", "city": "Hà Nội", "normalize": "ho dac di nam dong dong da ha noi", "streetNormalize": "ho dac di nam dong dong da ha noi", "wardNormalize": "nam dong dong da ha noi", "districtNormalize": "dong da ha noi", "preWardNormalize": "phuong nam dong dong da ha noi", "lat": 21.012206, "lon": 105.829268, "geolocation": {"latitude": 21.012206, "longitude": 105.829268}}, {"district": "Đống Đa", "ward": "Nam Đồng", "street": "Nam Đồng", "city": "Hà Nội", "normalize": "nam dong nam dong dong da ha noi", "streetNormalize": "nam dong nam dong dong da ha noi", "wardNormalize": "nam dong dong da ha noi", "districtNormalize": "dong da ha noi", "preWardNormalize": "phuong nam dong dong da ha noi", "lat": 21.0126331, "lon": 105.832424, "geolocation": {"latitude": 21.0126331, "longitude": 105.832424}}, {"district": "Đống Đa", "ward": "Nam Đồng", "street": "Nguyễn Lương Bằng", "city": "Hà Nội", "normalize": "nguyen luong bang nam dong dong da ha noi", "streetNormalize": "nguyen luong bang nam dong dong da ha noi", "wardNormalize": "nam dong dong da ha noi", "districtNormalize": "dong da ha noi", "preWardNormalize": "phuong nam dong dong da ha noi", "lat": 21.0162150523445, "lon": 105.828526684858, "geolocation": {"latitude": 21.0162150523445, "longitude": 105.828526684858}}, {"district": "Đống Đa", "ward": "Nam Đồng", "street": "Nguyễn Ngọc Doãn", "city": "Hà Nội", "normalize": "nguyen ngoc doan nam dong dong da ha noi", "streetNormalize": "nguyen ngoc doan nam dong dong da ha noi", "wardNormalize": "nam dong dong da ha noi", "districtNormalize": "dong da ha noi", "preWardNormalize": "phuong nam dong dong da ha noi", "lat": 21.0105735414076, "lon": 105.830637982628, "geolocation": {"latitude": 21.0105735414076, "longitude": 105.830637982628}}, {"district": "Đống Đa", "ward": "Nam Đồng", "street": "Trung Phụng", "city": "Hà Nội", "normalize": "trung phung nam dong dong da ha noi", "streetNormalize": "trung phung nam dong dong da ha noi", "wardNormalize": "nam dong dong da ha noi", "districtNormalize": "dong da ha noi", "preWardNormalize": "phuong nam dong dong da ha noi", "lat": 21.0142032, "lon": 105.8340099, "geolocation": {"latitude": 21.0142032, "longitude": 105.8340099}}, {"district": "Đống Đa", "ward": "Nam Đồng", "street": "Trần Hữu Tước", "city": "Hà Nội", "normalize": "tran huu tuoc nam dong dong da ha noi", "streetNormalize": "tran huu tuoc nam dong dong da ha noi", "wardNormalize": "nam dong dong da ha noi", "districtNormalize": "dong da ha noi", "preWardNormalize": "phuong nam dong dong da ha noi", "lat": 21.015036, "lon": 105.830054, "geolocation": {"latitude": 21.015036, "longitude": 105.830054}}, {"district": "Đống Đa", "ward": "Nam Đồng", "street": "Xã Đàn", "city": "Hà Nội", "normalize": "xa dan nam dong dong da ha noi", "streetNormalize": "xa dan nam dong dong da ha noi", "wardNormalize": "nam dong dong da ha noi", "districtNormalize": "dong da ha noi", "preWardNormalize": "phuong nam dong dong da ha noi", "lat": 21.0155759, "lon": 105.8327116, "geolocation": {"latitude": 21.0155759, "longitude": 105.8327116}}, {"district": "Đống Đa", "ward": "Nam Đồng", "street": "Xã Đàn 2", "city": "Hà Nội", "normalize": "xa dan 2 nam dong dong da ha noi", "streetNormalize": "xa dan 2 nam dong dong da ha noi", "wardNormalize": "nam dong dong da ha noi", "districtNormalize": "dong da ha noi", "preWardNormalize": "phuong nam dong dong da ha noi", "lat": 21.0160679, "lon": 105.8307398, "geolocation": {"latitude": 21.0160679, "longitude": 105.8307398}}, {"district": "Đống Đa", "ward": "Nam Đồng", "street": "Đông Các", "city": "Hà Nội", "normalize": "dong cac nam dong dong da ha noi", "streetNormalize": "dong cac nam dong dong da ha noi", "wardNormalize": "nam dong dong da ha noi", "districtNormalize": "dong da ha noi", "preWardNormalize": "phuong nam dong dong da ha noi", "lat": 21.017973, "lon": 105.8292203, "geolocation": {"latitude": 21.017973, "longitude": 105.8292203}}, {"district": "Đống Đa", "ward": "Nam Đồng", "street": "Đặng Văn Ngữ", "city": "Hà Nội", "normalize": "dang van ngu nam dong dong da ha noi", "streetNormalize": "dang van ngu nam dong dong da ha noi", "wardNormalize": "nam dong dong da ha noi", "districtNormalize": "dong da ha noi", "preWardNormalize": "phuong nam dong dong da ha noi", "lat": 21.011306, "lon": 105.831038, "geolocation": {"latitude": 21.011306, "longitude": 105.831038}}, {"district": "Đống Đa", "ward": "Ngã Tư Sở", "street": "Khương Thượng", "city": "Hà Nội", "normalize": "khuong thuong nga tu so dong da ha noi", "streetNormalize": "khuong thuong nga tu so dong da ha noi", "wardNormalize": "nga tu so dong da ha noi", "districtNormalize": "dong da ha noi", "preWardNormalize": "phuong nga tu so dong da ha noi", "lat": 21.0023279, "lon": 105.8239806, "geolocation": {"latitude": 21.0023279, "longitude": 105.8239806}}, {"district": "Đống Đa", "ward": "Ngã Tư Sở", "street": "Nguyễn Trãi", "city": "Hà Nội", "normalize": "nguyen trai nga tu so dong da ha noi", "streetNormalize": "nguyen trai nga tu so dong da ha noi", "wardNormalize": "nga tu so dong da ha noi", "districtNormalize": "dong da ha noi", "preWardNormalize": "phuong nga tu so dong da ha noi", "lat": 21.0017610900026, "lon": 105.818144430209, "geolocation": {"latitude": 21.0017610900026, "longitude": 105.818144430209}}, {"district": "Đống Đa", "ward": "Ngã Tư Sở", "street": "Nguyễn Văn Tuyết", "city": "Hà Nội", "normalize": "nguyen van tuyet nga tu so dong da ha noi", "streetNormalize": "nguyen van tuyet nga tu so dong da ha noi", "wardNormalize": "nga tu so dong da ha noi", "districtNormalize": "dong da ha noi", "preWardNormalize": "phuong nga tu so dong da ha noi", "lat": 21.0073867, "lon": 105.8220873, "geolocation": {"latitude": 21.0073867, "longitude": 105.8220873}}, {"district": "Đống Đa", "ward": "Ngã Tư Sở", "street": "Thái Thịnh", "city": "Hà Nội", "normalize": "thai thinh nga tu so dong da ha noi", "streetNormalize": "thai thinh nga tu so dong da ha noi", "wardNormalize": "nga tu so dong da ha noi", "districtNormalize": "dong da ha noi", "preWardNormalize": "phuong nga tu so dong da ha noi", "lat": 21.0072, "lon": 105.82119, "geolocation": {"latitude": 21.0072, "longitude": 105.82119}}, {"district": "Đống Đa", "ward": "Ngã Tư Sở", "street": "Trường Chinh", "city": "Hà Nội", "normalize": "truong chinh nga tu so dong da ha noi", "streetNormalize": "truong chinh nga tu so dong da ha noi", "wardNormalize": "nga tu so dong da ha noi", "districtNormalize": "dong da ha noi", "preWardNormalize": "phuong nga tu so dong da ha noi", "lat": 21.002183, "lon": 105.824572, "geolocation": {"latitude": 21.002183, "longitude": 105.824572}}, {"district": "Đống Đa", "ward": "Ngã Tư Sở", "street": "Tây Sơn", "city": "Hà Nội", "normalize": "tay son nga tu so dong da ha noi", "streetNormalize": "tay son nga tu so dong da ha noi", "wardNormalize": "nga tu so dong da ha noi", "districtNormalize": "dong da ha noi", "preWardNormalize": "phuong nga tu so dong da ha noi", "lat": 21.004974, "lon": 105.822218, "geolocation": {"latitude": 21.004974, "longitude": 105.822218}}, {"district": "Đống Đa", "ward": "Ngã Tư Sở", "street": "Vĩnh Hồ", "city": "Hà Nội", "normalize": "vinh ho nga tu so dong da ha noi", "streetNormalize": "vinh ho nga tu so dong da ha noi", "wardNormalize": "nga tu so dong da ha noi", "districtNormalize": "dong da ha noi", "preWardNormalize": "phuong nga tu so dong da ha noi", "lat": 21.005374, "lon": 105.82176, "geolocation": {"latitude": 21.005374, "longitude": 105.82176}}, {"district": "Đống Đa", "ward": "Ngã Tư Sở", "street": "Đường Láng", "city": "Hà Nội", "normalize": "duong lang nga tu so dong da ha noi", "streetNormalize": "duong lang nga tu so dong da ha noi", "wardNormalize": "nga tu so dong da ha noi", "districtNormalize": "dong da ha noi", "preWardNormalize": "phuong nga tu so dong da ha noi", "lat": 21.0033005, "lon": 105.8193668, "geolocation": {"latitude": 21.0033005, "longitude": 105.8193668}}, {"district": "Đống Đa", "ward": "Ngã Tư Sở", "street": "Đại La", "city": "Hà Nội", "normalize": "dai la nga tu so dong da ha noi", "streetNormalize": "dai la nga tu so dong da ha noi", "wardNormalize": "nga tu so dong da ha noi", "districtNormalize": "dong da ha noi", "preWardNormalize": "phuong nga tu so dong da ha noi", "lat": 21.0021953, "lon": 105.8238826, "geolocation": {"latitude": 21.0021953, "longitude": 105.8238826}}, {"district": "Đống Đa", "ward": "Ô Chợ Dừa", "street": "An Trạch", "city": "Hà Nội", "normalize": "an trach o cho dua dong da ha noi", "streetNormalize": "an trach o cho dua dong da ha noi", "wardNormalize": "o cho dua dong da ha noi", "districtNormalize": "dong da ha noi", "preWardNormalize": "phuong o cho dua dong da ha noi", "lat": 21.0271612, "lon": 105.8281377, "geolocation": {"latitude": 21.0271612, "longitude": 105.8281377}}, {"district": "Đống Đa", "ward": "Ô Chợ Dừa", "street": "Cẩm Văn", "city": "Hà Nội", "normalize": "cam van o cho dua dong da ha noi", "streetNormalize": "cam van o cho dua dong da ha noi", "wardNormalize": "o cho dua dong da ha noi", "districtNormalize": "dong da ha noi", "preWardNormalize": "phuong o cho dua dong da ha noi", "lat": 21.0203551, "lon": 105.8286836, "geolocation": {"latitude": 21.0203551, "longitude": 105.8286836}}, {"district": "Đống Đa", "ward": "Ô Chợ Dừa", "street": "Hoàng Cầu", "city": "Hà Nội", "normalize": "hoang cau o cho dua dong da ha noi", "streetNormalize": "hoang cau o cho dua dong da ha noi", "wardNormalize": "o cho dua dong da ha noi", "districtNormalize": "dong da ha noi", "preWardNormalize": "phuong o cho dua dong da ha noi", "lat": 21.018213, "lon": 105.824451, "geolocation": {"latitude": 21.018213, "longitude": 105.824451}}, {"district": "Đống Đa", "ward": "Ô Chợ Dừa", "street": "Hào Nam", "city": "Hà Nội", "normalize": "hao nam o cho dua dong da ha noi", "streetNormalize": "hao nam o cho dua dong da ha noi", "wardNormalize": "o cho dua dong da ha noi", "districtNormalize": "dong da ha noi", "preWardNormalize": "phuong o cho dua dong da ha noi", "lat": 21.0244918, "lon": 105.8271796, "geolocation": {"latitude": 21.0244918, "longitude": 105.8271796}}, {"district": "Đống Đa", "ward": "Ô Chợ Dừa", "street": "La Thành", "city": "Hà Nội", "normalize": "la thanh o cho dua dong da ha noi", "streetNormalize": "la thanh o cho dua dong da ha noi", "wardNormalize": "o cho dua dong da ha noi", "districtNormalize": "dong da ha noi", "preWardNormalize": "phuong o cho dua dong da ha noi", "lat": 21.022277, "lon": 105.823407, "geolocation": {"latitude": 21.022277, "longitude": 105.823407}}, {"district": "Đống Đa", "ward": "Ô Chợ Dừa", "street": "Mai Anh Tuấn", "city": "Hà Nội", "normalize": "mai anh tuan o cho dua dong da ha noi", "streetNormalize": "mai anh tuan o cho dua dong da ha noi", "wardNormalize": "o cho dua dong da ha noi", "districtNormalize": "dong da ha noi", "preWardNormalize": "phuong o cho dua dong da ha noi", "lat": 21.0191712, "lon": 105.8206014, "geolocation": {"latitude": 21.0191712, "longitude": 105.8206014}}, {"district": "Đống Đa", "ward": "Ô Chợ Dừa", "street": "Nguyễn Lương Bằng", "city": "Hà Nội", "normalize": "nguyen luong bang o cho dua dong da ha noi", "streetNormalize": "nguyen luong bang o cho dua dong da ha noi", "wardNormalize": "o cho dua dong da ha noi", "districtNormalize": "dong da ha noi", "preWardNormalize": "phuong o cho dua dong da ha noi", "lat": 21.018731, "lon": 105.829859, "geolocation": {"latitude": 21.018731, "longitude": 105.829859}}, {"district": "Đống Đa", "ward": "Ô Chợ Dừa", "street": "Nguyễn Phúc Lai", "city": "Hà Nội", "normalize": "nguyen phuc lai o cho dua dong da ha noi", "streetNormalize": "nguyen phuc lai o cho dua dong da ha noi", "wardNormalize": "o cho dua dong da ha noi", "districtNormalize": "dong da ha noi", "preWardNormalize": "phuong o cho dua dong da ha noi", "lat": 21.0219381, "lon": 105.8222454, "geolocation": {"latitude": 21.0219381, "longitude": 105.8222454}}, {"district": "Đống Đa", "ward": "Ô Chợ Dừa", "street": "Quan Thổ 1", "city": "Hà Nội", "normalize": "quan tho 1 o cho dua dong da ha noi", "streetNormalize": "quan tho 1 o cho dua dong da ha noi", "wardNormalize": "o cho dua dong da ha noi", "districtNormalize": "dong da ha noi", "preWardNormalize": "phuong o cho dua dong da ha noi", "lat": 21.0239385, "lon": 105.8291585, "geolocation": {"latitude": 21.0239385, "longitude": 105.8291585}}, {"district": "Đống Đa", "ward": "Ô Chợ Dừa", "street": "Trần Quang Diệu", "city": "Hà Nội", "normalize": "tran quang dieu o cho dua dong da ha noi", "streetNormalize": "tran quang dieu o cho dua dong da ha noi", "wardNormalize": "o cho dua dong da ha noi", "districtNormalize": "dong da ha noi", "preWardNormalize": "phuong o cho dua dong da ha noi", "lat": 21.016164, "lon": 105.824915, "geolocation": {"latitude": 21.016164, "longitude": 105.824915}}, {"district": "Đống Đa", "ward": "Ô Chợ Dừa", "street": "Võ Văn Dũng", "city": "Hà Nội", "normalize": "vo van dung o cho dua dong da ha noi", "streetNormalize": "vo van dung o cho dua dong da ha noi", "wardNormalize": "o cho dua dong da ha noi", "districtNormalize": "dong da ha noi", "preWardNormalize": "phuong o cho dua dong da ha noi", "lat": 21.015204, "lon": 105.8251494, "geolocation": {"latitude": 21.015204, "longitude": 105.8251494}}, {"district": "Đống Đa", "ward": "Ô Chợ Dừa", "street": "Vũ Thạnh", "city": "Hà Nội", "normalize": "vu thanh o cho dua dong da ha noi", "streetNormalize": "vu thanh o cho dua dong da ha noi", "wardNormalize": "o cho dua dong da ha noi", "districtNormalize": "dong da ha noi", "preWardNormalize": "phuong o cho dua dong da ha noi", "lat": 21.026655, "lon": 105.826186, "geolocation": {"latitude": 21.026655, "longitude": 105.826186}}, {"district": "Đống Đa", "ward": "Ô Chợ Dừa", "street": "Ô Chợ Dừa", "city": "Hà Nội", "normalize": "o cho dua o cho dua dong da ha noi", "streetNormalize": "o cho dua o cho dua dong da ha noi", "wardNormalize": "o cho dua dong da ha noi", "districtNormalize": "dong da ha noi", "preWardNormalize": "phuong o cho dua dong da ha noi", "lat": 21.0190665, "lon": 105.828982, "geolocation": {"latitude": 21.0190665, "longitude": 105.828982}}, {"district": "Đống Đa", "ward": "Ô Chợ Dừa", "street": "Đông Các", "city": "Hà Nội", "normalize": "dong cac o cho dua dong da ha noi", "streetNormalize": "dong cac o cho dua dong da ha noi", "wardNormalize": "o cho dua dong da ha noi", "districtNormalize": "dong da ha noi", "preWardNormalize": "phuong o cho dua dong da ha noi", "lat": 21.0189393, "lon": 105.828135, "geolocation": {"latitude": 21.0189393, "longitude": 105.828135}}, {"district": "Đống Đa", "ward": "Phương Liên", "street": "Hoàng Tích Trí", "city": "Hà Nội", "normalize": "hoang tich tri phuong lien dong da ha noi", "streetNormalize": "hoang tich tri phuong lien dong da ha noi", "wardNormalize": "phuong lien dong da ha noi", "districtNormalize": "dong da ha noi", "preWardNormalize": "phuong phuong lien dong da ha noi", "lat": 21.0095689136094, "lon": 105.837712673683, "geolocation": {"latitude": 21.0095689136094, "longitude": 105.837712673683}}, {"district": "Đống Đa", "ward": "Phương Liên", "street": "Kim Hoa", "city": "Hà Nội", "normalize": "kim hoa phuong lien dong da ha noi", "streetNormalize": "kim hoa phuong lien dong da ha noi", "wardNormalize": "phuong lien dong da ha noi", "districtNormalize": "dong da ha noi", "preWardNormalize": "phuong phuong lien dong da ha noi", "lat": 21.010397, "lon": 105.8384, "geolocation": {"latitude": 21.010397, "longitude": 105.8384}}, {"district": "Đống Đa", "ward": "Phương Liên", "street": "Lê Duẩn", "city": "Hà Nội", "normalize": "le duan phuong lien dong da ha noi", "streetNormalize": "le duan phuong lien dong da ha noi", "wardNormalize": "phuong lien dong da ha noi", "districtNormalize": "dong da ha noi", "preWardNormalize": "phuong phuong lien dong da ha noi", "lat": 21.008613, "lon": 105.841343, "geolocation": {"latitude": 21.008613, "longitude": 105.841343}}, {"district": "Đống Đa", "ward": "Phương Liên", "street": "Phạm Ngọc Thạch", "city": "Hà Nội", "normalize": "pham ngoc thach phuong lien dong da ha noi", "streetNormalize": "pham ngoc thach phuong lien dong da ha noi", "wardNormalize": "phuong lien dong da ha noi", "districtNormalize": "dong da ha noi", "preWardNormalize": "phuong phuong lien dong da ha noi", "lat": 21.010619, "lon": 105.836553, "geolocation": {"latitude": 21.010619, "longitude": 105.836553}}, {"district": "Đống Đa", "ward": "Phương Liên", "street": "Xã Đàn", "city": "Hà Nội", "normalize": "xa dan phuong lien dong da ha noi", "streetNormalize": "xa dan phuong lien dong da ha noi", "wardNormalize": "phuong lien dong da ha noi", "districtNormalize": "dong da ha noi", "preWardNormalize": "phuong phuong lien dong da ha noi", "lat": 21.0088967, "lon": 105.8389823, "geolocation": {"latitude": 21.0088967, "longitude": 105.8389823}}, {"district": "Đống Đa", "ward": "Phương Liên", "street": "Ô Đồng Lầm", "city": "Hà Nội", "normalize": "o dong lam phuong lien dong da ha noi", "streetNormalize": "o dong lam phuong lien dong da ha noi", "wardNormalize": "phuong lien dong da ha noi", "districtNormalize": "dong da ha noi", "preWardNormalize": "phuong phuong lien dong da ha noi", "lat": 21.0123093, "lon": 105.8391686, "geolocation": {"latitude": 21.0123093, "longitude": 105.8391686}}, {"district": "Đống Đa", "ward": "Phương Mai", "street": "Giải Phóng", "city": "Hà Nội", "normalize": "giai phong phuong mai dong da ha noi", "streetNormalize": "giai phong phuong mai dong da ha noi", "wardNormalize": "phuong mai dong da ha noi", "districtNormalize": "dong da ha noi", "preWardNormalize": "phuong phuong mai dong da ha noi", "lat": 21.001991, "lon": 105.841242, "geolocation": {"latitude": 21.001991, "longitude": 105.841242}}, {"district": "Đống Đa", "ward": "Phương Mai", "street": "Lê Duẩn", "city": "Hà Nội", "normalize": "le duan phuong mai dong da ha noi", "streetNormalize": "le duan phuong mai dong da ha noi", "wardNormalize": "phuong mai dong da ha noi", "districtNormalize": "dong da ha noi", "preWardNormalize": "phuong phuong mai dong da ha noi", "lat": 21.007818, "lon": 105.841336, "geolocation": {"latitude": 21.007818, "longitude": 105.841336}}, {"district": "Đống Đa", "ward": "Phương Mai", "street": "Lương Định Của", "city": "Hà Nội", "normalize": "luong dinh cua phuong mai dong da ha noi", "streetNormalize": "luong dinh cua phuong mai dong da ha noi", "wardNormalize": "phuong mai dong da ha noi", "districtNormalize": "dong da ha noi", "preWardNormalize": "phuong phuong mai dong da ha noi", "lat": 21.001333, "lon": 105.8360148, "geolocation": {"latitude": 21.001333, "longitude": 105.8360148}}, {"district": "Đống Đa", "ward": "Phương Mai", "street": "Phương Mai", "city": "Hà Nội", "normalize": "phuong mai phuong mai dong da ha noi", "streetNormalize": "phuong mai phuong mai dong da ha noi", "wardNormalize": "phuong mai dong da ha noi", "districtNormalize": "dong da ha noi", "preWardNormalize": "phuong phuong mai dong da ha noi", "lat": 21.0037916, "lon": 105.8374303, "geolocation": {"latitude": 21.0037916, "longitude": 105.8374303}}, {"district": "Đống Đa", "ward": "Phương Mai", "street": "Phố Vọng", "city": "Hà Nội", "normalize": "pho vong phuong mai dong da ha noi", "streetNormalize": "pho vong phuong mai dong da ha noi", "wardNormalize": "phuong mai dong da ha noi", "districtNormalize": "dong da ha noi", "preWardNormalize": "phuong phuong mai dong da ha noi", "lat": 20.9989504, "lon": 105.8419412, "geolocation": {"latitude": 20.9989504, "longitude": 105.8419412}}, {"district": "Đống Đa", "ward": "Phương Mai", "street": "Trường Chinh", "city": "Hà Nội", "normalize": "truong chinh phuong mai dong da ha noi", "streetNormalize": "truong chinh phuong mai dong da ha noi", "wardNormalize": "phuong mai dong da ha noi", "districtNormalize": "dong da ha noi", "preWardNormalize": "phuong phuong mai dong da ha noi", "lat": 20.998135, "lon": 105.840306, "geolocation": {"latitude": 20.998135, "longitude": 105.840306}}, {"district": "Đống Đa", "ward": "Phương Mai", "street": "Xã Đàn", "city": "Hà Nội", "normalize": "xa dan phuong mai dong da ha noi", "streetNormalize": "xa dan phuong mai dong da ha noi", "wardNormalize": "phuong mai dong da ha noi", "districtNormalize": "dong da ha noi", "preWardNormalize": "phuong phuong mai dong da ha noi", "lat": 21.007585, "lon": 105.841337, "geolocation": {"latitude": 21.007585, "longitude": 105.841337}}, {"district": "Đống Đa", "ward": "Phương Mai", "street": "Đào Duy Anh", "city": "Hà Nội", "normalize": "dao duy anh phuong mai dong da ha noi", "streetNormalize": "dao duy anh phuong mai dong da ha noi", "wardNormalize": "phuong mai dong da ha noi", "districtNormalize": "dong da ha noi", "preWardNormalize": "phuong phuong mai dong da ha noi", "lat": 21.00798, "lon": 105.839154, "geolocation": {"latitude": 21.00798, "longitude": 105.839154}}, {"district": "Đống Đa", "ward": "Phương Mai", "street": "Đại La", "city": "Hà Nội", "normalize": "dai la phuong mai dong da ha noi", "streetNormalize": "dai la phuong mai dong da ha noi", "wardNormalize": "phuong mai dong da ha noi", "districtNormalize": "dong da ha noi", "preWardNormalize": "phuong phuong mai dong da ha noi", "lat": 20.9985494, "lon": 105.8386026, "geolocation": {"latitude": 20.9985494, "longitude": 105.8386026}}, {"district": "Đống Đa", "ward": "Quang Trung", "street": "Chùa Bộc", "city": "Hà Nội", "normalize": "chua boc quang trung dong da ha noi", "streetNormalize": "chua boc quang trung dong da ha noi", "wardNormalize": "quang trung dong da ha noi", "districtNormalize": "dong da ha noi", "preWardNormalize": "phuong quang trung dong da ha noi", "lat": 21.006884, "lon": 105.829832, "geolocation": {"latitude": 21.006884, "longitude": 105.829832}}, {"district": "Đống Đa", "ward": "Quang Trung", "street": "Hồ Đắc Di", "city": "Hà Nội", "normalize": "ho dac di quang trung dong da ha noi", "streetNormalize": "ho dac di quang trung dong da ha noi", "wardNormalize": "quang trung dong da ha noi", "districtNormalize": "dong da ha noi", "preWardNormalize": "phuong quang trung dong da ha noi", "lat": 21.013047, "lon": 105.827688, "geolocation": {"latitude": 21.013047, "longitude": 105.827688}}, {"district": "Đống Đa", "ward": "Quang Trung", "street": "Liên Việt", "city": "Hà Nội", "normalize": "lien viet quang trung dong da ha noi", "streetNormalize": "lien viet quang trung dong da ha noi", "wardNormalize": "quang trung dong da ha noi", "districtNormalize": "dong da ha noi", "preWardNormalize": "phuong quang trung dong da ha noi", "lat": 21.0140375, "lon": 105.8277647, "geolocation": {"latitude": 21.0140375, "longitude": 105.8277647}}, {"district": "Đống Đa", "ward": "Quang Trung", "street": "Nguyễn Lương Bằng", "city": "Hà Nội", "normalize": "nguyen luong bang quang trung dong da ha noi", "streetNormalize": "nguyen luong bang quang trung dong da ha noi", "wardNormalize": "quang trung dong da ha noi", "districtNormalize": "dong da ha noi", "preWardNormalize": "phuong quang trung dong da ha noi", "lat": 21.0146882, "lon": 105.8276803, "geolocation": {"latitude": 21.0146882, "longitude": 105.8276803}}, {"district": "Đống Đa", "ward": "Quang Trung", "street": "Nguyễn Ngọc Doãn", "city": "Hà Nội", "normalize": "nguyen ngoc doan quang trung dong da ha noi", "streetNormalize": "nguyen ngoc doan quang trung dong da ha noi", "wardNormalize": "quang trung dong da ha noi", "districtNormalize": "dong da ha noi", "preWardNormalize": "phuong quang trung dong da ha noi", "lat": 21.0089092, "lon": 105.8300708, "geolocation": {"latitude": 21.0089092, "longitude": 105.8300708}}, {"district": "Đống Đa", "ward": "Quang Trung", "street": "Trần Quang Diệu", "city": "Hà Nội", "normalize": "tran quang dieu quang trung dong da ha noi", "streetNormalize": "tran quang dieu quang trung dong da ha noi", "wardNormalize": "quang trung dong da ha noi", "districtNormalize": "dong da ha noi", "preWardNormalize": "phuong quang trung dong da ha noi", "lat": 21.014682, "lon": 105.823952, "geolocation": {"latitude": 21.014682, "longitude": 105.823952}}, {"district": "Đống Đa", "ward": "Quang Trung", "street": "Tây Sơn", "city": "Hà Nội", "normalize": "tay son quang trung dong da ha noi", "streetNormalize": "tay son quang trung dong da ha noi", "wardNormalize": "quang trung dong da ha noi", "districtNormalize": "dong da ha noi", "preWardNormalize": "phuong quang trung dong da ha noi", "lat": 21.0121365, "lon": 105.826066, "geolocation": {"latitude": 21.0121365, "longitude": 105.826066}}, {"district": "Đống Đa", "ward": "Quốc Tử Giám", "street": "An Trạch", "city": "Hà Nội", "normalize": "an trach quoc tu giam dong da ha noi", "streetNormalize": "an trach quoc tu giam dong da ha noi", "wardNormalize": "quoc tu giam dong da ha noi", "districtNormalize": "dong da ha noi", "preWardNormalize": "phuong quoc tu giam dong da ha noi", "lat": 21.027651, "lon": 105.830193, "geolocation": {"latitude": 21.027651, "longitude": 105.830193}}, {"district": "Đống Đa", "ward": "Quốc Tử Giám", "street": "An Trạch 1", "city": "Hà Nội", "normalize": "an trach 1 quoc tu giam dong da ha noi", "streetNormalize": "an trach 1 quoc tu giam dong da ha noi", "wardNormalize": "quoc tu giam dong da ha noi", "districtNormalize": "dong da ha noi", "preWardNormalize": "phuong quoc tu giam dong da ha noi", "lat": 21.0268611, "lon": 105.8300549, "geolocation": {"latitude": 21.0268611, "longitude": 105.8300549}}, {"district": "Đống Đa", "ward": "Quốc Tử Giám", "street": "An Trạch 2", "city": "Hà Nội", "normalize": "an trach 2 quoc tu giam dong da ha noi", "streetNormalize": "an trach 2 quoc tu giam dong da ha noi", "wardNormalize": "quoc tu giam dong da ha noi", "districtNormalize": "dong da ha noi", "preWardNormalize": "phuong quoc tu giam dong da ha noi", "lat": 21.0263933, "lon": 105.8311145, "geolocation": {"latitude": 21.0263933, "longitude": 105.8311145}}, {"district": "Đống Đa", "ward": "Quốc Tử Giám", "street": "Bích Câu", "city": "Hà Nội", "normalize": "bich cau quoc tu giam dong da ha noi", "streetNormalize": "bich cau quoc tu giam dong da ha noi", "wardNormalize": "quoc tu giam dong da ha noi", "districtNormalize": "dong da ha noi", "preWardNormalize": "phuong quoc tu giam dong da ha noi", "lat": 21.027206, "lon": 105.832214, "geolocation": {"latitude": 21.027206, "longitude": 105.832214}}, {"district": "Đống Đa", "ward": "Quốc Tử Giám", "street": "Cát Linh", "city": "Hà Nội", "normalize": "cat linh quoc tu giam dong da ha noi", "streetNormalize": "cat linh quoc tu giam dong da ha noi", "wardNormalize": "quoc tu giam dong da ha noi", "districtNormalize": "dong da ha noi", "preWardNormalize": "phuong quoc tu giam dong da ha noi", "lat": 21.028171, "lon": 105.833246, "geolocation": {"latitude": 21.028171, "longitude": 105.833246}}, {"district": "Đống Đa", "ward": "Quốc Tử Giám", "street": "Hồ Giám", "city": "Hà Nội", "normalize": "ho giam quoc tu giam dong da ha noi", "streetNormalize": "ho giam quoc tu giam dong da ha noi", "wardNormalize": "quoc tu giam dong da ha noi", "districtNormalize": "dong da ha noi", "preWardNormalize": "phuong quoc tu giam dong da ha noi", "lat": 21.026465, "lon": 105.8343807, "geolocation": {"latitude": 21.026465, "longitude": 105.8343807}}, {"district": "Đống Đa", "ward": "Quốc Tử Giám", "street": "Quốc Tử Giám", "city": "Hà Nội", "normalize": "quoc tu giam quoc tu giam dong da ha noi", "streetNormalize": "quoc tu giam quoc tu giam dong da ha noi", "wardNormalize": "quoc tu giam dong da ha noi", "districtNormalize": "dong da ha noi", "preWardNormalize": "phuong quoc tu giam dong da ha noi", "lat": 21.02717, "lon": 105.835782, "geolocation": {"latitude": 21.02717, "longitude": 105.835782}}, {"district": "Đống Đa", "ward": "Quốc Tử Giám", "street": "Thông Phong", "city": "Hà Nội", "normalize": "thong phong quoc tu giam dong da ha noi", "streetNormalize": "thong phong quoc tu giam dong da ha noi", "wardNormalize": "quoc tu giam dong da ha noi", "districtNormalize": "dong da ha noi", "preWardNormalize": "phuong quoc tu giam dong da ha noi", "lat": 21.0257411, "lon": 105.8347557, "geolocation": {"latitude": 21.0257411, "longitude": 105.8347557}}, {"district": "Đống Đa", "ward": "Quốc Tử Giám", "street": "Tôn Đức Thắng", "city": "Hà Nội", "normalize": "ton duc thang quoc tu giam dong da ha noi", "streetNormalize": "ton duc thang quoc tu giam dong da ha noi", "wardNormalize": "quoc tu giam dong da ha noi", "districtNormalize": "dong da ha noi", "preWardNormalize": "phuong quoc tu giam dong da ha noi", "lat": 21.026245, "lon": 105.83354, "geolocation": {"latitude": 21.026245, "longitude": 105.83354}}, {"district": "Đống Đa", "ward": "Quốc Tử Giám", "street": "Đoàn Thi Điểm", "city": "Hà Nội", "normalize": "doan thi diem quoc tu giam dong da ha noi", "streetNormalize": "doan thi diem quoc tu giam dong da ha noi", "wardNormalize": "quoc tu giam dong da ha noi", "districtNormalize": "dong da ha noi", "preWardNormalize": "phuong quoc tu giam dong da ha noi", "lat": 21.026513, "lon": 105.831929, "geolocation": {"latitude": 21.026513, "longitude": 105.831929}}, {"district": "Đống Đa", "ward": "Quốc Tử Giám", "street": "Đặng Trần Côn", "city": "Hà Nội", "normalize": "dang tran con quoc tu giam dong da ha noi", "streetNormalize": "dang tran con quoc tu giam dong da ha noi", "wardNormalize": "quoc tu giam dong da ha noi", "districtNormalize": "dong da ha noi", "preWardNormalize": "phuong quoc tu giam dong da ha noi", "lat": 21.0275393, "lon": 105.8331702, "geolocation": {"latitude": 21.0275393, "longitude": 105.8331702}}, {"district": "Đống Đa", "ward": "Thịnh Quang", "street": "Thái Thịnh", "city": "Hà Nội", "normalize": "thai thinh thinh quang dong da ha noi", "streetNormalize": "thai thinh thinh quang dong da ha noi", "wardNormalize": "thinh quang dong da ha noi", "districtNormalize": "dong da ha noi", "preWardNormalize": "phuong thinh quang dong da ha noi", "lat": 21.010484, "lon": 105.818445, "geolocation": {"latitude": 21.010484, "longitude": 105.818445}}, {"district": "Đống Đa", "ward": "Thịnh Quang", "street": "Thái Thịnh 1", "city": "Hà Nội", "normalize": "thai thinh 1 thinh quang dong da ha noi", "streetNormalize": "thai thinh 1 thinh quang dong da ha noi", "wardNormalize": "thinh quang dong da ha noi", "districtNormalize": "dong da ha noi", "preWardNormalize": "phuong thinh quang dong da ha noi", "lat": 21.009371, "lon": 105.8162708, "geolocation": {"latitude": 21.009371, "longitude": 105.8162708}}, {"district": "Đống Đa", "ward": "Thịnh Quang", "street": "Thịnh Quang", "city": "Hà Nội", "normalize": "thinh quang thinh quang dong da ha noi", "streetNormalize": "thinh quang thinh quang dong da ha noi", "wardNormalize": "thinh quang dong da ha noi", "districtNormalize": "dong da ha noi", "preWardNormalize": "phuong thinh quang dong da ha noi", "lat": 21.0078221, "lon": 105.8179004, "geolocation": {"latitude": 21.0078221, "longitude": 105.8179004}}, {"district": "Đống Đa", "ward": "Thịnh Quang", "street": "Vĩnh Hồ", "city": "Hà Nội", "normalize": "vinh ho thinh quang dong da ha noi", "streetNormalize": "vinh ho thinh quang dong da ha noi", "wardNormalize": "thinh quang dong da ha noi", "districtNormalize": "dong da ha noi", "preWardNormalize": "phuong thinh quang dong da ha noi", "lat": 21.0070244, "lon": 105.8202179, "geolocation": {"latitude": 21.0070244, "longitude": 105.8202179}}, {"district": "Đống Đa", "ward": "Thịnh Quang", "street": "Yên Lãng", "city": "Hà Nội", "normalize": "yen lang thinh quang dong da ha noi", "streetNormalize": "yen lang thinh quang dong da ha noi", "wardNormalize": "thinh quang dong da ha noi", "districtNormalize": "dong da ha noi", "preWardNormalize": "phuong thinh quang dong da ha noi", "lat": 21.010132, "lon": 105.815834, "geolocation": {"latitude": 21.010132, "longitude": 105.815834}}, {"district": "Đống Đa", "ward": "Thịnh Quang", "street": "Đường Láng", "city": "Hà Nội", "normalize": "duong lang thinh quang dong da ha noi", "streetNormalize": "duong lang thinh quang dong da ha noi", "wardNormalize": "thinh quang dong da ha noi", "districtNormalize": "dong da ha noi", "preWardNormalize": "phuong thinh quang dong da ha noi", "lat": 21.0072366, "lon": 105.8156175, "geolocation": {"latitude": 21.0072366, "longitude": 105.8156175}}, {"district": "Đống Đa", "ward": "Thổ Quan", "street": "Hồ Văn Chương", "city": "Hà Nội", "normalize": "ho van chuong tho quan dong da ha noi", "streetNormalize": "ho van chuong tho quan dong da ha noi", "wardNormalize": "tho quan dong da ha noi", "districtNormalize": "dong da ha noi", "preWardNormalize": "phuong tho quan dong da ha noi", "lat": 21.0206953, "lon": 105.8336232, "geolocation": {"latitude": 21.0206953, "longitude": 105.8336232}}, {"district": "Đống Đa", "ward": "Thổ Quan", "street": "Khâm Thiên", "city": "Hà Nội", "normalize": "kham thien tho quan dong da ha noi", "streetNormalize": "kham thien tho quan dong da ha noi", "wardNormalize": "tho quan dong da ha noi", "districtNormalize": "dong da ha noi", "preWardNormalize": "phuong tho quan dong da ha noi", "lat": 21.0193828, "lon": 105.8312498, "geolocation": {"latitude": 21.0193828, "longitude": 105.8312498}}, {"district": "Đống Đa", "ward": "Thổ Quan", "street": "Thổ Quan", "city": "Hà Nội", "normalize": "tho quan tho quan dong da ha noi", "streetNormalize": "tho quan tho quan dong da ha noi", "wardNormalize": "tho quan dong da ha noi", "districtNormalize": "dong da ha noi", "preWardNormalize": "phuong tho quan dong da ha noi", "lat": 21.0171175, "lon": 105.8334839, "geolocation": {"latitude": 21.0171175, "longitude": 105.8334839}}, {"district": "Đống Đa", "ward": "Thổ Quan", "street": "Trung Phụng", "city": "Hà Nội", "normalize": "trung phung tho quan dong da ha noi", "streetNormalize": "trung phung tho quan dong da ha noi", "wardNormalize": "tho quan dong da ha noi", "districtNormalize": "dong da ha noi", "preWardNormalize": "phuong tho quan dong da ha noi", "lat": 21.016101, "lon": 105.8355646, "geolocation": {"latitude": 21.016101, "longitude": 105.8355646}}, {"district": "Đống Đa", "ward": "Thổ Quan", "street": "Trung Tả", "city": "Hà Nội", "normalize": "trung ta tho quan dong da ha noi", "streetNormalize": "trung ta tho quan dong da ha noi", "wardNormalize": "tho quan dong da ha noi", "districtNormalize": "dong da ha noi", "preWardNormalize": "phuong tho quan dong da ha noi", "lat": 21.0200958, "lon": 105.8344381, "geolocation": {"latitude": 21.0200958, "longitude": 105.8344381}}, {"district": "Đống Đa", "ward": "Trung Liệt", "street": "Chùa Bộc", "city": "Hà Nội", "normalize": "chua boc trung liet dong da ha noi", "streetNormalize": "chua boc trung liet dong da ha noi", "wardNormalize": "trung liet dong da ha noi", "districtNormalize": "dong da ha noi", "preWardNormalize": "phuong trung liet dong da ha noi", "lat": 21.006987, "lon": 105.829607, "geolocation": {"latitude": 21.006987, "longitude": 105.829607}}, {"district": "Đống Đa", "ward": "Trung Liệt", "street": "Hoàng Cầu", "city": "Hà Nội", "normalize": "hoang cau trung liet dong da ha noi", "streetNormalize": "hoang cau trung liet dong da ha noi", "wardNormalize": "trung liet dong da ha noi", "districtNormalize": "dong da ha noi", "preWardNormalize": "phuong trung liet dong da ha noi", "lat": 21.016345, "lon": 105.821532, "geolocation": {"latitude": 21.016345, "longitude": 105.821532}}, {"district": "Đống Đa", "ward": "Trung Liệt", "street": "Nguyễn Văn Tuyết", "city": "Hà Nội", "normalize": "nguyen van tuyet trung liet dong da ha noi", "streetNormalize": "nguyen van tuyet trung liet dong da ha noi", "wardNormalize": "trung liet dong da ha noi", "districtNormalize": "dong da ha noi", "preWardNormalize": "phuong trung liet dong da ha noi", "lat": 21.008881, "lon": 105.820779, "geolocation": {"latitude": 21.008881, "longitude": 105.820779}}, {"district": "Đống Đa", "ward": "Trung Liệt", "street": "Tam Khương", "city": "Hà Nội", "normalize": "tam khuong trung liet dong da ha noi", "streetNormalize": "tam khuong trung liet dong da ha noi", "wardNormalize": "trung liet dong da ha noi", "districtNormalize": "dong da ha noi", "preWardNormalize": "phuong trung liet dong da ha noi", "lat": 21.004429, "lon": 105.827713, "geolocation": {"latitude": 21.004429, "longitude": 105.827713}}, {"district": "Đống Đa", "ward": "Trung Liệt", "street": "Thái Hà", "city": "Hà Nội", "normalize": "thai ha trung liet dong da ha noi", "streetNormalize": "thai ha trung liet dong da ha noi", "wardNormalize": "trung liet dong da ha noi", "districtNormalize": "dong da ha noi", "preWardNormalize": "phuong trung liet dong da ha noi", "lat": 21.0109667, "lon": 105.8221301, "geolocation": {"latitude": 21.0109667, "longitude": 105.8221301}}, {"district": "Đống Đa", "ward": "Trung Liệt", "street": "Trung Liệt", "city": "Hà Nội", "normalize": "trung liet trung liet dong da ha noi", "streetNormalize": "trung liet trung liet dong da ha noi", "wardNormalize": "trung liet dong da ha noi", "districtNormalize": "dong da ha noi", "preWardNormalize": "phuong trung liet dong da ha noi", "lat": 21.010684, "lon": 105.819898, "geolocation": {"latitude": 21.010684, "longitude": 105.819898}}, {"district": "Đống Đa", "ward": "Trung Liệt", "street": "Trần Quang Diệu", "city": "Hà Nội", "normalize": "tran quang dieu trung liet dong da ha noi", "streetNormalize": "tran quang dieu trung liet dong da ha noi", "wardNormalize": "trung liet dong da ha noi", "districtNormalize": "dong da ha noi", "preWardNormalize": "phuong trung liet dong da ha noi", "lat": 21.014113, "lon": 105.823252, "geolocation": {"latitude": 21.014113, "longitude": 105.823252}}, {"district": "Đống Đa", "ward": "Trung Liệt", "street": "Tây Sơn", "city": "Hà Nội", "normalize": "tay son trung liet dong da ha noi", "streetNormalize": "tay son trung liet dong da ha noi", "wardNormalize": "trung liet dong da ha noi", "districtNormalize": "dong da ha noi", "preWardNormalize": "phuong trung liet dong da ha noi", "lat": 21.008046, "lon": 105.823717, "geolocation": {"latitude": 21.008046, "longitude": 105.823717}}, {"district": "Đống Đa", "ward": "Trung Liệt", "street": "Võ Văn Dũng", "city": "Hà Nội", "normalize": "vo van dung trung liet dong da ha noi", "streetNormalize": "vo van dung trung liet dong da ha noi", "wardNormalize": "trung liet dong da ha noi", "districtNormalize": "dong da ha noi", "preWardNormalize": "phuong trung liet dong da ha noi", "lat": 21.0162231, "lon": 105.8233841, "geolocation": {"latitude": 21.0162231, "longitude": 105.8233841}}, {"district": "Đống Đa", "ward": "Trung Liệt", "street": "Đặng Tiến Đông", "city": "Hà Nội", "normalize": "dang tien dong trung liet dong da ha noi", "streetNormalize": "dang tien dong trung liet dong da ha noi", "wardNormalize": "trung liet dong da ha noi", "districtNormalize": "dong da ha noi", "preWardNormalize": "phuong trung liet dong da ha noi", "lat": 21.0131715, "lon": 105.822865, "geolocation": {"latitude": 21.0131715, "longitude": 105.822865}}, {"district": "Đống Đa", "ward": "Trung Phụng", "street": "Lê Duẩn", "city": "Hà Nội", "normalize": "le duan trung phung dong da ha noi", "streetNormalize": "le duan trung phung dong da ha noi", "wardNormalize": "trung phung dong da ha noi", "districtNormalize": "dong da ha noi", "preWardNormalize": "phuong trung phung dong da ha noi", "lat": 21.015319, "lon": 105.841422, "geolocation": {"latitude": 21.015319, "longitude": 105.841422}}, {"district": "Đống Đa", "ward": "Trung Phụng", "street": "Trung Phụng", "city": "Hà Nội", "normalize": "trung phung trung phung dong da ha noi", "streetNormalize": "trung phung trung phung dong da ha noi", "wardNormalize": "trung phung dong da ha noi", "districtNormalize": "dong da ha noi", "preWardNormalize": "phuong trung phung dong da ha noi", "lat": 21.0176099, "lon": 105.836563, "geolocation": {"latitude": 21.0176099, "longitude": 105.836563}}, {"district": "Đống Đa", "ward": "Trung Phụng", "street": "Ô Đồng Lầm", "city": "Hà Nội", "normalize": "o dong lam trung phung dong da ha noi", "streetNormalize": "o dong lam trung phung dong da ha noi", "wardNormalize": "trung phung dong da ha noi", "districtNormalize": "dong da ha noi", "preWardNormalize": "phuong trung phung dong da ha noi", "lat": 21.014362, "lon": 105.840338, "geolocation": {"latitude": 21.014362, "longitude": 105.840338}}, {"district": "Đống Đa", "ward": "Trung Tự", "street": "Chùa Bộc", "city": "Hà Nội", "normalize": "chua boc trung tu dong da ha noi", "streetNormalize": "chua boc trung tu dong da ha noi", "wardNormalize": "trung tu dong da ha noi", "districtNormalize": "dong da ha noi", "preWardNormalize": "phuong trung tu dong da ha noi", "lat": 21.006344, "lon": 105.831016, "geolocation": {"latitude": 21.006344, "longitude": 105.831016}}, {"district": "Đống Đa", "ward": "Trung Tự", "street": "Nguyễn Ngọc Doãn", "city": "Hà Nội", "normalize": "nguyen ngoc doan trung tu dong da ha noi", "streetNormalize": "nguyen ngoc doan trung tu dong da ha noi", "wardNormalize": "trung tu dong da ha noi", "districtNormalize": "dong da ha noi", "preWardNormalize": "phuong trung tu dong da ha noi", "lat": 21.0089092, "lon": 105.8300708, "geolocation": {"latitude": 21.0089092, "longitude": 105.8300708}}, {"district": "Đống Đa", "ward": "Trung Tự", "street": "Phạm Ngọc Thạch", "city": "Hà Nội", "normalize": "pham ngoc thach trung tu dong da ha noi", "streetNormalize": "pham ngoc thach trung tu dong da ha noi", "wardNormalize": "trung tu dong da ha noi", "districtNormalize": "dong da ha noi", "preWardNormalize": "phuong trung tu dong da ha noi", "lat": 21.009174, "lon": 105.834798, "geolocation": {"latitude": 21.009174, "longitude": 105.834798}}, {"district": "Đống Đa", "ward": "Trung Tự", "street": "Tam Khương", "city": "Hà Nội", "normalize": "tam khuong trung tu dong da ha noi", "streetNormalize": "tam khuong trung tu dong da ha noi", "wardNormalize": "trung tu dong da ha noi", "districtNormalize": "dong da ha noi", "preWardNormalize": "phuong trung tu dong da ha noi", "lat": 21.004226, "lon": 105.8300095, "geolocation": {"latitude": 21.004226, "longitude": 105.8300095}}, {"district": "Đống Đa", "ward": "Trung Tự", "street": "Tôn Thất Tùng", "city": "Hà Nội", "normalize": "ton that tung trung tu dong da ha noi", "streetNormalize": "ton that tung trung tu dong da ha noi", "wardNormalize": "trung tu dong da ha noi", "districtNormalize": "dong da ha noi", "preWardNormalize": "phuong trung tu dong da ha noi", "lat": 21.0050196, "lon": 105.8306219, "geolocation": {"latitude": 21.0050196, "longitude": 105.8306219}}, {"district": "Đống Đa", "ward": "Trung Tự", "street": "Đông Tác", "city": "Hà Nội", "normalize": "dong tac trung tu dong da ha noi", "streetNormalize": "dong tac trung tu dong da ha noi", "wardNormalize": "trung tu dong da ha noi", "districtNormalize": "dong da ha noi", "preWardNormalize": "phuong trung tu dong da ha noi", "lat": 21.0058434, "lon": 105.8320575, "geolocation": {"latitude": 21.0058434, "longitude": 105.8320575}}, {"district": "Đống Đa", "ward": "Trung Tự", "street": "Đặng Văn Ngữ", "city": "Hà Nội", "normalize": "dang van ngu trung tu dong da ha noi", "streetNormalize": "dang van ngu trung tu dong da ha noi", "wardNormalize": "trung tu dong da ha noi", "districtNormalize": "dong da ha noi", "preWardNormalize": "phuong trung tu dong da ha noi", "lat": 21.008937, "lon": 105.831626, "geolocation": {"latitude": 21.008937, "longitude": 105.831626}}, {"district": "Đống Đa", "ward": "Văn Chương", "street": "Hồ Văn Chương", "city": "Hà Nội", "normalize": "ho van chuong van chuong dong da ha noi", "streetNormalize": "ho van chuong van chuong dong da ha noi", "wardNormalize": "van chuong dong da ha noi", "districtNormalize": "dong da ha noi", "preWardNormalize": "phuong van chuong dong da ha noi", "lat": 21.0222475, "lon": 105.8336983, "geolocation": {"latitude": 21.0222475, "longitude": 105.8336983}}, {"district": "Đống Đa", "ward": "Văn Chương", "street": "Linh Quang", "city": "Hà Nội", "normalize": "linh quang van chuong dong da ha noi", "streetNormalize": "linh quang van chuong dong da ha noi", "wardNormalize": "van chuong dong da ha noi", "districtNormalize": "dong da ha noi", "preWardNormalize": "phuong van chuong dong da ha noi", "lat": 21.023917, "lon": 105.8373506, "geolocation": {"latitude": 21.023917, "longitude": 105.8373506}}, {"district": "Đống Đa", "ward": "Văn Chương", "street": "Lương Sử A", "city": "Hà Nội", "normalize": "luong su a van chuong dong da ha noi", "streetNormalize": "luong su a van chuong dong da ha noi", "wardNormalize": "van chuong dong da ha noi", "districtNormalize": "dong da ha noi", "preWardNormalize": "phuong van chuong dong da ha noi", "lat": 21.0259003, "lon": 105.836478, "geolocation": {"latitude": 21.0259003, "longitude": 105.836478}}, {"district": "Đống Đa", "ward": "Văn Chương", "street": "Lương Sử B", "city": "Hà Nội", "normalize": "luong su b van chuong dong da ha noi", "streetNormalize": "luong su b van chuong dong da ha noi", "wardNormalize": "van chuong dong da ha noi", "districtNormalize": "dong da ha noi", "preWardNormalize": "phuong van chuong dong da ha noi", "lat": 21.0262484, "lon": 105.8363144, "geolocation": {"latitude": 21.0262484, "longitude": 105.8363144}}, {"district": "Đống Đa", "ward": "Văn Chương", "street": "Lương Sử C", "city": "Hà Nội", "normalize": "luong su c van chuong dong da ha noi", "streetNormalize": "luong su c van chuong dong da ha noi", "wardNormalize": "van chuong dong da ha noi", "districtNormalize": "dong da ha noi", "preWardNormalize": "phuong van chuong dong da ha noi", "lat": 21.025429, "lon": 105.837432, "geolocation": {"latitude": 21.025429, "longitude": 105.837432}}, {"district": "Đống Đa", "ward": "Văn Chương", "street": "Ngô Sĩ Liên", "city": "Hà Nội", "normalize": "ngo si lien van chuong dong da ha noi", "streetNormalize": "ngo si lien van chuong dong da ha noi", "wardNormalize": "van chuong dong da ha noi", "districtNormalize": "dong da ha noi", "preWardNormalize": "phuong van chuong dong da ha noi", "lat": 21.0260604, "lon": 105.8381864, "geolocation": {"latitude": 21.0260604, "longitude": 105.8381864}}, {"district": "Đống Đa", "ward": "Văn Chương", "street": "Quốc Tử Giám", "city": "Hà Nội", "normalize": "quoc tu giam van chuong dong da ha noi", "streetNormalize": "quoc tu giam van chuong dong da ha noi", "wardNormalize": "van chuong dong da ha noi", "districtNormalize": "dong da ha noi", "preWardNormalize": "phuong van chuong dong da ha noi", "lat": 21.0263289, "lon": 105.8372824, "geolocation": {"latitude": 21.0263289, "longitude": 105.8372824}}, {"district": "Đống Đa", "ward": "Văn Chương", "street": "Trung Tiền", "city": "Hà Nội", "normalize": "trung tien van chuong dong da ha noi", "streetNormalize": "trung tien van chuong dong da ha noi", "wardNormalize": "van chuong dong da ha noi", "districtNormalize": "dong da ha noi", "preWardNormalize": "phuong van chuong dong da ha noi", "lat": 21.020443847285, "lon": 105.838409927315, "geolocation": {"latitude": 21.020443847285, "longitude": 105.838409927315}}, {"district": "Đống Đa", "ward": "Văn Chương", "street": "Văn Chương", "city": "Hà Nội", "normalize": "van chuong van chuong dong da ha noi", "streetNormalize": "van chuong van chuong dong da ha noi", "wardNormalize": "van chuong dong da ha noi", "districtNormalize": "dong da ha noi", "preWardNormalize": "phuong van chuong dong da ha noi", "lat": 21.0223447, "lon": 105.8355849, "geolocation": {"latitude": 21.0223447, "longitude": 105.8355849}}, {"district": "Đống Đa", "ward": "Văn Miếu", "street": "Lê Duẩn", "city": "Hà Nội", "normalize": "le duan van mieu dong da ha noi", "streetNormalize": "le duan van mieu dong da ha noi", "wardNormalize": "van mieu dong da ha noi", "districtNormalize": "dong da ha noi", "preWardNormalize": "phuong van mieu dong da ha noi", "lat": 21.015319, "lon": 105.841422, "geolocation": {"latitude": 21.015319, "longitude": 105.841422}}, {"district": "Đống Đa", "ward": "Văn Miếu", "street": "Nguyễn Khuyến", "city": "Hà Nội", "normalize": "nguyen khuyen van mieu dong da ha noi", "streetNormalize": "nguyen khuyen van mieu dong da ha noi", "wardNormalize": "van mieu dong da ha noi", "districtNormalize": "dong da ha noi", "preWardNormalize": "phuong van mieu dong da ha noi", "lat": 21.028185, "lon": 105.839168, "geolocation": {"latitude": 21.028185, "longitude": 105.839168}}, {"district": "Đống Đa", "ward": "Văn Miếu", "street": "Nguyễn Như Đổ", "city": "Hà Nội", "normalize": "nguyen nhu do van mieu dong da ha noi", "streetNormalize": "nguyen nhu do van mieu dong da ha noi", "wardNormalize": "van mieu dong da ha noi", "districtNormalize": "dong da ha noi", "preWardNormalize": "phuong van mieu dong da ha noi", "lat": 21.0265735, "lon": 105.8392923, "geolocation": {"latitude": 21.0265735, "longitude": 105.8392923}}, {"district": "Đống Đa", "ward": "Văn Miếu", "street": "Ngô Sĩ Liên", "city": "Hà Nội", "normalize": "ngo si lien van mieu dong da ha noi", "streetNormalize": "ngo si lien van mieu dong da ha noi", "wardNormalize": "van mieu dong da ha noi", "districtNormalize": "dong da ha noi", "preWardNormalize": "phuong van mieu dong da ha noi", "lat": 21.026883, "lon": 105.8385718, "geolocation": {"latitude": 21.026883, "longitude": 105.8385718}}, {"district": "Đống Đa", "ward": "Văn Miếu", "street": "Ngô Tất Tố", "city": "Hà Nội", "normalize": "ngo tat to van mieu dong da ha noi", "streetNormalize": "ngo tat to van mieu dong da ha noi", "wardNormalize": "van mieu dong da ha noi", "districtNormalize": "dong da ha noi", "preWardNormalize": "phuong van mieu dong da ha noi", "lat": 21.0276406, "lon": 105.8370901, "geolocation": {"latitude": 21.0276406, "longitude": 105.8370901}}, {"district": "Đống Đa", "ward": "Văn Miếu", "street": "Thanh Miến", "city": "Hà Nội", "normalize": "thanh mien van mieu dong da ha noi", "streetNormalize": "thanh mien van mieu dong da ha noi", "wardNormalize": "van mieu dong da ha noi", "districtNormalize": "dong da ha noi", "preWardNormalize": "phuong van mieu dong da ha noi", "lat": 21.029241, "lon": 105.837983, "geolocation": {"latitude": 21.029241, "longitude": 105.837983}}, {"district": "Đống Đa", "ward": "Văn Miếu", "street": "Trần Quý Cáp", "city": "Hà Nội", "normalize": "tran quy cap van mieu dong da ha noi", "streetNormalize": "tran quy cap van mieu dong da ha noi", "wardNormalize": "van mieu dong da ha noi", "districtNormalize": "dong da ha noi", "preWardNormalize": "phuong van mieu dong da ha noi", "lat": 21.026385, "lon": 105.839904, "geolocation": {"latitude": 21.026385, "longitude": 105.839904}}, {"district": "Đống Đa", "ward": "Văn Miếu", "street": "Văn Miếu", "city": "Hà Nội", "normalize": "van mieu van mieu dong da ha noi", "streetNormalize": "van mieu van mieu dong da ha noi", "wardNormalize": "van mieu dong da ha noi", "districtNormalize": "dong da ha noi", "preWardNormalize": "phuong van mieu dong da ha noi", "lat": 21.029435, "lon": 105.83672, "geolocation": {"latitude": 21.029435, "longitude": 105.83672}}, {"district": "Đống Đa", "ward": "Văn Miếu", "street": "Yên Thế", "city": "Hà Nội", "normalize": "yen the van mieu dong da ha noi", "streetNormalize": "yen the van mieu dong da ha noi", "wardNormalize": "van mieu dong da ha noi", "districtNormalize": "dong da ha noi", "preWardNormalize": "phuong van mieu dong da ha noi", "lat": 21.0288013659608, "lon": 105.83929092117, "geolocation": {"latitude": 21.0288013659608, "longitude": 105.83929092117}}]}